[{"ADDRESS":"Building 1","CITY":"Addlestone","COMPANY_XRF":"12134","COMPANY_ZONE":"E","HQ_COUNTRY":"United Kingdom","HQ_COUNTRY_ISO":"GB","LATITUDE":0,"LISTING_XRF":"16036","LISTING_ZONE":"E","LONGITUDE":0,"NAME":"Mondi PLC","POSTAL_CODE":"2196","SECTOR":"BASICIND","SHARES":367240805,"SIMILARS_GROUP":"PAPER","USD_CAP":8191896458.602715},{"ADDRESS":"Carreta de Pozuelo-Majadahonda","CITY":"MADRID","COMPANY_XRF":"644","COMPANY_ZONE":"E","HQ_COUNTRY":"Spain","HQ_COUNTRY_ISO":"ES","LATITUDE":40.467536,"LISTING_XRF":"946","LISTING_ZONE":"E","LONGITUDE":-3.8684,"NAME":"Mapfre SA","POSTAL_CODE":"28220","SECTOR":"FINANCE","SHARES":1077843645.55,"SIMILARS_GROUP":"INVSTMAN","USD_CAP":3223990188.0526853},{"ADDRESS":"30 Lothian Road","CITY":"Edinburgh","COMPANY_XRF":"12000","COMPANY_ZONE":"E","HQ_COUNTRY":"United Kingdom","HQ_COUNTRY_ISO":"GB","LATITUDE":55.9541591,"LISTING_XRF":"15813","LISTING_ZONE":"E","LONGITUDE":-3.1946143,"NAME":"STANDARD LIFE ABERDEEN PLC","POSTAL_CODE":"EH1 2DH","SECTOR":"FINANCE","SHARES":2502197282,"SIMILARS_GROUP":"INVSTMAN","USD_CAP":9074880356.181416},{"ADDRESS":"Av Moliere No 222","CITY":"Mexico","COMPANY_XRF":"12321","COMPANY_ZONE":"E","HQ_COUNTRY":"United Kingdom","HQ_COUNTRY_ISO":"GB","LATITUDE":0,"LISTING_XRF":"16367","LISTING_ZONE":"E","LONGITUDE":0,"NAME":"FRESNILLO PLC","POSTAL_CODE":"11250","SECTOR":"BASICIND","SHARES":221068076.7,"SIMILARS_GROUP":"MINERALS","USD_CAP":2226512421.466327},{"ADDRESS":"1 Grand Canal Square","CITY":"Dublin","COMPANY_XRF":"5130","COMPANY_ZONE":"E","HQ_COUNTRY":"United Kingdom","HQ_COUNTRY_ISO":"GB","LATITUDE":53.34348809999999,"LISTING_XRF":"7822","LISTING_ZONE":"E","LONGITUDE":-6.2390937,"NAME":"HSBC HOLDINGS PLC","POSTAL_CODE":"2","SECTOR":"FINANCE","SHARES":20034182675,"SIMILARS_GROUP":"BANKS","USD_CAP":172769885483.58856},{"ADDRESS":"Hamnbanegatan 5","CITY":"Helsinki","COMPANY_XRF":"13265","COMPANY_ZONE":"E","HQ_COUNTRY":"Finland","HQ_COUNTRY_ISO":"FI","LATITUDE":60.1906389,"LISTING_XRF":"17571","LISTING_ZONE":"E","LONGITUDE":24.9545255,"NAME":"NORDEA BANK ABP","POSTAL_CODE":"00020","SECTOR":"","SHARES":3037463939.25,"SIMILARS_GROUP":"","USD_CAP":25246787606.938267},{"ADDRESS":"Viale Europa, 190","CITY":"Rome","COMPANY_XRF":"13179","COMPANY_ZONE":"E","HQ_COUNTRY":"Italy","HQ_COUNTRY_ISO":"IT","LATITUDE":41.8310321,"LISTING_XRF":"17471","LISTING_ZONE":"E","LONGITUDE":12.4677603,"NAME":"POSTE ITALIANE SPA","POSTAL_CODE":"00144","SECTOR":"","SHARES":522444000,"SIMILARS_GROUP":"","USD_CAP":5573988472.416},{"ADDRESS":"Philippstrasse 3","CITY":"Bochum","COMPANY_XRF":"12710","COMPANY_ZONE":"E","HQ_COUNTRY":"Germany","HQ_COUNTRY_ISO":"DE","LATITUDE":51.46296,"LISTING_XRF":"16989","LISTING_ZONE":"E","LONGITUDE":7.239100000000001,"NAME":"VONOVIA SE","POSTAL_CODE":"44803","SECTOR":"","SHARES":492174037.29999995,"SIMILARS_GROUP":"","USD_CAP":24396358790.521324},{"ADDRESS":"Karl Wiechert-Allee 4","CITY":"Hannover","COMPANY_XRF":"233","COMPANY_ZONE":"E","HQ_COUNTRY":"Germany","HQ_COUNTRY_ISO":"DE","LATITUDE":52.3838661,"LISTING_XRF":"16987","LISTING_ZONE":"E","LONGITUDE":9.8110807,"NAME":"TUI AG","POSTAL_CODE":"30625","SECTOR":"TRANSPRT","SHARES":440925978,"SIMILARS_GROUP":"TRUCKING","USD_CAP":4834487133.633829},{"ADDRESS":"Piazza Santa Barbara 7","CITY":"Milan","COMPANY_XRF":"11203","COMPANY_ZONE":"E","HQ_COUNTRY":"Italy","HQ_COUNTRY_ISO":"IT","LATITUDE":45.4233503,"LISTING_XRF":"14526","LISTING_ZONE":"E","LONGITUDE":9.2608417,"NAME":"SNAM SPA","POSTAL_CODE":"20097","SECTOR":"UTILS","SHARES":2254875076.35,"SIMILARS_GROUP":"GAS DIST","USD_CAP":11240267239.395102},{"ADDRESS":"13 rue Beaumont","CITY":"Luxembourg","COMPANY_XRF":"1451","COMPANY_ZONE":"S","HQ_COUNTRY":"Argentina","HQ_COUNTRY_ISO":"AR","LATITUDE":-38.416097,"LISTING_XRF":"16657","LISTING_ZONE":"E","LONGITUDE":-63.61667199999999,"NAME":"Tenaris SA","POSTAL_CODE":"1855","SECTOR":"BASICIND","SHARES":472214800,"SIMILARS_GROUP":"STEEL PR","USD_CAP":6900913087.7344},{"ADDRESS":"Marcel-Breuer-Strabe 6","CITY":"Munich","COMPANY_XRF":"12586","COMPANY_ZONE":"E","HQ_COUNTRY":"Germany","HQ_COUNTRY_ISO":"DE","LATITUDE":48.1820038,"LISTING_XRF":"16827","LISTING_ZONE":"E","LONGITUDE":11.5978282,"NAME":"OSRAM LICHT AG","POSTAL_CODE":"80807","SECTOR":"","SHARES":96848074,"SIMILARS_GROUP":"","USD_CAP":3390715765.2534323},{"ADDRESS":"2-4, Pintor Sorolla Street","CITY":"Barcelona","COMPANY_XRF":"12239","COMPANY_ZONE":"E","HQ_COUNTRY":"Spain","HQ_COUNTRY_ISO":"ES","LATITUDE":41.387637,"LISTING_XRF":"16231","LISTING_ZONE":"E","LONGITUDE":2.1266801,"NAME":"CAIXABANK SA","POSTAL_CODE":"08028","SECTOR":"FINANCE","SHARES":3588862818.6,"SIMILARS_GROUP":"BANKS","USD_CAP":11889145985.73964},{"ADDRESS":"1 Rue d'Astorg","CITY":"Paris","COMPANY_XRF":"12274","COMPANY_ZONE":"E","HQ_COUNTRY":"France","HQ_COUNTRY_ISO":"FR","LATITUDE":48.8721051,"LISTING_XRF":"16303","LISTING_ZONE":"E","LONGITUDE":2.3192403,"NAME":"SUEZ","POSTAL_CODE":"75383","SECTOR":"UTILS","SHARES":372817547.4,"SIMILARS_GROUP":"WATER UT","USD_CAP":5132877242.684946},{"ADDRESS":"Arturo Soria","CITY":"Madrid","COMPANY_XRF":"12713","COMPANY_ZONE":"E","HQ_COUNTRY":"Spain","HQ_COUNTRY_ISO":"ES","LATITUDE":40.4506447,"LISTING_XRF":"16992","LISTING_ZONE":"E","LONGITUDE":-3.6528978,"NAME":"AENA SME SA","POSTAL_CODE":"28022","SECTOR":"","SHARES":67500000,"SIMILARS_GROUP":"","USD_CAP":12020348025},{"ADDRESS":"P.O. Box 863","CITY":"Rotterdam","COMPANY_XRF":"8968","COMPANY_ZONE":"E","HQ_COUNTRY":"Netherlands","HQ_COUNTRY_ISO":"NL","LATITUDE":52.132633,"LISTING_XRF":"12063","LISTING_ZONE":"E","LONGITUDE":5.291265999999999,"NAME":"Koninklijke Vopak NV","POSTAL_CODE":"3000 AW","SECTOR":"TRANSPRT","SHARES":70309486.5,"SIMILARS_GROUP":"SEA","USD_CAP":3370098141.833924},{"ADDRESS":"Chateau de Betzdorf","CITY":"Grevenmacher","COMPANY_XRF":"7178","COMPANY_ZONE":"E","HQ_COUNTRY":"Luxembourg","HQ_COUNTRY_ISO":"LU","LATITUDE":49.6943407,"LISTING_XRF":"15432","LISTING_ZONE":"E","LONGITUDE":6.3307964,"NAME":"SES SA","POSTAL_CODE":"6815","SECTOR":"TELECOMM","SHARES":364284720,"SIMILARS_GROUP":"COMM MIS","USD_CAP":6450411394.1232},{"ADDRESS":"Piazza Duca Degli Abruzzi 2","CITY":"Trieste","COMPANY_XRF":"1533","COMPANY_ZONE":"E","HQ_COUNTRY":"Italy","HQ_COUNTRY_ISO":"IT","LATITUDE":45.6536152,"LISTING_XRF":"1881","LISTING_ZONE":"E","LONGITUDE":13.7703084,"NAME":"ASSIC GENERALI SPA","POSTAL_CODE":"34123","SECTOR":"FINANCE","SHARES":1173874023,"SIMILARS_GROUP":"INVSTMAN","USD_CAP":22423730726.58463},{"ADDRESS":"143 avenue de Verdun","CITY":"Asnieres-sur-Seine","COMPANY_XRF":"843","COMPANY_ZONE":"E","HQ_COUNTRY":"France","HQ_COUNTRY_ISO":"FR","LATITUDE":46.227638,"LISTING_XRF":"1181","LISTING_ZONE":"E","LONGITUDE":2.213749,"NAME":"Eiffage SA","POSTAL_CODE":"78140","SECTOR":"INDUSTRY","SHARES":78400000,"SIMILARS_GROUP":"CONSTRUC","USD_CAP":7730176182.400001},{"ADDRESS":"Havneholmen 17-19","CITY":"Copenhagen","COMPANY_XRF":"12580","COMPANY_ZONE":"E","HQ_COUNTRY":"Denmark","HQ_COUNTRY_ISO":"DK","LATITUDE":55.6606624,"LISTING_XRF":"16818","LISTING_ZONE":"E","LONGITUDE":12.561918,"NAME":"Pandora A\/S","POSTAL_CODE":"1561","SECTOR":"CONSDIS","SHARES":110029003,"SIMILARS_GROUP":"RTL SPEC","USD_CAP":4784725851.983708},{"ADDRESS":"43, Boulevard Pierre Frieden","CITY":"Luxembourg","COMPANY_XRF":"1762","COMPANY_ZONE":"E","HQ_COUNTRY":"Luxembourg","HQ_COUNTRY_ISO":"LU","LATITUDE":49.637555,"LISTING_XRF":"17063","LISTING_ZONE":"E","LONGITUDE":6.1618277,"NAME":"RTL Group SA","POSTAL_CODE":"1543","SECTOR":"CONSDIS","SHARES":38696888.5,"SIMILARS_GROUP":"BROADCAS","USD_CAP":2257283733.1284976},{"ADDRESS":"Boege Alle 10-12","CITY":"Hoersholm","COMPANY_XRF":"12500","COMPANY_ZONE":"E","HQ_COUNTRY":"Denmark","HQ_COUNTRY_ISO":"DK","LATITUDE":55.87344100000001,"LISTING_XRF":"16673","LISTING_ZONE":"E","LONGITUDE":12.487575,"NAME":"CHR.HANSEN'S LAB","POSTAL_CODE":"2970","SECTOR":"CONSTAPL","SHARES":98889372,"SIMILARS_GROUP":"FOOD","USD_CAP":9639694922.145695},{"ADDRESS":"Henkelstrasse 67","CITY":"Duesseldorf","COMPANY_XRF":"1768","COMPANY_ZONE":"E","HQ_COUNTRY":"Germany","HQ_COUNTRY_ISO":"DE","LATITUDE":51.165691,"LISTING_XRF":"3886","LISTING_ZONE":"E","LONGITUDE":10.451526,"NAME":"HENKEL AG & CO KGAA","POSTAL_CODE":"40191","SECTOR":"BASICIND","SHARES":178162875,"SIMILARS_GROUP":"CHEMICAL","USD_CAP":17606647877.22225},{"ADDRESS":"Mecklenburgische Strasse 57","CITY":"Berlin","COMPANY_XRF":"10964","COMPANY_ZONE":"E","HQ_COUNTRY":"Germany","HQ_COUNTRY_ISO":"DE","LATITUDE":52.4753899,"LISTING_XRF":"15811","LISTING_ZONE":"E","LONGITUDE":13.305063,"NAME":"DEUTSCHE WOHNEN SE","POSTAL_CODE":"14197","SECTOR":"REALEST","SHARES":356942055,"SIMILARS_GROUP":"REALPROP","USD_CAP":16057001936.085392},{"ADDRESS":"1-3 Strand","CITY":"London","COMPANY_XRF":"6180","COMPANY_ZONE":"E","HQ_COUNTRY":"United Kingdom","HQ_COUNTRY_ISO":"GB","LATITUDE":51.5077231,"LISTING_XRF":"9041","LISTING_ZONE":"E","LONGITUDE":0,"NAME":"NATIONAL GRID PLC","POSTAL_CODE":"CV34 6DA","SECTOR":"UTILS","SHARES":3398695950,"SIMILARS_GROUP":"ELECTRIC","USD_CAP":36002558654.26065},{"ADDRESS":"Rua Actor Antonio Sil-a 7","CITY":"Lisboa","COMPANY_XRF":"5221","COMPANY_ZONE":"E","HQ_COUNTRY":"Portugal","HQ_COUNTRY_ISO":"PT","LATITUDE":39.39987199999999,"LISTING_XRF":"7931","LISTING_ZONE":"E","LONGITUDE":-8.224454,"NAME":"JERONIMO MARTINS SGPS SA","POSTAL_CODE":"1099-008","SECTOR":"CONSTAPL","SHARES":251717288,"SIMILARS_GROUP":"GROCERY","USD_CAP":3957856892.2022486},{"ADDRESS":"One Stanhope Gate","CITY":"London","COMPANY_XRF":"11977","COMPANY_ZONE":"E","HQ_COUNTRY":"United Kingdom","HQ_COUNTRY_ISO":"GB","LATITUDE":0,"LISTING_XRF":"15785","LISTING_ZONE":"E","LONGITUDE":0,"NAME":"EXPERIAN PLC","POSTAL_CODE":"M60 1XA","SECTOR":"BUSINSRV","SHARES":910179217,"SIMILARS_GROUP":"INFO SRV","USD_CAP":25908714041.24205},{"ADDRESS":"15 Rue Leon La-al","CITY":"Bertrange","COMPANY_XRF":"8930","COMPANY_ZONE":"E","HQ_COUNTRY":"Luxembourg","HQ_COUNTRY_ISO":"LU","LATITUDE":49.815273,"LISTING_XRF":"16696","LISTING_ZONE":"E","LONGITUDE":6.129582999999999,"NAME":"MILLICOM INTERNATIONAL CELLULAR SA","POSTAL_CODE":"1249","SECTOR":"TELECOMM","SHARES":66130491.050000004,"SIMILARS_GROUP":"PHONE","USD_CAP":3991199253.987586},{"ADDRESS":"Pirkkalaistie 7","CITY":"Nokia","COMPANY_XRF":"7036","COMPANY_ZONE":"E","HQ_COUNTRY":"Finland","HQ_COUNTRY_ISO":"FI","LATITUDE":61.47545339999999,"LISTING_XRF":"9990","LISTING_ZONE":"E","LONGITUDE":23.5087881,"NAME":"NOKIAN TYRES PLC","POSTAL_CODE":"37101","SECTOR":"INDUSTRY","SHARES":117355861.14999999,"SIMILARS_GROUP":"TIRES","USD_CAP":4121859163.935828},{"ADDRESS":"Rosenlundsgatan 36","CITY":"Stockholm","COMPANY_XRF":"6363","COMPANY_ZONE":"E","HQ_COUNTRY":"Sweden","HQ_COUNTRY_ISO":"SE","LATITUDE":59.31398389999999,"LISTING_XRF":"9251","LISTING_ZONE":"E","LONGITUDE":18.056929,"NAME":"SWEDISH MATCH AB","POSTAL_CODE":"111 53","SECTOR":"CONSTAPL","SHARES":175950000,"SIMILARS_GROUP":"TOBACCO","USD_CAP":8510365752.73195},{"ADDRESS":"75 Quai D'Orsay","CITY":"Paris","COMPANY_XRF":"710","COMPANY_ZONE":"E","HQ_COUNTRY":"France","HQ_COUNTRY_ISO":"FR","LATITUDE":48.86215540000001,"LISTING_XRF":"1023","LISTING_ZONE":"E","LONGITUDE":2.3046506,"NAME":"AIR LIQUIDE SA","POSTAL_CODE":"75007","SECTOR":"BASICIND","SHARES":428328719,"SIMILARS_GROUP":"INDSTRL","USD_CAP":56787311853.8444},{"ADDRESS":"Cleveland House","CITY":"Alcester","COMPANY_XRF":"12153","COMPANY_ZONE":"E","HQ_COUNTRY":"United Kingdom","HQ_COUNTRY_ISO":"GB","LATITUDE":0,"LISTING_XRF":"16065","LISTING_ZONE":"E","LONGITUDE":0,"NAME":"Melrose Industries Plc","POSTAL_CODE":"B49 6HN","SECTOR":"INDUSTRY","SHARES":4858254963,"SIMILARS_GROUP":"MACHINES","USD_CAP":12358338276.983252},{"ADDRESS":"S:t Goransgatan 143","CITY":"Stockholm","COMPANY_XRF":"4338","COMPANY_ZONE":"E","HQ_COUNTRY":"Sweden","HQ_COUNTRY_ISO":"SE","LATITUDE":59.336458,"LISTING_XRF":"5282","LISTING_ZONE":"E","LONGITUDE":18.017404,"NAME":"ELECTROLUX AB","POSTAL_CODE":"105 45","SECTOR":"INDUSTRY","SHARES":240582215.20000002,"SIMILARS_GROUP":"ELCT MCH","USD_CAP":6157178597.7381315},{"ADDRESS":"Am Hof 6 A","CITY":"-ienna","COMPANY_XRF":"10","COMPANY_ZONE":"E","HQ_COUNTRY":"Austria","HQ_COUNTRY_ISO":"AT","LATITUDE":48.21130489999999,"LISTING_XRF":"128","LISTING_ZONE":"E","LONGITUDE":16.3673363,"NAME":"VERBUND AG","POSTAL_CODE":"1010","SECTOR":"UTILS","SHARES":68093474.4,"SIMILARS_GROUP":"ELECTRIC","USD_CAP":3353164956.037916},{"ADDRESS":"128 A-enue De Lattre De Tassigny cedex","CITY":"Limoges","COMPANY_XRF":"11864","COMPANY_ZONE":"E","HQ_COUNTRY":"France","HQ_COUNTRY_ISO":"FR","LATITUDE":45.8251524,"LISTING_XRF":"15657","LISTING_ZONE":"E","LONGITUDE":1.2777137,"NAME":"Legrand SA","POSTAL_CODE":"87045","SECTOR":"TECH","SHARES":266805751,"SIMILARS_GROUP":"ETRON CM","USD_CAP":19274133363.691826},{"ADDRESS":"Huyssenallee 2","CITY":"Essen","COMPANY_XRF":"199","COMPANY_ZONE":"E","HQ_COUNTRY":"Germany","HQ_COUNTRY_ISO":"DE","LATITUDE":51.449006,"LISTING_XRF":"13177","LISTING_ZONE":"E","LONGITUDE":7.0111918,"NAME":"RWE AG","POSTAL_CODE":"45128","SECTOR":"UTILS","SHARES":518170949.1,"SIMILARS_GROUP":"ELECTRIC","USD_CAP":13298354782.830875},{"ADDRESS":"Muhlenfeldstrasse 1","CITY":"Holzminden","COMPANY_XRF":"12322","COMPANY_ZONE":"E","HQ_COUNTRY":"Germany","HQ_COUNTRY_ISO":"DE","LATITUDE":51.8254144,"LISTING_XRF":"16368","LISTING_ZONE":"E","LONGITUDE":9.457308099999999,"NAME":"Symrise AG","POSTAL_CODE":"37063","SECTOR":"BASICIND","SHARES":123321947.19999999,"SIMILARS_GROUP":"CHEMICAL","USD_CAP":11391013211.232635},{"ADDRESS":"Shell Centre","CITY":"London","COMPANY_XRF":"2119","COMPANY_ZONE":"E","HQ_COUNTRY":"United Kingdom","HQ_COUNTRY_ISO":"GB","LATITUDE":51.5041448,"LISTING_XRF":"15198","LISTING_ZONE":"E","LONGITUDE":0,"NAME":"Royal Dutch Shell PLC","POSTAL_CODE":"SE1 7NA","SECTOR":"ENERGY","SHARES":4506232819,"SIMILARS_GROUP":"INTG OIL","USD_CAP":143810636426.77097},{"ADDRESS":"Corso d'Italia 41","CITY":"Ivrea","COMPANY_XRF":"1544","COMPANY_ZONE":"E","HQ_COUNTRY":"Italy","HQ_COUNTRY_ISO":"IT","LATITUDE":41.9113098,"LISTING_XRF":"1896","LISTING_ZONE":"E","LONGITUDE":12.4964494,"NAME":"TELECOM ITALIA SPA\/MILANO","POSTAL_CODE":"00198","SECTOR":"TECH","SHARES":11402341937.25,"SIMILARS_GROUP":"OFF MACH","USD_CAP":6561813466.760566},{"ADDRESS":"10A, rue Henri M. Schnadt","CITY":"Luxembourg","COMPANY_XRF":"8046","COMPANY_ZONE":"E","HQ_COUNTRY":"France","HQ_COUNTRY_ISO":"FR","LATITUDE":46.227638,"LISTING_XRF":"11065","LISTING_ZONE":"E","LONGITUDE":2.213749,"NAME":"EUROFINS SCIENTIFIC SE","POSTAL_CODE":"1526","SECTOR":"BUSINSRV","SHARES":11468544.1,"SIMILARS_GROUP":"R AND D","USD_CAP":4755535027.9619},{"ADDRESS":"67\/71 Boule-ard du Chateau","CITY":"Neuilly sur Seine","COMPANY_XRF":"12252","COMPANY_ZONE":"E","HQ_COUNTRY":"France","HQ_COUNTRY_ISO":"FR","LATITUDE":48.8933474,"LISTING_XRF":"16269","LISTING_ZONE":"E","LONGITUDE":2.2753794,"NAME":"BUREAU VERITAS","POSTAL_CODE":"92200","SECTOR":"BUSINSRV","SHARES":265200000,"SIMILARS_GROUP":"CONSLTNG","USD_CAP":6541584176.400001},{"ADDRESS":"Baarermattstrasse 3","CITY":"Baar","COMPANY_XRF":"12508","COMPANY_ZONE":"E","HQ_COUNTRY":"United Kingdom","HQ_COUNTRY_ISO":"GB","LATITUDE":47.1812592,"LISTING_XRF":"16682","LISTING_ZONE":"E","LONGITUDE":8.5269408,"NAME":"GLENCORE PLC","POSTAL_CODE":"6340","SECTOR":"BASICIND","SHARES":11253039124.800001,"SIMILARS_GROUP":"AGRIBUS","USD_CAP":49242454728.74963},{"ADDRESS":"70 rue Balard","CITY":"Paris ","COMPANY_XRF":"11973","COMPANY_ZONE":"E","HQ_COUNTRY":"France","HQ_COUNTRY_ISO":"FR","LATITUDE":48.8401959,"LISTING_XRF":"15779","LISTING_ZONE":"E","LONGITUDE":2.2777976,"NAME":"EUTELSAT COMMUNICATIONS SA","POSTAL_CODE":"75015","SECTOR":"TELECOMM","SHARES":174580976.25,"SIMILARS_GROUP":"COMM MIS","USD_CAP":3179359626.3548436},{"ADDRESS":"Box 30224","CITY":"Stockholm","COMPANY_XRF":"11853","COMPANY_ZONE":"E","HQ_COUNTRY":"Sweden","HQ_COUNTRY_ISO":"SE","LATITUDE":60.12816100000001,"LISTING_XRF":"15606","LISTING_ZONE":"E","LONGITUDE":18.643501,"NAME":"HUSQVARNA AB","POSTAL_CODE":"103 92","SECTOR":"BASICIND","SHARES":417513807,"SIMILARS_GROUP":"METAL PR","USD_CAP":3767056538.3524275},{"ADDRESS":"Piazzale Enrico Mattei 1","CITY":"Roma","COMPANY_XRF":"6515","COMPANY_ZONE":"E","HQ_COUNTRY":"Italy","HQ_COUNTRY_ISO":"IT","LATITUDE":41.8270511,"LISTING_XRF":"9425","LISTING_ZONE":"E","LONGITUDE":12.4715209,"NAME":"ENI SPA","POSTAL_CODE":"00144","SECTOR":"ENERGY","SHARES":2543929731,"SIMILARS_GROUP":"INTG OIL","USD_CAP":43996354988.37319},{"ADDRESS":"1 Tony Wilson Place","CITY":"Manchester","COMPANY_XRF":"12709","COMPANY_ZONE":"E","HQ_COUNTRY":"United Kingdom","HQ_COUNTRY_ISO":"GB","LATITUDE":53.47282610000001,"LISTING_XRF":"16988","LISTING_ZONE":"E","LONGITUDE":-2.2467099,"NAME":"AUTO TRADER GROUP PLC","POSTAL_CODE":"M15 4FN","SECTOR":"","SHARES":938923100,"SIMILARS_GROUP":"","USD_CAP":6701168582.607771},{"ADDRESS":"Klausdalsbro-ej 601","CITY":"Ballerup","COMPANY_XRF":"12019","COMPANY_ZONE":"E","HQ_COUNTRY":"Denmark","HQ_COUNTRY_ISO":"DK","LATITUDE":55.7381403,"LISTING_XRF":"15835","LISTING_ZONE":"E","LONGITUDE":12.398966,"NAME":"TRYG A\/S","POSTAL_CODE":"2670","SECTOR":"FINANCE","SHARES":120859196.4,"SIMILARS_GROUP":"INS HLTH","USD_CAP":3642879427.0319295},{"ADDRESS":"Korkeavuorenkatu 35-37","CITY":"Elisa","COMPANY_XRF":"9258","COMPANY_ZONE":"E","HQ_COUNTRY":"Finland","HQ_COUNTRY_ISO":"FI","LATITUDE":61.92410999999999,"LISTING_XRF":"12388","LISTING_ZONE":"E","LONGITUDE":25.7481511,"NAME":"Elisa OYJ","POSTAL_CODE":"00061","SECTOR":"TELECOMM","SHARES":142234812.04999998,"SIMILARS_GROUP":"PHONE","USD_CAP":5996724076.380045},{"ADDRESS":"17 cours Valmy","CITY":"Paris","COMPANY_XRF":"708","COMPANY_ZONE":"E","HQ_COUNTRY":"France","HQ_COUNTRY_ISO":"FR","LATITUDE":48.8912384,"LISTING_XRF":"1021","LISTING_ZONE":"E","LONGITUDE":2.2298466,"NAME":"SOCIETE GENERALE SA","POSTAL_CODE":"75009","SECTOR":"FINANCE","SHARES":767521852.05,"SIMILARS_GROUP":"BANKS","USD_CAP":24957592874.274498},{"ADDRESS":"Calle Principe de Vergara, 135","CITY":"Madrid","COMPANY_XRF":"11581","COMPANY_ZONE":"E","HQ_COUNTRY":"Spain","HQ_COUNTRY_ISO":"ES","LATITUDE":40.4439712,"LISTING_XRF":"15175","LISTING_ZONE":"E","LONGITUDE":-3.6787233,"NAME":"Ferrovial SA","POSTAL_CODE":"28002","SECTOR":"INDUSTRY","SHARES":491730668,"SIMILARS_GROUP":"CONSTRUC","USD_CAP":11567222926.583326},{"ADDRESS":"Box 2094","CITY":"Stockholm","COMPANY_XRF":"7717","COMPANY_ZONE":"E","HQ_COUNTRY":"Sweden","HQ_COUNTRY_ISO":"SE","LATITUDE":60.12816100000001,"LISTING_XRF":"10733","LISTING_ZONE":"E","LONGITUDE":18.643501,"NAME":"KINNEVIK AB","POSTAL_CODE":"103 13","SECTOR":"BASICIND","SHARES":241911206,"SIMILARS_GROUP":"PAPRBORD","USD_CAP":6648172397.7126875},{"ADDRESS":"110 Avenue de France","CITY":"E-ry","COMPANY_XRF":"720","COMPANY_ZONE":"E","HQ_COUNTRY":"France","HQ_COUNTRY_ISO":"FR","LATITUDE":46.227638,"LISTING_XRF":"1042","LISTING_ZONE":"E","LONGITUDE":2.213749,"NAME":"Accor SA","POSTAL_CODE":"75013","SECTOR":"BUSINSRV","SHARES":188633706.95000002,"SIMILARS_GROUP":"HOTELS","USD_CAP":7976189739.644578},{"ADDRESS":"Friedrich-Ebert-Allee 140","CITY":"Bonn","COMPANY_XRF":"6414","COMPANY_ZONE":"E","HQ_COUNTRY":"Germany","HQ_COUNTRY_ISO":"DE","LATITUDE":50.7077659,"LISTING_XRF":"9306","LISTING_ZONE":"E","LONGITUDE":7.128737699999999,"NAME":"DEUTSCHE TELEKOM AG","POSTAL_CODE":"53105","SECTOR":"TELECOMM","SHARES":3333021017.2,"SIMILARS_GROUP":"PHONE","USD_CAP":55611394344.39528},{"ADDRESS":"Paseo De Los Olmos 19","CITY":"Madrid","COMPANY_XRF":"11477","COMPANY_ZONE":"E","HQ_COUNTRY":"Spain","HQ_COUNTRY_ISO":"ES","LATITUDE":40.4033062,"LISTING_XRF":"14938","LISTING_ZONE":"E","LONGITUDE":-3.7102619,"NAME":"ENAGAS SA","POSTAL_CODE":"28005","SECTOR":"UTILS","SHARES":226797547,"SIMILARS_GROUP":"GAS TRDI","USD_CAP":6341591672.526356},{"ADDRESS":"Stattegger Strasse 18","CITY":"Graz","COMPANY_XRF":"10981","COMPANY_ZONE":"E","HQ_COUNTRY":"Austria","HQ_COUNTRY_ISO":"AT","LATITUDE":47.10852209999999,"LISTING_XRF":"14297","LISTING_ZONE":"E","LONGITUDE":15.423158,"NAME":"ANDRITZ AG","POSTAL_CODE":"8045","SECTOR":"INDUSTRY","SHARES":72800000,"SIMILARS_GROUP":"MACHINES","USD_CAP":3568613630.4},{"ADDRESS":"August-Thyssen-Strasse 1","CITY":"Dusseldorf","COMPANY_XRF":"8250","COMPANY_ZONE":"E","HQ_COUNTRY":"Germany","HQ_COUNTRY_ISO":"DE","LATITUDE":51.165691,"LISTING_XRF":"11277","LISTING_ZONE":"E","LONGITUDE":10.451526,"NAME":"THYSSEN KRUPP AG","POSTAL_CODE":"40211","SECTOR":"BASICIND","SHARES":435772218.7,"SIMILARS_GROUP":"STEEL PR","USD_CAP":6651598385.270367},{"ADDRESS":"12 place des Etats-Unis","CITY":"Montrouge","COMPANY_XRF":"4727","COMPANY_ZONE":"E","HQ_COUNTRY":"France","HQ_COUNTRY_ISO":"FR","LATITUDE":48.8175055,"LISTING_XRF":"14507","LISTING_ZONE":"E","LONGITUDE":2.3157493,"NAME":"CREDIT AGRICOLE SA","POSTAL_CODE":"75015","SECTOR":"FINANCE","SHARES":1146574862.4,"SIMILARS_GROUP":"BANKS","USD_CAP":16023531610.197252},{"ADDRESS":"C\/ Salvador De Madariaga 1","CITY":"Madrid","COMPANY_XRF":"12473","COMPANY_ZONE":"E","HQ_COUNTRY":"Spain","HQ_COUNTRY_ISO":"ES","LATITUDE":40.43684,"LISTING_XRF":"16601","LISTING_ZONE":"E","LONGITUDE":-3.6584027,"NAME":"AMADEUS IT GROUP SA","POSTAL_CODE":"28027","SECTOR":"TECH","SHARES":438822506,"SIMILARS_GROUP":"SOFTWARE","USD_CAP":33864548017.173412},{"ADDRESS":"Grimmergata 5","CITY":"Alesund","COMPANY_XRF":"7621","COMPANY_ZONE":"E","HQ_COUNTRY":"Norway","HQ_COUNTRY_ISO":"NO","LATITUDE":60.47202399999999,"LISTING_XRF":"10634","LISTING_ZONE":"E","LONGITUDE":8.468945999999999,"NAME":"MOWI ASA","POSTAL_CODE":"0161","SECTOR":"BASICIND","SHARES":438633761.15,"SIMILARS_GROUP":"AGRIBUS","USD_CAP":9621373920.112106},{"ADDRESS":"25 St. James's Street","CITY":"Basildon","COMPANY_XRF":"12487","COMPANY_ZONE":"E","HQ_COUNTRY":"Italy","HQ_COUNTRY_ISO":"IT","LATITUDE":51.5068743,"LISTING_XRF":"16643","LISTING_ZONE":"E","LONGITUDE":0,"NAME":"CNH INDUSTRIAL NV","POSTAL_CODE":"10126","SECTOR":"BASICIND","SHARES":1015362550.5,"SIMILARS_GROUP":"METAL PR","USD_CAP":11217583916.38446},{"ADDRESS":"Rudeboks-agen 1","CITY":"Lund","COMPANY_XRF":"11465","COMPANY_ZONE":"E","HQ_COUNTRY":"Sweden","HQ_COUNTRY_ISO":"SE","LATITUDE":60.12816100000001,"LISTING_XRF":"14923","LISTING_ZONE":"E","LONGITUDE":18.643501,"NAME":"Alfa Laval AB","POSTAL_CODE":"221 00","SECTOR":"INDUSTRY","SHARES":293619420.5,"SIMILARS_GROUP":"MACHINES","USD_CAP":7213717811.052675},{"ADDRESS":"Am Stadtpark 3","CITY":"-ienna","COMPANY_XRF":"11579","COMPANY_ZONE":"E","HQ_COUNTRY":"Austria","HQ_COUNTRY_ISO":"AT","LATITUDE":48.2048759,"LISTING_XRF":"15173","LISTING_ZONE":"E","LONGITUDE":16.3837771,"NAME":"RAIFFEISEN BK INTNL AG WIEN","POSTAL_CODE":"1030","SECTOR":"FINANCE","SHARES":148022829.45000002,"SIMILARS_GROUP":"BANKS","USD_CAP":3982999331.0004067},{"ADDRESS":" Calle Pintor Sorolla, 8","CITY":"Valencia","COMPANY_XRF":"12524","COMPANY_ZONE":"E","HQ_COUNTRY":"Spain","HQ_COUNTRY_ISO":"ES","LATITUDE":39.4709036,"LISTING_XRF":"16717","LISTING_ZONE":"E","LONGITUDE":0,"NAME":"Bankia SA","POSTAL_CODE":"46002","SECTOR":"FINANCE","SHARES":1233985180,"SIMILARS_GROUP":"BANKS","USD_CAP":3335620385.237112},{"ADDRESS":"Dronning Eufemias gate 30","CITY":"Oslo","COMPANY_XRF":"4252","COMPANY_ZONE":"E","HQ_COUNTRY":"Norway","HQ_COUNTRY_ISO":"NO","LATITUDE":59.9075823,"LISTING_XRF":"5153","LISTING_ZONE":"E","LONGITUDE":10.7601334,"NAME":"DNB ASA","POSTAL_CODE":"0021","SECTOR":"FINANCE","SHARES":962620132.8,"SIMILARS_GROUP":"BANKS","USD_CAP":18977578121.297768},{"ADDRESS":"Kungstradgardsg 8","CITY":"Stockholm","COMPANY_XRF":"4340","COMPANY_ZONE":"E","HQ_COUNTRY":"Sweden","HQ_COUNTRY_ISO":"SE","LATITUDE":60.12816100000001,"LISTING_XRF":"5289","LISTING_ZONE":"E","LONGITUDE":18.643501,"NAME":"SKANDINAVISKA ENSKILDA BANKEN AB","POSTAL_CODE":"106 40","SECTOR":"FINANCE","SHARES":1627514470.5,"SIMILARS_GROUP":"BANKS","USD_CAP":15851646399.216637},{"ADDRESS":"No-o Alle","CITY":"Bags-aerd","COMPANY_XRF":"4048","COMPANY_ZONE":"E","HQ_COUNTRY":"Denmark","HQ_COUNTRY_ISO":"DK","LATITUDE":56.26392,"LISTING_XRF":"4856","LISTING_ZONE":"E","LONGITUDE":9.501785,"NAME":"Novo Nordisk A\/S","POSTAL_CODE":"2880","SECTOR":"HEALTH","SHARES":1816935800,"SIMILARS_GROUP":"DRUGS","USD_CAP":88025240316.71779},{"ADDRESS":"18, avenue d'Alsace","CITY":"Courbevoie","COMPANY_XRF":"707","COMPANY_ZONE":"E","HQ_COUNTRY":"France","HQ_COUNTRY_ISO":"FR","LATITUDE":48.8901803,"LISTING_XRF":"1018","LISTING_ZONE":"E","LONGITUDE":2.2501486,"NAME":"CIE DE SAINT-GOBAIN","POSTAL_CODE":"92096","SECTOR":"BASICIND","SHARES":497505559.5,"SIMILARS_GROUP":"CNST MAT","USD_CAP":20557033697.20194},{"ADDRESS":" Avenida Oscar Espla, 37","CITY":"Alicante","COMPANY_XRF":"10759","COMPANY_ZONE":"E","HQ_COUNTRY":"Spain","HQ_COUNTRY_ISO":"ES","LATITUDE":38.3429519,"LISTING_XRF":"14037","LISTING_ZONE":"E","LONGITUDE":0,"NAME":"BANCO DE SABADELL SA","POSTAL_CODE":"03007","SECTOR":"FINANCE","SHARES":5626964701,"SIMILARS_GROUP":"BANKS","USD_CAP":6448027475.569941},{"ADDRESS":"Banemarks-ej 58","CITY":"Br?ndby","COMPANY_XRF":"5452","COMPANY_ZONE":"E","HQ_COUNTRY":"Denmark","HQ_COUNTRY_ISO":"DK","LATITUDE":56.26392,"LISTING_XRF":"8220","LISTING_ZONE":"E","LONGITUDE":9.501785,"NAME":"DSV A\/S","POSTAL_CODE":"2605","SECTOR":"TRANSPRT","SHARES":188000000,"SIMILARS_GROUP":"TRUCKING","USD_CAP":16266091379.587463},{"ADDRESS":"1 et 2, place Samuel de Champlain","CITY":"Courbevoie","COMPANY_XRF":"11591","COMPANY_ZONE":"E","HQ_COUNTRY":"France","HQ_COUNTRY_ISO":"FR","LATITUDE":48.8955904,"LISTING_XRF":"15195","LISTING_ZONE":"E","LONGITUDE":2.2396611,"NAME":"ENGIE SA","POSTAL_CODE":"75008","SECTOR":"ENERGY","SHARES":1826463758.25,"SIMILARS_GROUP":"OIL SRVC","USD_CAP":27295650648.166786},{"ADDRESS":"2 Rue Hennape","CITY":"Boulogne","COMPANY_XRF":"901","COMPANY_ZONE":"E","HQ_COUNTRY":"France","HQ_COUNTRY_ISO":"FR","LATITUDE":48.8889451,"LISTING_XRF":"1240","LISTING_ZONE":"E","LONGITUDE":2.2139452,"NAME":"FAURECIA SA","POSTAL_CODE":"92000","SECTOR":"CONSDIS","SHARES":75919690.55000001,"SIMILARS_GROUP":"AUTOPART","USD_CAP":4084844297.542475},{"ADDRESS":"Horbeller Strasse 31","CITY":"Koln","COMPANY_XRF":"7466","COMPANY_ZONE":"E","HQ_COUNTRY":"Germany","HQ_COUNTRY_ISO":"DE","LATITUDE":51.165691,"LISTING_XRF":"10471","LISTING_ZONE":"E","LONGITUDE":10.451526,"NAME":"1&1 DRILLISCH AG","POSTAL_CODE":"50858","SECTOR":"TELECOMM","SHARES":53029394.699999996,"SIMILARS_GROUP":"CELLULAR","USD_CAP":2036073260.8563356},{"ADDRESS":"181 BAY STREET, STE 1500","CITY":"Stockholm","COMPANY_XRF":"11061","COMPANY_ZONE":"E","HQ_COUNTRY":"Sweden","HQ_COUNTRY_ISO":"SE","LATITUDE":60.12816100000001,"LISTING_XRF":"14377","LISTING_ZONE":"E","LONGITUDE":18.643501,"NAME":"BOLIDEN AB","POSTAL_CODE":"101 20","SECTOR":"BASICIND","SHARES":273511169,"SIMILARS_GROUP":"COPPER","USD_CAP":8366047089.052953},{"ADDRESS":"100 Victoria Embankment","CITY":"London","COMPANY_XRF":"2133","COMPANY_ZONE":"E","HQ_COUNTRY":"United Kingdom","HQ_COUNTRY_ISO":"GB","LATITUDE":51.5116482,"LISTING_XRF":"2630","LISTING_ZONE":"E","LONGITUDE":0,"NAME":"UNILEVER PLC","POSTAL_CODE":"EC4P 4BQ","SECTOR":"CONSTAPL","SHARES":1110104117.5,"SIMILARS_GROUP":"FOOD","USD_CAP":64685977117.88736},{"ADDRESS":"23 Hanover Square","CITY":"Abu Dhabi","COMPANY_XRF":"13166","COMPANY_ZONE":"E","HQ_COUNTRY":"UAE","HQ_COUNTRY_ISO":"AE","LATITUDE":24.4685443,"LISTING_XRF":"17452","LISTING_ZONE":"E","LONGITUDE":54.3400475,"NAME":"NMC Health PLC","POSTAL_CODE":"W1J 8AJ","SECTOR":"","SHARES":104105342.5,"SIMILARS_GROUP":"","USD_CAP":3391759150.0489583},{"ADDRESS":"17 rue Soyer","CITY":"Neuilly-sur-Seine","COMPANY_XRF":"10787","COMPANY_ZONE":"E","HQ_COUNTRY":"France","HQ_COUNTRY_ISO":"FR","LATITUDE":48.8883921,"LISTING_XRF":"14083","LISTING_ZONE":"E","LONGITUDE":2.2602673,"NAME":"JCDECAUX SA","POSTAL_CODE":"78378","SECTOR":"BUSINSRV","SHARES":74465153.69999999,"SIMILARS_GROUP":"ADS","USD_CAP":2415132648.931014},{"ADDRESS":"Ho-slagargatan 5","CITY":"Stockholm","COMPANY_XRF":"10539","COMPANY_ZONE":"E","HQ_COUNTRY":"Sweden","HQ_COUNTRY_ISO":"SE","LATITUDE":60.12816100000001,"LISTING_XRF":"13802","LISTING_ZONE":"E","LONGITUDE":18.643501,"NAME":"LUNDIN PETROLEUM AB","POSTAL_CODE":"111 48","SECTOR":"ENERGY","SHARES":187212544.75000003,"SIMILARS_GROUP":"OIL&GAS","USD_CAP":6193921449.364165},{"ADDRESS":"21-25, rue Balzac","CITY":"Paris","COMPANY_XRF":"1349","COMPANY_ZONE":"E","HQ_COUNTRY":"France","HQ_COUNTRY_ISO":"FR","LATITUDE":48.8756262,"LISTING_XRF":"7212","LISTING_ZONE":"E","LONGITUDE":2.3021884,"NAME":"Teleperformance","POSTAL_CODE":"75008","SECTOR":"BUSINSRV","SHARES":57780000,"SIMILARS_GROUP":"SERVICES","USD_CAP":10852778109.6},{"ADDRESS":"133 A-enue des Champs Elysees","CITY":"Paris","COMPANY_XRF":"857","COMPANY_ZONE":"E","HQ_COUNTRY":"France","HQ_COUNTRY_ISO":"FR","LATITUDE":48.872519,"LISTING_XRF":"1196","LISTING_ZONE":"E","LONGITUDE":2.2970641,"NAME":"Publicis Groupe SA","POSTAL_CODE":"75008","SECTOR":"BUSINSRV","SHARES":211724820.9,"SIMILARS_GROUP":"ADS","USD_CAP":12238902749.848057},{"ADDRESS":"Deutsche Boerse AG","CITY":"Eschborn","COMPANY_XRF":"10490","COMPANY_ZONE":"E","HQ_COUNTRY":"Germany","HQ_COUNTRY_ISO":"DE","LATITUDE":50.1359486,"LISTING_XRF":"13751","LISTING_ZONE":"E","LONGITUDE":8.5699636,"NAME":"Deutsche Boerse AG","POSTAL_CODE":"60284","SECTOR":"FINANCE","SHARES":190000000,"SIMILARS_GROUP":"TRADING","USD_CAP":25136740650.000004},{"ADDRESS":"Building B","CITY":"Fornebu","COMPANY_XRF":"12943","COMPANY_ZONE":"E","HQ_COUNTRY":"Norway","HQ_COUNTRY_ISO":"NO","LATITUDE":59.904917,"LISTING_XRF":"17228","LISTING_ZONE":"E","LONGITUDE":10.625499,"NAME":"AKER BP ASA","POSTAL_CODE":"1366","SECTOR":"ENERGY","SHARES":108034052.7,"SIMILARS_GROUP":"OIL&GAS","USD_CAP":3888500413.0504823},{"ADDRESS":"PUMA WAY 1","CITY":"Herzogenaurach","COMPANY_XRF":"4536","COMPANY_ZONE":"E","HQ_COUNTRY":"Germany","HQ_COUNTRY_ISO":"DE","LATITUDE":49.5746449,"LISTING_XRF":"6771","LISTING_ZONE":"E","LONGITUDE":10.8992921,"NAME":"PUMA SE","POSTAL_CODE":"91072","SECTOR":"CONSDIS","SHARES":8295355.200000001,"SIMILARS_GROUP":"APPAREL","USD_CAP":5062001189.802481},{"ADDRESS":"1-3 Strand","CITY":"London","COMPANY_XRF":"2161","COMPANY_ZONE":"E","HQ_COUNTRY":"United Kingdom","HQ_COUNTRY_ISO":"GB","LATITUDE":0,"LISTING_XRF":"2664","LISTING_ZONE":"E","LONGITUDE":0,"NAME":"RELX PLC","POSTAL_CODE":"SW1H 0EX","SECTOR":"","SHARES":1969024949,"SIMILARS_GROUP":"","USD_CAP":43336296586.56878},{"ADDRESS":"Bankcentre","CITY":"Dublin","COMPANY_XRF":"3673","COMPANY_ZONE":"E","HQ_COUNTRY":"Ireland","HQ_COUNTRY_ISO":"IE","LATITUDE":53.3412369,"LISTING_XRF":"4308","LISTING_ZONE":"E","LONGITUDE":-6.2568053,"NAME":"AIB Group PLC","POSTAL_CODE":"4","SECTOR":"FINANCE","SHARES":814314371.4,"SIMILARS_GROUP":"BANKS","USD_CAP":3874908584.6548033},{"ADDRESS":"12 place des Etats Unis","CITY":"Paris","COMPANY_XRF":"730","COMPANY_ZONE":"E","HQ_COUNTRY":"France","HQ_COUNTRY_ISO":"FR","LATITUDE":48.8683702,"LISTING_XRF":"1056","LISTING_ZONE":"E","LONGITUDE":2.2940036,"NAME":"PERNOD RICARD SA","POSTAL_CODE":"75008","SECTOR":"CONSTAPL","SHARES":212337273.60000002,"SIMILARS_GROUP":"LIQUOR","USD_CAP":36813399376.38855},{"ADDRESS":"2647 Waterfront Parkway East Drive","CITY":"Farsta","COMPANY_XRF":"9581","COMPANY_ZONE":"E","HQ_COUNTRY":"Sweden","HQ_COUNTRY_ISO":"SE","LATITUDE":60.12816100000001,"LISTING_XRF":"12761","LISTING_ZONE":"E","LONGITUDE":18.643501,"NAME":"TELIA CO AB","POSTAL_CODE":"106 63","SECTOR":"TELECOMM","SHARES":2814555107.65,"SIMILARS_GROUP":"PHONE","USD_CAP":12330820357.625383},{"ADDRESS":"Hangar 89","CITY":"Luton","COMPANY_XRF":"10349","COMPANY_ZONE":"E","HQ_COUNTRY":"United Kingdom","HQ_COUNTRY_ISO":"GB","LATITUDE":51.87842209999999,"LISTING_XRF":"13600","LISTING_ZONE":"E","LONGITUDE":0,"NAME":"easyJet PLC","POSTAL_CODE":"LU2 9LS","SECTOR":"TRANSPRT","SHARES":158883253.20000002,"SIMILARS_GROUP":"AIRLINES","USD_CAP":2505982832.175162},{"ADDRESS":"3 Market Close","CITY":"Poole","COMPANY_XRF":"12728","COMPANY_ZONE":"E","HQ_COUNTRY":"United Kingdom","HQ_COUNTRY_ISO":"GB","LATITUDE":50.7157622,"LISTING_XRF":"17008","LISTING_ZONE":"E","LONGITUDE":-1.9877849,"NAME":"Merlin Entertainments PLC","POSTAL_CODE":"BH15 1LD","SECTOR":"","SHARES":715450714.3,"SIMILARS_GROUP":"","USD_CAP":3332563892.925748},{"ADDRESS":"31-32, quai de Dion Bouton","CITY":"Paris","COMPANY_XRF":"4678","COMPANY_ZONE":"E","HQ_COUNTRY":"France","HQ_COUNTRY_ISO":"FR","LATITUDE":48.88125669999999,"LISTING_XRF":"7377","LISTING_ZONE":"E","LONGITUDE":2.2452363,"NAME":"BOLLORE SA","POSTAL_CODE":"29500","SECTOR":"ENERGY","SHARES":878159145.6,"SIMILARS_GROUP":"WHLSE OL","USD_CAP":4251540763.3273354},{"ADDRESS":"Schachenstrasse 77","CITY":"Jona","COMPANY_XRF":"8654","COMPANY_ZONE":"E","HQ_COUNTRY":"Switzerland","HQ_COUNTRY_ISO":"CH","LATITUDE":47.224365,"LISTING_XRF":"11718","LISTING_ZONE":"E","LONGITUDE":8.843791999999999,"NAME":"GEBERIT AG","POSTAL_CODE":"8645","SECTOR":"BASICIND","SHARES":37041427,"SIMILARS_GROUP":"METAL PR","USD_CAP":15279031551.783138},{"ADDRESS":"Affolternstrasse 44","CITY":"Zurich","COMPANY_XRF":"1997","COMPANY_ZONE":"E","HQ_COUNTRY":"Switzerland","HQ_COUNTRY_ISO":"CH","LATITUDE":47.4111856,"LISTING_XRF":"11468","LISTING_ZONE":"E","LONGITUDE":8.5416153,"NAME":"ABB LTD","POSTAL_CODE":"8050","SECTOR":"INDUSTRY","SHARES":1842926024.3999999,"SIMILARS_GROUP":"ELCT MCH","USD_CAP":38180378157.28292},{"ADDRESS":"Messeallee 11","CITY":"Essen","COMPANY_XRF":"12516","COMPANY_ZONE":"E","HQ_COUNTRY":"Germany","HQ_COUNTRY_ISO":"DE","LATITUDE":51.4243941,"LISTING_XRF":"16697","LISTING_ZONE":"E","LONGITUDE":6.9972734,"NAME":"BRENNTAG AG","POSTAL_CODE":"45131","SECTOR":"BASICIND","SHARES":154500000,"SIMILARS_GROUP":"CHEMICAL","USD_CAP":8347472311.5},{"ADDRESS":"9 Ottiliavej","CITY":"Copenhagen","COMPANY_XRF":"8414","COMPANY_ZONE":"E","HQ_COUNTRY":"Denmark","HQ_COUNTRY_ISO":"DK","LATITUDE":55.6580753,"LISTING_XRF":"11467","LISTING_ZONE":"E","LONGITUDE":12.5168215,"NAME":"H LUNDBECK A\/S","POSTAL_CODE":"2500","SECTOR":"HEALTH","SHARES":69686748.6,"SIMILARS_GROUP":"DRUGS","USD_CAP":2899644888.032245},{"ADDRESS":"21 avenue Kleber","CITY":"Paris","COMPANY_XRF":"884","COMPANY_ZONE":"E","HQ_COUNTRY":"France","HQ_COUNTRY_ISO":"FR","LATITUDE":48.8703194,"LISTING_XRF":"1223","LISTING_ZONE":"E","LONGITUDE":2.2928673,"NAME":"KLEPIERRE SA","POSTAL_CODE":"75009","SECTOR":"REALEST","SHARES":204331441.6,"SIMILARS_GROUP":"REIT","USD_CAP":7334685718.633874},{"ADDRESS":"Axel Springer Str 65","CITY":"Berlin","COMPANY_XRF":"276","COMPANY_ZONE":"E","HQ_COUNTRY":"Germany","HQ_COUNTRY_ISO":"DE","LATITUDE":52.507335,"LISTING_XRF":"552","LISTING_ZONE":"E","LONGITUDE":13.3960769,"NAME":"AXEL SPRINGER SE","POSTAL_CODE":"10888","SECTOR":"CONSDIS","SHARES":48552889.95,"SIMILARS_GROUP":"PUBLISHI","USD_CAP":2747867800.231733},{"ADDRESS":"1 rue Georges Berger","CITY":"Paris","COMPANY_XRF":"772","COMPANY_ZONE":"E","HQ_COUNTRY":"France","HQ_COUNTRY_ISO":"FR","LATITUDE":48.8809285,"LISTING_XRF":"1106","LISTING_ZONE":"E","LONGITUDE":2.30961,"NAME":"EURAZEO SE","POSTAL_CODE":"75008","SECTOR":"REALEST","SHARES":46803826.8,"SIMILARS_GROUP":"INVEST","USD_CAP":3498618347.940492},{"ADDRESS":"1 rue de France","CITY":"Paris","COMPANY_XRF":"11975","COMPANY_ZONE":"E","HQ_COUNTRY":"France","HQ_COUNTRY_ISO":"FR","LATITUDE":49.0096906,"LISTING_XRF":"15781","LISTING_ZONE":"E","LONGITUDE":2.5479245,"NAME":"AEROPORTS DE PARIS","POSTAL_CODE":"75014","SECTOR":"TRANSPRT","SHARES":29688180.599999998,"SIMILARS_GROUP":"AIRCARGO","USD_CAP":5965587838.916706},{"ADDRESS":"","CITY":"","COMPANY_XRF":"12566","COMPANY_ZONE":"E","HQ_COUNTRY":"France","HQ_COUNTRY_ISO":"FR","LATITUDE":46.227638,"LISTING_XRF":"16779","LISTING_ZONE":"E","LONGITUDE":2.213749,"NAME":"GETLINK SE","POSTAL_CODE":"","SECTOR":"TRANSPRT","SHARES":467500000,"SIMILARS_GROUP":"RAILROAD","USD_CAP":7350699317.500001},{"ADDRESS":"1 Aldermanbury Square","CITY":"London","COMPANY_XRF":"2199","COMPANY_ZONE":"E","HQ_COUNTRY":"United Kingdom","HQ_COUNTRY_ISO":"GB","LATITUDE":51.516644,"LISTING_XRF":"2711","LISTING_ZONE":"E","LONGITUDE":0,"NAME":"STANDARD CHARTERED PLC","POSTAL_CODE":"EC2V 5DD","SECTOR":"FINANCE","SHARES":2811208298.85,"SIMILARS_GROUP":"BANKS","USD_CAP":24443228152.516808},{"ADDRESS":"3 Edridge Road","CITY":"Bromley","COMPANY_XRF":"12587","COMPANY_ZONE":"E","HQ_COUNTRY":"United Kingdom","HQ_COUNTRY_ISO":"GB","LATITUDE":0,"LISTING_XRF":"16828","LISTING_ZONE":"E","LONGITUDE":0,"NAME":"Direct Line Insurance Group PLC","POSTAL_CODE":"BR1 1DP","SECTOR":"FINANCE","SHARES":1375000000,"SIMILARS_GROUP":"INS MISC","USD_CAP":6061374170.178376},{"ADDRESS":"11 Grand-Rue","CITY":"Gene-a","COMPANY_XRF":"2012","COMPANY_ZONE":"E","HQ_COUNTRY":"Switzerland","HQ_COUNTRY_ISO":"CH","LATITUDE":46.2023428,"LISTING_XRF":"2456","LISTING_ZONE":"E","LONGITUDE":6.1450887,"NAME":"PARGESA HLDGS SA","POSTAL_CODE":"1204","SECTOR":"BASICIND","SHARES":38607350,"SIMILARS_GROUP":"CNST MAT","USD_CAP":3088223394.7027473},{"ADDRESS":"Globe House","CITY":"London","COMPANY_XRF":"2122","COMPANY_ZONE":"E","HQ_COUNTRY":"United Kingdom","HQ_COUNTRY_ISO":"GB","LATITUDE":51.5115671,"LISTING_XRF":"2606","LISTING_ZONE":"E","LONGITUDE":0,"NAME":"BRITISH AMERICAN TOBACCO PLC","POSTAL_CODE":"WC2R 2PG","SECTOR":"CONSTAPL","SHARES":2293769553,"SIMILARS_GROUP":"TOBACCO","USD_CAP":90728030754.60355},{"ADDRESS":"62 Buckingham Gate","CITY":"London","COMPANY_XRF":"2170","COMPANY_ZONE":"E","HQ_COUNTRY":"United Kingdom","HQ_COUNTRY_ISO":"GB","LATITUDE":51.4977631,"LISTING_XRF":"2675","LISTING_ZONE":"E","LONGITUDE":0,"NAME":"Rolls-Royce Holdings PLC","POSTAL_CODE":"SW1E 6AT","SECTOR":"INDUSTRY","SHARES":1696951881,"SIMILARS_GROUP":"ENGINES","USD_CAP":19932233593.750698},{"ADDRESS":"2297 Co-entry Road","CITY":"Birmingham","COMPANY_XRF":"2276","COMPANY_ZONE":"E","HQ_COUNTRY":"United Kingdom","HQ_COUNTRY_ISO":"GB","LATITUDE":0,"LISTING_XRF":"2795","LISTING_ZONE":"E","LONGITUDE":0,"NAME":"SEVERN TRENT","POSTAL_CODE":"B26 3PU","SECTOR":"UTILS","SHARES":237162297,"SIMILARS_GROUP":"WATER UT","USD_CAP":6011409955.084409},{"ADDRESS":"980 Great West Road","CITY":"Brentford","COMPANY_XRF":"2120","COMPANY_ZONE":"E","HQ_COUNTRY":"United Kingdom","HQ_COUNTRY_ISO":"GB","LATITUDE":51.488096,"LISTING_XRF":"2603","LISTING_ZONE":"E","LONGITUDE":0,"NAME":"GlaxoSmithKline PLC","POSTAL_CODE":"TW8 9GS","SECTOR":"HEALTH","SHARES":4961195362,"SIMILARS_GROUP":"DRUGS","USD_CAP":97854664288.62923},{"ADDRESS":"Z.I. des Paluds","CITY":"Aubagne","COMPANY_XRF":"7316","COMPANY_ZONE":"E","HQ_COUNTRY":"France","HQ_COUNTRY_ISO":"FR","LATITUDE":43.2864662,"LISTING_XRF":"10316","LISTING_ZONE":"E","LONGITUDE":5.607552099999999,"NAME":"Sartorius Stedim Biotech","POSTAL_CODE":"13781","SECTOR":"HEALTH","SHARES":27654057,"SIMILARS_GROUP":"MDCL INS","USD_CAP":3316133479.7493},{"ADDRESS":"8 Henrietta Place","CITY":"London","COMPANY_XRF":"2127","COMPANY_ZONE":"E","HQ_COUNTRY":"United Kingdom","HQ_COUNTRY_ISO":"GB","LATITUDE":51.5292619,"LISTING_XRF":"2619","LISTING_ZONE":"E","LONGITUDE":0,"NAME":"DIAGEO PLC","POSTAL_CODE":"NW10 7HQ","SECTOR":"CONSTAPL","SHARES":2427067061,"SIMILARS_GROUP":"LIQUOR","USD_CAP":98167337490.63327},{"ADDRESS":"Brunngasslein 12","CITY":"Basel","COMPANY_XRF":"11989","COMPANY_ZONE":"E","HQ_COUNTRY":"Switzerland","HQ_COUNTRY_ISO":"CH","LATITUDE":47.552753,"LISTING_XRF":"15801","LISTING_ZONE":"E","LONGITUDE":7.594399300000001,"NAME":"DUFRY AG","POSTAL_CODE":"4010","SECTOR":"CONSDIS","SHARES":32323024.2,"SIMILARS_GROUP":"RTL SPEC","USD_CAP":3300752456.160435},{"ADDRESS":"6 place d'Alleray","CITY":"Paris","COMPANY_XRF":"6673","COMPANY_ZONE":"E","HQ_COUNTRY":"France","HQ_COUNTRY_ISO":"FR","LATITUDE":48.83643619999999,"LISTING_XRF":"5726","LISTING_ZONE":"E","LONGITUDE":2.3064364,"NAME":"ORANGE SA","POSTAL_CODE":"75015","SECTOR":"TELECOMM","SHARES":1995042449.25,"SIMILARS_GROUP":"PHONE","USD_CAP":32699219565.789196},{"ADDRESS":"Feldeggstrasse 4","CITY":"Basel","COMPANY_XRF":"8871","COMPANY_ZONE":"E","HQ_COUNTRY":"Switzerland","HQ_COUNTRY_ISO":"CH","LATITUDE":47.546095,"LISTING_XRF":"11964","LISTING_ZONE":"E","LONGITUDE":7.5979752,"NAME":"LONZA GROUP AG","POSTAL_CODE":"4002","SECTOR":"BASICIND","SHARES":74468751,"SIMILARS_GROUP":"CHEMICAL","USD_CAP":21683615286.481617},{"ADDRESS":"Zugerstrasse 5","CITY":"Baar","COMPANY_XRF":"11988","COMPANY_ZONE":"E","HQ_COUNTRY":"Switzerland","HQ_COUNTRY_ISO":"CH","LATITUDE":47.18515800000001,"LISTING_XRF":"15800","LISTING_ZONE":"E","LONGITUDE":8.521006999999999,"NAME":"PARTNERS GROUP HOLDING AG","POSTAL_CODE":"6341","SECTOR":"FINANCE","SHARES":17355000,"SIMILARS_GROUP":"PUR INV","USD_CAP":12947807938.67121},{"ADDRESS":"North Park","CITY":"Newcastle Upon Tyne","COMPANY_XRF":"2912","COMPANY_ZONE":"E","HQ_COUNTRY":"United Kingdom","HQ_COUNTRY_ISO":"GB","LATITUDE":55.03475,"LISTING_XRF":"3480","LISTING_ZONE":"E","LONGITUDE":-1.648798,"NAME":"Sage Group PLC\/The","POSTAL_CODE":"NE13 9AA","SECTOR":"TECH","SHARES":1085263913,"SIMILARS_GROUP":"SOFTWARE","USD_CAP":9955838879.120962},{"ADDRESS":"20 Fenchurch Street","CITY":"London","COMPANY_XRF":"2153","COMPANY_ZONE":"E","HQ_COUNTRY":"United Kingdom","HQ_COUNTRY_ISO":"GB","LATITUDE":51.5112671,"LISTING_XRF":"2652","LISTING_ZONE":"E","LONGITUDE":0,"NAME":"RSA INSURANCE GROUP PLC","POSTAL_CODE":"EC3M 3AU","SECTOR":"","SHARES":1026932041,"SIMILARS_GROUP":"","USD_CAP":7246913877.450569},{"ADDRESS":"100 Ny Carlsberg -ej","CITY":"Copenhagen","COMPANY_XRF":"4045","COMPANY_ZONE":"E","HQ_COUNTRY":"Denmark","HQ_COUNTRY_ISO":"DK","LATITUDE":56.26392,"LISTING_XRF":"5795","LISTING_ZONE":"E","LONGITUDE":9.501785,"NAME":"CARLSBERG A\/S","POSTAL_CODE":"1760","SECTOR":"CONSTAPL","SHARES":106971300,"SIMILARS_GROUP":"BEER","USD_CAP":13488012076.667559},{"ADDRESS":"16 rue de la Ville l'Eveque","CITY":"Paris","COMPANY_XRF":"11550","COMPANY_ZONE":"E","HQ_COUNTRY":"France","HQ_COUNTRY_ISO":"FR","LATITUDE":48.871668,"LISTING_XRF":"15144","LISTING_ZONE":"E","LONGITUDE":2.3206134,"NAME":"Iliad SA","POSTAL_CODE":"75008","SECTOR":"TELECOMM","SHARES":26525820.6,"SIMILARS_GROUP":"INET.SP","USD_CAP":2889511750.6320243},{"ADDRESS":"4 place Raoul Dautry","CITY":"Paris","COMPANY_XRF":"8282","COMPANY_ZONE":"E","HQ_COUNTRY":"France","HQ_COUNTRY_ISO":"FR","LATITUDE":48.8416167,"LISTING_XRF":"11321","LISTING_ZONE":"E","LONGITUDE":2.3198209,"NAME":"CNP ASSURANCES SA","POSTAL_CODE":"75015","SECTOR":"FINANCE","SHARES":171654619.25,"SIMILARS_GROUP":"INS LIFE","USD_CAP":4105246900.472757},{"ADDRESS":"16 Palace Street","CITY":"London","COMPANY_XRF":"5777","COMPANY_ZONE":"E","HQ_COUNTRY":"United Kingdom","HQ_COUNTRY_ISO":"GB","LATITUDE":51.4982737,"LISTING_XRF":"8563","LISTING_ZONE":"E","LONGITUDE":0,"NAME":"3I GROUP","POSTAL_CODE":"SE1 8XP","SECTOR":"FINANCE","SHARES":972960469,"SIMILARS_GROUP":"PUR INV","USD_CAP":13596127015.147078},{"ADDRESS":"50 chemin de la Chenaie","CITY":"Bellevue","COMPANY_XRF":"4667","COMPANY_ZONE":"E","HQ_COUNTRY":"Switzerland","HQ_COUNTRY_ISO":"CH","LATITUDE":46.2571924,"LISTING_XRF":"7366","LISTING_ZONE":"E","LONGITUDE":6.149451,"NAME":"Cie Financiere Richemont SA","POSTAL_CODE":"1293","SECTOR":"CONSDIS","SHARES":522000000,"SIMILARS_GROUP":"WATCHES","USD_CAP":38862368947.71327},{"ADDRESS":"13-15 Avenue de la Liberte","CITY":"Douglas","COMPANY_XRF":"12887","COMPANY_ZONE":"E","HQ_COUNTRY":"United Kingdom","HQ_COUNTRY_ISO":"GB","LATITUDE":0,"LISTING_XRF":"17172","LISTING_ZONE":"E","LONGITUDE":0,"NAME":"GVC HOLDINGS PLC","POSTAL_CODE":"1450","SECTOR":"","SHARES":552776757.4499999,"SIMILARS_GROUP":"","USD_CAP":4638985131.574621},{"ADDRESS":"19 Portland Place","CITY":"London","COMPANY_XRF":"8013","COMPANY_ZONE":"E","HQ_COUNTRY":"United Kingdom","HQ_COUNTRY_ISO":"GB","LATITUDE":51.4966568,"LISTING_XRF":"11032","LISTING_ZONE":"E","LONGITUDE":0,"NAME":"Informa PLC","POSTAL_CODE":"6300","SECTOR":"CONSDIS","SHARES":1251626356,"SIMILARS_GROUP":"PUBLISHI","USD_CAP":12923312710.51229},{"ADDRESS":"4 Brighton Mews","CITY":"Bristol","COMPANY_XRF":"12326","COMPANY_ZONE":"E","HQ_COUNTRY":"United Kingdom","HQ_COUNTRY_ISO":"GB","LATITUDE":0,"LISTING_XRF":"16374","LISTING_ZONE":"E","LONGITUDE":0,"NAME":"Hargreaves Lansdown PLC","POSTAL_CODE":"BS1 5HL","SECTOR":"BUSINSRV","SHARES":284591400,"SIMILARS_GROUP":"CONSLTNG","USD_CAP":8027393046.428449},{"ADDRESS":"Haupstrasse 26","CITY":"Basel","COMPANY_XRF":"7802","COMPANY_ZONE":"E","HQ_COUNTRY":"Switzerland","HQ_COUNTRY_ISO":"CH","LATITUDE":46.818188,"LISTING_XRF":"10823","LISTING_ZONE":"E","LONGITUDE":8.227511999999999,"NAME":"STRAUMANN HOLDING AG","POSTAL_CODE":"4002","SECTOR":"HEALTH","SHARES":10321339.6,"SIMILARS_GROUP":"MDCL INS","USD_CAP":8456183499.268507},{"ADDRESS":"Kungstradgardsgatan 2","CITY":"Stockholm","COMPANY_XRF":"4348","COMPANY_ZONE":"E","HQ_COUNTRY":"Sweden","HQ_COUNTRY_ISO":"SE","LATITUDE":59.33015409999999,"LISTING_XRF":"5313","LISTING_ZONE":"E","LONGITUDE":18.0733345,"NAME":"SVENSKA HANDELSBANKEN AB","POSTAL_CODE":"106 70","SECTOR":"FINANCE","SHARES":1527137445.6000001,"SIMILARS_GROUP":"BANKS","USD_CAP":16966720621.199066},{"ADDRESS":"18 Avenue Dalsace","CITY":"Bezons","COMPANY_XRF":"1526","COMPANY_ZONE":"E","HQ_COUNTRY":"France","HQ_COUNTRY_ISO":"FR","LATITUDE":46.227638,"LISTING_XRF":"1874","LISTING_ZONE":"E","LONGITUDE":2.213749,"NAME":"ATOS SE","POSTAL_CODE":"92067","SECTOR":"TECH","SHARES":95995930.5,"SIMILARS_GROUP":"SOFTWARE","USD_CAP":10157952803.777666},{"ADDRESS":"Medienallee 7","CITY":"Unterfoehring","COMPANY_XRF":"7125","COMPANY_ZONE":"E","HQ_COUNTRY":"Germany","HQ_COUNTRY_ISO":"DE","LATITUDE":48.19112790000001,"LISTING_XRF":"13151","LISTING_ZONE":"E","LONGITUDE":11.6492849,"NAME":"PROSIEBENSAT.1 MEDIA SE","POSTAL_CODE":"85774","SECTOR":"CONSDIS","SHARES":233000000,"SIMILARS_GROUP":"BROADCAS","USD_CAP":3846343263},{"ADDRESS":"108, Rue de Richelieu","CITY":"Paris","COMPANY_XRF":"810","COMPANY_ZONE":"E","HQ_COUNTRY":"France","HQ_COUNTRY_ISO":"FR","LATITUDE":48.870968,"LISTING_XRF":"16805","LISTING_ZONE":"E","LONGITUDE":2.279031,"NAME":"UNIBAIL-RODAMCO-WESTFIELD","POSTAL_CODE":"75002","SECTOR":"REALEST","SHARES":138286626,"SIMILARS_GROUP":"REALPROP","USD_CAP":23967320134.905632},{"ADDRESS":"Calle Azul, 4","CITY":"Bilbao","COMPANY_XRF":"623","COMPANY_ZONE":"E","HQ_COUNTRY":"Spain","HQ_COUNTRY_ISO":"ES","LATITUDE":43.2599408,"LISTING_XRF":"919","LISTING_ZONE":"E","LONGITUDE":-2.9312277,"NAME":"Banco Bilbao Vizcaya Argentaria SA","POSTAL_CODE":"28005","SECTOR":"FINANCE","SHARES":6667886580,"SIMILARS_GROUP":"BANKS","USD_CAP":41802286542.21237},{"ADDRESS":"Mainaustrasse2","CITY":"Dubendorf","COMPANY_XRF":"7788","COMPANY_ZONE":"E","HQ_COUNTRY":"Switzerland","HQ_COUNTRY_ISO":"CH","LATITUDE":47.3900858,"LISTING_XRF":"10808","LISTING_ZONE":"E","LONGITUDE":8.5144551,"NAME":"BARRY CALLEBAUT AG","POSTAL_CODE":"8005","SECTOR":"CONSTAPL","SHARES":2195543.2,"SIMILARS_GROUP":"FOOD","USD_CAP":3957422645.7570786},{"ADDRESS":"10 Patemoster Square","CITY":"London","COMPANY_XRF":"10675","COMPANY_ZONE":"E","HQ_COUNTRY":"United Kingdom","HQ_COUNTRY_ISO":"GB","LATITUDE":51.5150534,"LISTING_XRF":"13954","LISTING_ZONE":"E","LONGITUDE":0,"NAME":"LONDON STOCK EXCHANGE GROUP PLC","POSTAL_CODE":"EC2N 1HP","SECTOR":"FINANCE","SHARES":313342319.7,"SIMILARS_GROUP":"SECURITI","USD_CAP":20125519019.59464},{"ADDRESS":"Berliner Strasse 6","CITY":"Heidelberg","COMPANY_XRF":"218","COMPANY_ZONE":"E","HQ_COUNTRY":"Germany","HQ_COUNTRY_ISO":"DE","LATITUDE":49.4131974,"LISTING_XRF":"480","LISTING_ZONE":"E","LONGITUDE":8.677541,"NAME":"Heidelbergcement","POSTAL_CODE":"69120","SECTOR":"BASICIND","SHARES":148812357.75,"SIMILARS_GROUP":"CEMENT","USD_CAP":12157825280.187983},{"ADDRESS":"Av Jose Malhoa, Lote A, 13","CITY":"Lisboa","COMPANY_XRF":"6960","COMPANY_ZONE":"E","HQ_COUNTRY":"Portugal","HQ_COUNTRY_ISO":"PT","LATITUDE":38.7377535,"LISTING_XRF":"9909","LISTING_ZONE":"E","LONGITUDE":-9.1664025,"NAME":"EDP - ENERGIAS DE PORTUGAL SA","POSTAL_CODE":"1070-157","SECTOR":"UTILS","SHARES":2559576400.5,"SIMILARS_GROUP":"ELECTRIC","USD_CAP":9879173484.906967},{"ADDRESS":"1 Cours Ferdinand de Lesseps","CITY":"Paris","COMPANY_XRF":"786","COMPANY_ZONE":"E","HQ_COUNTRY":"France","HQ_COUNTRY_ISO":"FR","LATITUDE":48.8885571,"LISTING_XRF":"1121","LISTING_ZONE":"E","LONGITUDE":2.1665055,"NAME":"Vinci SA","POSTAL_CODE":"92500","SECTOR":"INDUSTRY","SHARES":507833408.65,"SIMILARS_GROUP":"CONSTRUC","USD_CAP":50857358599.977554},{"ADDRESS":"Edingensesteenweg 196","CITY":"Halle","COMPANY_XRF":"106","COMPANY_ZONE":"E","HQ_COUNTRY":"Belgium","HQ_COUNTRY_ISO":"BE","LATITUDE":50.729335,"LISTING_XRF":"277","LISTING_ZONE":"E","LONGITUDE":4.221937,"NAME":"COLRUYT SA","POSTAL_CODE":"1500","SECTOR":"BUSINSRV","SHARES":60078540.800000004,"SIMILARS_GROUP":"WHLSE FD","USD_CAP":4383184345.913857},{"ADDRESS":"CD Building, Keilalahdentie 2-4","CITY":"Espoo","COMPANY_XRF":"7218","COMPANY_ZONE":"E","HQ_COUNTRY":"Finland","HQ_COUNTRY_ISO":"FI","LATITUDE":60.1697666,"LISTING_XRF":"10209","LISTING_ZONE":"E","LONGITUDE":24.829227,"NAME":"FORTUM OYJ","POSTAL_CODE":"00048","SECTOR":"UTILS","SHARES":444183522.5,"SIMILARS_GROUP":"ELECTRIC","USD_CAP":9122120379.92487},{"ADDRESS":"35 rue Joseph Monier","CITY":"Rueil Malmaison","COMPANY_XRF":"814","COMPANY_ZONE":"E","HQ_COUNTRY":"France","HQ_COUNTRY_ISO":"FR","LATITUDE":48.8906473,"LISTING_XRF":"1152","LISTING_ZONE":"E","LONGITUDE":2.1715676,"NAME":"SCHNEIDER ELECTRIC SE","POSTAL_CODE":"92500","SECTOR":"INDUSTRY","SHARES":550008448.9,"SIMILARS_GROUP":"ELCT MCH","USD_CAP":47462374088.53171},{"ADDRESS":"376 Chemin De l'Orme","CITY":"Marcy l","COMPANY_XRF":"11551","COMPANY_ZONE":"E","HQ_COUNTRY":"France","HQ_COUNTRY_ISO":"FR","LATITUDE":45.7808108,"LISTING_XRF":"15145","LISTING_ZONE":"E","LONGITUDE":4.7117338,"NAME":"BIOMERIEUX","POSTAL_CODE":"69280","SECTOR":"HEALTH","SHARES":41426700,"SIMILARS_GROUP":"HLTHCARE","USD_CAP":3361307754.756},{"ADDRESS":"2-4 Cockspur Street","CITY":"London","COMPANY_XRF":"2292","COMPANY_ZONE":"E","HQ_COUNTRY":"United Kingdom","HQ_COUNTRY_ISO":"GB","LATITUDE":0,"LISTING_XRF":"2817","LISTING_ZONE":"E","LONGITUDE":0,"NAME":"JOHNSON MATTHEY PUB LTD CO","POSTAL_CODE":"EC1N 8EE","SECTOR":"BASICIND","SHARES":193533429,"SIMILARS_GROUP":"INDSTRL","USD_CAP":8604099198.668947},{"ADDRESS":"27 Farm Street","CITY":"Dublin","COMPANY_XRF":"2368","COMPANY_ZONE":"E","HQ_COUNTRY":"United Kingdom","HQ_COUNTRY_ISO":"GB","LATITUDE":51.509497,"LISTING_XRF":"2894","LISTING_ZONE":"E","LONGITUDE":0,"NAME":"WPP PLC","POSTAL_CODE":"2","SECTOR":"BUSINSRV","SHARES":1261821064,"SIMILARS_GROUP":"ADS","USD_CAP":15248984093.295195},{"ADDRESS":"-ia Filippo Turati 27","CITY":"Milan","COMPANY_XRF":"11155","COMPANY_ZONE":"E","HQ_COUNTRY":"Italy","HQ_COUNTRY_ISO":"IT","LATITUDE":41.87194,"LISTING_XRF":"14473","LISTING_ZONE":"E","LONGITUDE":12.56738,"NAME":"CAMPARI","POSTAL_CODE":"20099","SECTOR":"CONSTAPL","SHARES":580800000,"SIMILARS_GROUP":"BEVERAGE","USD_CAP":5617289092.8},{"ADDRESS":"78 Quai Marcel Dassault","CITY":"Paris","COMPANY_XRF":"795","COMPANY_ZONE":"E","HQ_COUNTRY":"France","HQ_COUNTRY_ISO":"FR","LATITUDE":48.8581786,"LISTING_XRF":"1131","LISTING_ZONE":"E","LONGITUDE":2.2216481,"NAME":"DASSAULT AVIATION","POSTAL_CODE":"75008","SECTOR":"TECH","SHARES":2504610.9,"SIMILARS_GROUP":"SOFTWARE","USD_CAP":3640571914.0121098},{"ADDRESS":"100 Victoria Embankment","CITY":"London","COMPANY_XRF":"12664","COMPANY_ZONE":"E","HQ_COUNTRY":"United Kingdom","HQ_COUNTRY_ISO":"GB","LATITUDE":51.511698,"LISTING_XRF":"16914","LISTING_ZONE":"E","LONGITUDE":0,"NAME":"Royal Mail PLC","POSTAL_CODE":"EC4Y 0HQ","SECTOR":"","SHARES":900000000,"SIMILARS_GROUP":"","USD_CAP":3016049991.3409925},{"ADDRESS":"Karakaari 7","CITY":"Espoo","COMPANY_XRF":"4207","COMPANY_ZONE":"E","HQ_COUNTRY":"Finland","HQ_COUNTRY_ISO":"FI","LATITUDE":60.2212238,"LISTING_XRF":"5063","LISTING_ZONE":"E","LONGITUDE":24.7570854,"NAME":"nokia corporation","POSTAL_CODE":"00045","SECTOR":"TECH","SHARES":5635922159,"SIMILARS_GROUP":"TLCOM EQ","USD_CAP":32446206198.96851},{"ADDRESS":"Froburgstrasse 1","CITY":"Olten","COMPANY_XRF":"10606","COMPANY_ZONE":"E","HQ_COUNTRY":"Switzerland","HQ_COUNTRY_ISO":"CH","LATITUDE":47.352033,"LISTING_XRF":"13885","LISTING_ZONE":"E","LONGITUDE":7.904545299999999,"NAME":"SWISS PRIME SITE AG","POSTAL_CODE":"4601","SECTOR":"REALEST","SHARES":75946349,"SIMILARS_GROUP":"REALPROP","USD_CAP":6086144281.303416},{"ADDRESS":"192 A-enue Charles de Gaulle","CITY":"Neuilly sur Seine","COMPANY_XRF":"1136","COMPANY_ZONE":"E","HQ_COUNTRY":"France","HQ_COUNTRY_ISO":"FR","LATITUDE":46.227638,"LISTING_XRF":"1477","LISTING_ZONE":"E","LONGITUDE":2.213749,"NAME":"INGENICO GROUP SA","POSTAL_CODE":"75015","SECTOR":"TECH","SHARES":59987300.65,"SIMILARS_GROUP":"PERIPHER","USD_CAP":4544597105.879559},{"ADDRESS":"Taunusanlage 12","CITY":"Frankfurt","COMPANY_XRF":"192","COMPANY_ZONE":"E","HQ_COUNTRY":"Germany","HQ_COUNTRY_ISO":"DE","LATITUDE":50.113816,"LISTING_XRF":"404","LISTING_ZONE":"E","LONGITUDE":8.6681872,"NAME":"DEUTSCHE BANK AG","POSTAL_CODE":"60262","SECTOR":"FINANCE","SHARES":1963434474.4499998,"SIMILARS_GROUP":"BANKS","USD_CAP":17125876763.761923},{"ADDRESS":"25 Avenue Klber","CITY":"Le-allois-Perret","COMPANY_XRF":"7168","COMPANY_ZONE":"E","HQ_COUNTRY":"France","HQ_COUNTRY_ISO":"FR","LATITUDE":46.227638,"LISTING_XRF":"10152","LISTING_ZONE":"E","LONGITUDE":2.213749,"NAME":"ALSTOM SA","POSTAL_CODE":"75116","SECTOR":"INDUSTRY","SHARES":156140857.6,"SIMILARS_GROUP":"CNST SPC","USD_CAP":7111474082.324685},{"ADDRESS":"Via Stendhal 47","CITY":"Milan","COMPANY_XRF":"12681","COMPANY_ZONE":"E","HQ_COUNTRY":"Italy","HQ_COUNTRY_ISO":"IT","LATITUDE":45.4549856,"LISTING_XRF":"16951","LISTING_ZONE":"E","LONGITUDE":9.158126800000002,"NAME":"MONCLER SPA","POSTAL_CODE":"20144","SECTOR":"","SHARES":178917975.6,"SIMILARS_GROUP":"","USD_CAP":7322748464.309679},{"ADDRESS":"Kungsbron 1","CITY":"Sand-iken","COMPANY_XRF":"4344","COMPANY_ZONE":"E","HQ_COUNTRY":"Sweden","HQ_COUNTRY_ISO":"SE","LATITUDE":60.12816100000001,"LISTING_XRF":"12654","LISTING_ZONE":"E","LONGITUDE":18.643501,"NAME":"SANDVIK AB","POSTAL_CODE":"101 30","SECTOR":"BASICIND","SHARES":1128947330.7,"SIMILARS_GROUP":"STEEL PR","USD_CAP":21175714241.396793},{"ADDRESS":"A-enida de la Diputacin","CITY":"A Coruna","COMPANY_XRF":"10499","COMPANY_ZONE":"E","HQ_COUNTRY":"Spain","HQ_COUNTRY_ISO":"ES","LATITUDE":40.46366700000001,"LISTING_XRF":"13760","LISTING_ZONE":"E","LONGITUDE":-3.74922,"NAME":"INDUSTRIA DE DISENO TEXTIL SA","POSTAL_CODE":"142","SECTOR":"CONSDIS","SHARES":1090827500,"SIMILARS_GROUP":"RTL WEAR","USD_CAP":34229730619},{"ADDRESS":"42 Rue du Docteur Blanche","CITY":"Boulogne-Billancourt","COMPANY_XRF":"11970","COMPANY_ZONE":"E","HQ_COUNTRY":"France","HQ_COUNTRY_ISO":"FR","LATITUDE":46.227638,"LISTING_XRF":"15776","LISTING_ZONE":"E","LONGITUDE":2.213749,"NAME":"IPSEN SA","POSTAL_CODE":"75016","SECTOR":"HEALTH","SHARES":37707357.6,"SIMILARS_GROUP":"DRUGS","USD_CAP":4969615553.888832},{"ADDRESS":"","CITY":"Bern","COMPANY_XRF":"7163","COMPANY_ZONE":"E","HQ_COUNTRY":"Switzerland","HQ_COUNTRY_ISO":"CH","LATITUDE":46.981125,"LISTING_XRF":"10147","LISTING_ZONE":"E","LONGITUDE":7.458242,"NAME":"SWISSCOM","POSTAL_CODE":"3048","SECTOR":"TELECOMM","SHARES":25900971.5,"SIMILARS_GROUP":"PHONE","USD_CAP":11949177023.313293},{"ADDRESS":"Parade Platz 8","CITY":"Zurich","COMPANY_XRF":"1995","COMPANY_ZONE":"E","HQ_COUNTRY":"Switzerland","HQ_COUNTRY_ISO":"CH","LATITUDE":47.3699495,"LISTING_XRF":"2425","LISTING_ZONE":"E","LONGITUDE":8.5386709,"NAME":"CREDIT SUISSE GROUP AG","POSTAL_CODE":"8001","SECTOR":"FINANCE","SHARES":2556011720,"SIMILARS_GROUP":"BANKS","USD_CAP":34234626774.457455},{"ADDRESS":"Concourse Building","CITY":"County Dublin","COMPANY_XRF":"6789","COMPANY_ZONE":"E","HQ_COUNTRY":"Ireland","HQ_COUNTRY_ISO":"IE","LATITUDE":53.1423672,"LISTING_XRF":"10086","LISTING_ZONE":"E","LONGITUDE":-7.692053599999999,"NAME":"RYANAIR HOLDINGS PLC","POSTAL_CODE":"K67 NY94","SECTOR":"TRANSPRT","SHARES":147341391.86,"SIMILARS_GROUP":"AIRLINES","USD_CAP":2085535037.9402506},{"ADDRESS":"Rothausstrasse 61","CITY":"Muttenz","COMPANY_XRF":"6964","COMPANY_ZONE":"E","HQ_COUNTRY":"Switzerland","HQ_COUNTRY_ISO":"CH","LATITUDE":47.5330247,"LISTING_XRF":"9913","LISTING_ZONE":"E","LONGITUDE":7.664779900000001,"NAME":"CLARIANT","POSTAL_CODE":"4132","SECTOR":"ENERGY","SHARES":199163519.4,"SIMILARS_GROUP":"OIL SRVC","USD_CAP":4356218149.932203},{"ADDRESS":"Abraham-Lincoln-Strasse 21","CITY":"Frankfurt am Main","COMPANY_XRF":"12754","COMPANY_ZONE":"E","HQ_COUNTRY":"Germany","HQ_COUNTRY_ISO":"DE","LATITUDE":50.0557814,"LISTING_XRF":"17034","LISTING_ZONE":"E","LONGITUDE":8.5885803,"NAME":"KION GROUP AG","POSTAL_CODE":"60549","SECTOR":"","SHARES":70854000,"SIMILARS_GROUP":"","USD_CAP":4827889530.24},{"ADDRESS":"Krogshoej-ej 36","CITY":"Bags-aerd","COMPANY_XRF":"9953","COMPANY_ZONE":"E","HQ_COUNTRY":"Denmark","HQ_COUNTRY_ISO":"DK","LATITUDE":56.26392,"LISTING_XRF":"13176","LISTING_ZONE":"E","LONGITUDE":9.501785,"NAME":"Novozymes A\/S","POSTAL_CODE":"2880","SECTOR":"HEALTH","SHARES":218930760,"SIMILARS_GROUP":"DRUGS","USD_CAP":10249992456.75205},{"ADDRESS":"24, Avenue Marnix","CITY":"Brussels","COMPANY_XRF":"86","COMPANY_ZONE":"E","HQ_COUNTRY":"Belgium","HQ_COUNTRY_ISO":"BE","LATITUDE":50.8400928,"LISTING_XRF":"247","LISTING_ZONE":"E","LONGITUDE":4.365321799999999,"NAME":"Groupe Bruxelles Lambert SA","POSTAL_CODE":"1000","SECTOR":"BASICIND","SHARES":80679143.5,"SIMILARS_GROUP":"INDSTRL","USD_CAP":8065206757.94414},{"ADDRESS":"Karl-Wiechert-Allee 50","CITY":"Hanno-er","COMPANY_XRF":"6907","COMPANY_ZONE":"E","HQ_COUNTRY":"Germany","HQ_COUNTRY_ISO":"DE","LATITUDE":52.3921399,"LISTING_XRF":"9845","LISTING_ZONE":"E","LONGITUDE":9.803858199999999,"NAME":"HANNOVER RUECK SE","POSTAL_CODE":"30625","SECTOR":"FINANCE","SHARES":60298567,"SIMILARS_GROUP":"INS MISC","USD_CAP":9028234299.32984},{"ADDRESS":"Am Belvedere 1","CITY":"-ienna","COMPANY_XRF":"5427","COMPANY_ZONE":"E","HQ_COUNTRY":"Austria","HQ_COUNTRY_ISO":"AT","LATITUDE":48.1874125,"LISTING_XRF":"9824","LISTING_ZONE":"E","LONGITUDE":16.3808196,"NAME":"ERSTE GROUP BANK AG","POSTAL_CODE":"1010","SECTOR":"FINANCE","SHARES":300860000,"SIMILARS_GROUP":"BANKS","USD_CAP":12492289364.100002},{"ADDRESS":"In-eralmond House","CITY":"Perth","COMPANY_XRF":"4926","COMPANY_ZONE":"E","HQ_COUNTRY":"United Kingdom","HQ_COUNTRY_ISO":"GB","LATITUDE":56.41696779999999,"LISTING_XRF":"7495","LISTING_ZONE":"E","LONGITUDE":-3.4647782,"NAME":"SSE PLC","POSTAL_CODE":"PH1 3AQ","SECTOR":"UTILS","SHARES":1026537596,"SIMILARS_GROUP":"ELECTRIC","USD_CAP":14929230833.37774},{"ADDRESS":"Prince's Street","CITY":"Tralee","COMPANY_XRF":"3680","COMPANY_ZONE":"E","HQ_COUNTRY":"Ireland","HQ_COUNTRY_ISO":"IE","LATITUDE":52.2652701,"LISTING_XRF":"4322","LISTING_ZONE":"E","LONGITUDE":-9.7117531,"NAME":"KERRY GROUP","POSTAL_CODE":"V92 EH11","SECTOR":"CONSTAPL","SHARES":158665536.9,"SIMILARS_GROUP":"FOOD","USD_CAP":17239306495.41132},{"ADDRESS":"Buddingevej 197","CITY":"S?borg","COMPANY_XRF":"12712","COMPANY_ZONE":"E","HQ_COUNTRY":"Denmark","HQ_COUNTRY_ISO":"DK","LATITUDE":55.75148180000001,"LISTING_XRF":"16991","LISTING_ZONE":"E","LONGITUDE":12.4973162,"NAME":"ISS A\/S","POSTAL_CODE":"2860","SECTOR":"","SHARES":167101403.4,"SIMILARS_GROUP":"","USD_CAP":5269962635.984307},{"ADDRESS":"De Run 6501","CITY":"-eldho-en","COMPANY_XRF":"6804","COMPANY_ZONE":"E","HQ_COUNTRY":"Netherlands","HQ_COUNTRY_ISO":"NL","LATITUDE":51.40451,"LISTING_XRF":"9734","LISTING_ZONE":"E","LONGITUDE":5.417013499999999,"NAME":"ASML HOLDING NV","POSTAL_CODE":"5500 AH","SECTOR":"TECH","SHARES":409891092.59999996,"SIMILARS_GROUP":"SEMIMACH","USD_CAP":84164845676.70296},{"ADDRESS":"Mendez Alvaro, 44","CITY":"Madrid","COMPANY_XRF":"624","COMPANY_ZONE":"E","HQ_COUNTRY":"Spain","HQ_COUNTRY_ISO":"ES","LATITUDE":40.3977079,"LISTING_XRF":"921","LISTING_ZONE":"E","LONGITUDE":-3.6843705,"NAME":"REPSOL SA","POSTAL_CODE":"28045","SECTOR":"ENERGY","SHARES":1395511895,"SIMILARS_GROUP":"INTG OIL","USD_CAP":23560909472.644726},{"ADDRESS":"28 rue Armand Carrel","CITY":"Montreuil","COMPANY_XRF":"6741","COMPANY_ZONE":"E","HQ_COUNTRY":"France","HQ_COUNTRY_ISO":"FR","LATITUDE":48.8521824,"LISTING_XRF":"9669","LISTING_ZONE":"E","LONGITUDE":2.4179789,"NAME":"UBISOFT ENTERTAINMENT SA","POSTAL_CODE":"93100","SECTOR":"TECH","SHARES":83588609.25,"SIMILARS_GROUP":"SOFTWARE","USD_CAP":7512955901.795296},{"ADDRESS":"21, rue La Boetie","CITY":"Aubervilliers","COMPANY_XRF":"10100","COMPANY_ZONE":"E","HQ_COUNTRY":"France","HQ_COUNTRY_ISO":"FR","LATITUDE":46.227638,"LISTING_XRF":"13333","LISTING_ZONE":"E","LONGITUDE":2.213749,"NAME":"VEOLIA ENVIRONNEMENT SA","POSTAL_CODE":"75008","SECTOR":"TRANSPRT","SHARES":537313673.9499999,"SIMILARS_GROUP":"TRANSIT","USD_CAP":12675624494.030853},{"ADDRESS":"Master Samuelsgatan 46","CITY":"Stockholm","COMPANY_XRF":"4399","COMPANY_ZONE":"E","HQ_COUNTRY":"Sweden","HQ_COUNTRY_ISO":"SE","LATITUDE":60.12816100000001,"LISTING_XRF":"5449","LISTING_ZONE":"E","LONGITUDE":18.643501,"NAME":"H & M HENNES & MAURITZ AB","POSTAL_CODE":"106 38","SECTOR":"CONSDIS","SHARES":876403198.8,"SIMILARS_GROUP":"RTL WEAR","USD_CAP":15635269428.171791},{"ADDRESS":"Tweede Weteringplantsoen 21","CITY":"Amsterdam","COMPANY_XRF":"1815","COMPANY_ZONE":"E","HQ_COUNTRY":"Netherlands","HQ_COUNTRY_ISO":"NL","LATITUDE":52.3585496,"LISTING_XRF":"2226","LISTING_ZONE":"E","LONGITUDE":4.8929713,"NAME":"Heineken Holding NV","POSTAL_CODE":"1017 ZD","SECTOR":"CONSTAPL","SHARES":115212067.2,"SIMILARS_GROUP":"BEER","USD_CAP":11523796111.210321},{"ADDRESS":"234 Bath Road","CITY":"London","COMPANY_XRF":"2220","COMPANY_ZONE":"E","HQ_COUNTRY":"United Kingdom","HQ_COUNTRY_ISO":"GB","LATITUDE":51.5179734,"LISTING_XRF":"2734","LISTING_ZONE":"E","LONGITUDE":0,"NAME":"SEGRO PLC","POSTAL_CODE":"SL1 4EE","SECTOR":"REALEST","SHARES":1084502762,"SIMILARS_GROUP":"REALPROP","USD_CAP":9401599080.992647},{"ADDRESS":"Kana-aranta 1","CITY":"Helsinki","COMPANY_XRF":"6366","COMPANY_ZONE":"E","HQ_COUNTRY":"Finland","HQ_COUNTRY_ISO":"FI","LATITUDE":60.1680571,"LISTING_XRF":"9255","LISTING_ZONE":"E","LONGITUDE":24.9584878,"NAME":"STORA ENSO OYJ","POSTAL_CODE":"00101","SECTOR":"BASICIND","SHARES":551063533.5,"SIMILARS_GROUP":"LUMBER","USD_CAP":7024937260.175494},{"ADDRESS":"1-3 Strand","CITY":"London","COMPANY_XRF":"6405","COMPANY_ZONE":"E","HQ_COUNTRY":"United Kingdom","HQ_COUNTRY_ISO":"GB","LATITUDE":0,"LISTING_XRF":"9585","LISTING_ZONE":"E","LONGITUDE":0,"NAME":"BHP GROUP PLC","POSTAL_CODE":"SW1E 5LB","SECTOR":"BASICIND","SHARES":2112071796,"SIMILARS_GROUP":"MINERALS","USD_CAP":51086620934.09107},{"ADDRESS":"237 Park Ave","CITY":"New York","COMPANY_XRF":"2003","COMPANY_ZONE":"E","HQ_COUNTRY":"Switzerland","HQ_COUNTRY_ISO":"CH","LATITUDE":46.818188,"LISTING_XRF":"16692","LISTING_ZONE":"E","LONGITUDE":8.227511999999999,"NAME":"SWISS RE AG","POSTAL_CODE":"10017-3140","SECTOR":"FINANCE","SHARES":304757518.5,"SIMILARS_GROUP":"INVSTMAN","USD_CAP":30688480398.89609},{"ADDRESS":"Hulsterweg 82","CITY":"-enlo","COMPANY_XRF":"10095","COMPANY_ZONE":"E","HQ_COUNTRY":"Netherlands","HQ_COUNTRY_ISO":"NL","LATITUDE":51.3496539,"LISTING_XRF":"13327","LISTING_ZONE":"E","LONGITUDE":6.154764,"NAME":"QIAGEN NV","POSTAL_CODE":"5911 KJ","SECTOR":"HEALTH","SHARES":230829308,"SIMILARS_GROUP":"MDCL INS","USD_CAP":8795473786.1704},{"ADDRESS":"Hilmore House","CITY":"Bradford","COMPANY_XRF":"2333","COMPANY_ZONE":"E","HQ_COUNTRY":"United Kingdom","HQ_COUNTRY_ISO":"GB","LATITUDE":53.80625819999999,"LISTING_XRF":"2859","LISTING_ZONE":"E","LONGITUDE":-1.7137455,"NAME":"WM MORRISON SUPERMARKETS PLC","POSTAL_CODE":"BD3 7DL","SECTOR":"CONSTAPL","SHARES":2249609527.5499997,"SIMILARS_GROUP":"GROCERY","USD_CAP":6444378223.311182},{"ADDRESS":"Skeppsbron 18","CITY":"Stockholm","COMPANY_XRF":"6593","COMPANY_ZONE":"E","HQ_COUNTRY":"Sweden","HQ_COUNTRY_ISO":"SE","LATITUDE":60.12816100000001,"LISTING_XRF":"9507","LISTING_ZONE":"E","LONGITUDE":18.643501,"NAME":"TELE2 AB","POSTAL_CODE":"103 13","SECTOR":"TELECOMM","SHARES":499346178.75,"SIMILARS_GROUP":"CELLULAR","USD_CAP":6616335322.952577},{"ADDRESS":"Edificio Galp Energia","CITY":"Lisboa","COMPANY_XRF":"12332","COMPANY_ZONE":"E","HQ_COUNTRY":"Portugal","HQ_COUNTRY_ISO":"PT","LATITUDE":38.756283,"LISTING_XRF":"16384","LISTING_ZONE":"E","LONGITUDE":-9.176223,"NAME":"Galp Energia SGPS SA","POSTAL_CODE":"1600-209","SECTOR":"ENERGY","SHARES":501261228.65000004,"SIMILARS_GROUP":"OIL RFNG","USD_CAP":8095011443.441473},{"ADDRESS":"Via Abetone Inferiore n. 4","CITY":"Maranello","COMPANY_XRF":"12718","COMPANY_ZONE":"E","HQ_COUNTRY":"Netherlands","HQ_COUNTRY_ISO":"NL","LATITUDE":44.5319386,"LISTING_XRF":"16998","LISTING_ZONE":"E","LONGITUDE":10.8640671,"NAME":"FERRARI NV","POSTAL_CODE":"41053","SECTOR":"","SHARES":122619911.7,"SIMILARS_GROUP":"","USD_CAP":16916418623.693592},{"ADDRESS":"St Helen's","CITY":"London","COMPANY_XRF":"4567","COMPANY_ZONE":"E","HQ_COUNTRY":"United Kingdom","HQ_COUNTRY_ISO":"GB","LATITUDE":51.5142461,"LISTING_XRF":"7292","LISTING_ZONE":"E","LONGITUDE":0,"NAME":"Aviva PLC","POSTAL_CODE":"EC3P 3DQ","SECTOR":"FINANCE","SHARES":3901491323,"SIMILARS_GROUP":"INS MISC","USD_CAP":21787547332.057045},{"ADDRESS":"10 Rue Marcel Dassault","CITY":"-elizy--illacoublay","COMPANY_XRF":"6590","COMPANY_ZONE":"E","HQ_COUNTRY":"France","HQ_COUNTRY_ISO":"FR","LATITUDE":48.7862582,"LISTING_XRF":"9503","LISTING_ZONE":"E","LONGITUDE":2.2110596,"NAME":"DASSAULT SYSTEMES SE","POSTAL_CODE":"78140","SECTOR":"TECH","SHARES":130770564.5,"SIMILARS_GROUP":"SOFTWARE","USD_CAP":19850816727.98107},{"ADDRESS":"Hornsgatan 1","CITY":"Goteborg","COMPANY_XRF":"4342","COMPANY_ZONE":"E","HQ_COUNTRY":"Sweden","HQ_COUNTRY_ISO":"SE","LATITUDE":57.72806910000001,"LISTING_XRF":"5294","LISTING_ZONE":"E","LONGITUDE":12.013599,"NAME":"SKF AB","POSTAL_CODE":"415 03","SECTOR":"INDUSTRY","SHARES":379795738.5,"SIMILARS_GROUP":"MACHINES","USD_CAP":7202886446.314408},{"ADDRESS":"1 Tetbury Road","CITY":"Cirencester","COMPANY_XRF":"4608","COMPANY_ZONE":"E","HQ_COUNTRY":"United Kingdom","HQ_COUNTRY_ISO":"GB","LATITUDE":51.71422579999999,"LISTING_XRF":"9417","LISTING_ZONE":"E","LONGITUDE":-1.9730016,"NAME":"ST JAMES'S PLACE PLC","POSTAL_CODE":"GL7 1FP","SECTOR":"FINANCE","SHARES":529437302,"SIMILARS_GROUP":"CREDIT","USD_CAP":7627830260.06216},{"ADDRESS":"Else-Kroener-Strasse 1","CITY":"Bad Homburg","COMPANY_XRF":"6506","COMPANY_ZONE":"E","HQ_COUNTRY":"Germany","HQ_COUNTRY_ISO":"DE","LATITUDE":51.165691,"LISTING_XRF":"9411","LISTING_ZONE":"E","LONGITUDE":10.451526,"NAME":"FRESENIUS MEDICAL CARE AG & CO KGAA","POSTAL_CODE":"61346","SECTOR":"HEALTH","SHARES":216263353.6,"SIMILARS_GROUP":"MDCL INS","USD_CAP":17004422441.027122},{"ADDRESS":"Brouwerijplein 1","CITY":"Bruxelles","COMPANY_XRF":"10091","COMPANY_ZONE":"E","HQ_COUNTRY":"Belgium","HQ_COUNTRY_ISO":"BE","LATITUDE":50.8869501,"LISTING_XRF":"13321","LISTING_ZONE":"E","LONGITUDE":4.7071768,"NAME":"ANHEUSER-BUSCH INBEV SA\/NV","POSTAL_CODE":"1000","SECTOR":"CONSTAPL","SHARES":761958970.2,"SIMILARS_GROUP":"BEVERAGE","USD_CAP":68177565045.3867},{"ADDRESS":"Else-Kroener-Strasse 1","CITY":"Bad Homburg","COMPANY_XRF":"4534","COMPANY_ZONE":"E","HQ_COUNTRY":"Germany","HQ_COUNTRY_ISO":"DE","LATITUDE":51.165691,"LISTING_XRF":"9354","LISTING_ZONE":"E","LONGITUDE":10.451526,"NAME":"Fresenius SE & Co KGaA","POSTAL_CODE":"61346","SECTOR":"HEALTH","SHARES":417145915.5,"SIMILARS_GROUP":"DRUGS","USD_CAP":22862863881.92907},{"ADDRESS":"Otto-Brenner-Strasse 20","CITY":"Goettingen","COMPANY_XRF":"6081","COMPANY_ZONE":"E","HQ_COUNTRY":"Germany","HQ_COUNTRY_ISO":"DE","LATITUDE":51.5527648,"LISTING_XRF":"9181","LISTING_ZONE":"E","LONGITUDE":9.8897046,"NAME":"SARTORIUS AG","POSTAL_CODE":"37075","SECTOR":"INDUSTRY","SHARES":35568000,"SIMILARS_GROUP":"MACHINES","USD_CAP":6094755707.04},{"ADDRESS":"Bygdoy alle 2","CITY":"Oslo","COMPANY_XRF":"11487","COMPANY_ZONE":"E","HQ_COUNTRY":"Norway","HQ_COUNTRY_ISO":"NO","LATITUDE":59.9222598,"LISTING_XRF":"14984","LISTING_ZONE":"E","LONGITUDE":10.6877689,"NAME":"YARA INTERNATIONAL ASA","POSTAL_CODE":"0202","SECTOR":"BASICIND","SHARES":177591589.5,"SIMILARS_GROUP":"AG CHEM","USD_CAP":7726560246.870866},{"ADDRESS":"2 Place De La Coupole","CITY":"Courbe-oie","COMPANY_XRF":"719","COMPANY_ZONE":"E","HQ_COUNTRY":"France","HQ_COUNTRY_ISO":"FR","LATITUDE":48.89269609999999,"LISTING_XRF":"1040","LISTING_ZONE":"E","LONGITUDE":2.243313,"NAME":"TOTAL SA","POSTAL_CODE":"92078","SECTOR":"ENERGY","SHARES":2414786521.5,"SIMILARS_GROUP":"INTG OIL","USD_CAP":136124438108.64603},{"ADDRESS":"Brunkebergstorg 8","CITY":"Stockholm","COMPANY_XRF":"6029","COMPANY_ZONE":"E","HQ_COUNTRY":"Sweden","HQ_COUNTRY_ISO":"SE","LATITUDE":60.12816100000001,"LISTING_XRF":"8869","LISTING_ZONE":"E","LONGITUDE":18.643501,"NAME":"Swedbank AB","POSTAL_CODE":"105 34","SECTOR":"FINANCE","SHARES":905604577.6,"SIMILARS_GROUP":"BANKS","USD_CAP":14966452502.012917},{"ADDRESS":"121 Winterstoke Road","CITY":"Bristol","COMPANY_XRF":"6416","COMPANY_ZONE":"E","HQ_COUNTRY":"United Kingdom","HQ_COUNTRY_ISO":"GB","LATITUDE":51.4362131,"LISTING_XRF":"9308","LISTING_ZONE":"E","LONGITUDE":-2.6214302,"NAME":"IMPERIAL BRANDS PLC","POSTAL_CODE":"BS3 2LL","SECTOR":"CONSTAPL","SHARES":953736947,"SIMILARS_GROUP":"TOBACCO","USD_CAP":30739627250.34606},{"ADDRESS":"Lichtstrasse 35","CITY":"Basel","COMPANY_XRF":"1994","COMPANY_ZONE":"E","HQ_COUNTRY":"Switzerland","HQ_COUNTRY_ISO":"CH","LATITUDE":47.5731486,"LISTING_XRF":"9300","LISTING_ZONE":"E","LONGITUDE":7.5792042,"NAME":"NOVARTIS AG","POSTAL_CODE":"4002","SECTOR":"HEALTH","SHARES":2168031097,"SIMILARS_GROUP":"DRUGS","USD_CAP":163509151316.92703},{"ADDRESS":"Liersesteenweg 4","CITY":"Brussels","COMPANY_XRF":"12022","COMPANY_ZONE":"E","HQ_COUNTRY":"Belgium","HQ_COUNTRY_ISO":"BE","LATITUDE":50.8524657,"LISTING_XRF":"15838","LISTING_ZONE":"E","LONGITUDE":4.4419292,"NAME":"Telenet Group Holding NV","POSTAL_CODE":"1200","SECTOR":"CONSDIS","SHARES":52929652.5,"SIMILARS_GROUP":"CABLE TV","USD_CAP":2816431058.7144904},{"ADDRESS":"-iale Sarca 222","CITY":"Milan","COMPANY_XRF":"12247","COMPANY_ZONE":"E","HQ_COUNTRY":"Italy","HQ_COUNTRY_ISO":"IT","LATITUDE":45.5196932,"LISTING_XRF":"16264","LISTING_ZONE":"E","LONGITUDE":9.2113018,"NAME":"Prysmian SpA","POSTAL_CODE":"20126","SECTOR":"TECH","SHARES":241329821.4,"SIMILARS_GROUP":"TLCOM EQ","USD_CAP":4416584542.665864},{"ADDRESS":"4-8 Cours Michelet","CITY":"Colombes","COMPANY_XRF":"11851","COMPANY_ZONE":"E","HQ_COUNTRY":"France","HQ_COUNTRY_ISO":"FR","LATITUDE":46.227638,"LISTING_XRF":"15602","LISTING_ZONE":"E","LONGITUDE":2.213749,"NAME":"Arkema SA","POSTAL_CODE":"92091","SECTOR":"BASICIND","SHARES":68832819.9,"SIMILARS_GROUP":"CHEMICAL","USD_CAP":7320675325.757158},{"ADDRESS":"Corso Matteotti 26","CITY":"Amsterdam","COMPANY_XRF":"4638","COMPANY_ZONE":"E","HQ_COUNTRY":"Italy","HQ_COUNTRY_ISO":"IT","LATITUDE":41.87194,"LISTING_XRF":"16767","LISTING_ZONE":"E","LONGITUDE":12.56738,"NAME":"EXOR SPA","POSTAL_CODE":"10121","SECTOR":"CONSDIS","SHARES":108450000,"SIMILARS_GROUP":"AUTOS","USD_CAP":0},{"ADDRESS":"Adi-Dassler-Str. 1","CITY":"Herzogenaurach","COMPANY_XRF":"6360","COMPANY_ZONE":"E","HQ_COUNTRY":"Germany","HQ_COUNTRY_ISO":"DE","LATITUDE":49.582454,"LISTING_XRF":"9250","LISTING_ZONE":"E","LONGITUDE":10.9092304,"NAME":"ADIDAS AG","POSTAL_CODE":"91074","SECTOR":"CONSDIS","SHARES":180374567.4,"SIMILARS_GROUP":"APPAREL","USD_CAP":46928142289.61454},{"ADDRESS":"-ia Arno 64","CITY":"Roma","COMPANY_XRF":"11511","COMPANY_ZONE":"E","HQ_COUNTRY":"Italy","HQ_COUNTRY_ISO":"IT","LATITUDE":41.9311714,"LISTING_XRF":"15058","LISTING_ZONE":"E","LONGITUDE":12.5616953,"NAME":"Terna SpA","POSTAL_CODE":"00156","SECTOR":"UTILS","SHARES":1406994400,"SIMILARS_GROUP":"ELECTRIC","USD_CAP":8426518727.083521},{"ADDRESS":"110 Park Street","CITY":"London","COMPANY_XRF":"2314","COMPANY_ZONE":"E","HQ_COUNTRY":"United Kingdom","HQ_COUNTRY_ISO":"GB","LATITUDE":51.5142002,"LISTING_XRF":"2839","LISTING_ZONE":"E","LONGITUDE":0,"NAME":"BUNZL PLC","POSTAL_CODE":"W1H 7JT","SECTOR":"BASICIND","SHARES":336410787,"SIMILARS_GROUP":"PAPRPROD","USD_CAP":10237725778.05919},{"ADDRESS":"Frankfurter Strasse 250","CITY":"Darmstadt","COMPANY_XRF":"6158","COMPANY_ZONE":"E","HQ_COUNTRY":"Germany","HQ_COUNTRY_ISO":"DE","LATITUDE":49.8954246,"LISTING_XRF":"9014","LISTING_ZONE":"E","LONGITUDE":8.653589199999999,"NAME":"MERCK KGAA","POSTAL_CODE":"64293","SECTOR":"BASICIND","SHARES":129242252,"SIMILARS_GROUP":"CHEMICAL","USD_CAP":13583263236.541992},{"ADDRESS":"P.O. Box 1185","CITY":"Biel","COMPANY_XRF":"2009","COMPANY_ZONE":"E","HQ_COUNTRY":"Switzerland","HQ_COUNTRY_ISO":"CH","LATITUDE":46.818188,"LISTING_XRF":"1","LISTING_ZONE":"E","LONGITUDE":8.227511999999999,"NAME":"Swatch Group AG\/The","POSTAL_CODE":"2501","SECTOR":"CONSDIS","SHARES":30840000,"SIMILARS_GROUP":"WATCHES","USD_CAP":9626077223.95492},{"ADDRESS":"27 rue Camille Desmoulins","CITY":"Issy-les-Moulineaux","COMPANY_XRF":"896","COMPANY_ZONE":"E","HQ_COUNTRY":"France","HQ_COUNTRY_ISO":"FR","LATITUDE":48.8295283,"LISTING_XRF":"1235","LISTING_ZONE":"E","LONGITUDE":2.2647675,"NAME":"ICADE","POSTAL_CODE":"75019","SECTOR":"REALEST","SHARES":33539142.6,"SIMILARS_GROUP":"REIT","USD_CAP":2832204344.3756375},{"ADDRESS":"Orionintie 1 ","CITY":"Espoo","COMPANY_XRF":"5484","COMPANY_ZONE":"E","HQ_COUNTRY":"Finland","HQ_COUNTRY_ISO":"FI","LATITUDE":60.179834,"LISTING_XRF":"8255","LISTING_ZONE":"E","LONGITUDE":24.7767234,"NAME":"ORION OYJ","POSTAL_CODE":"02101","SECTOR":"HEALTH","SHARES":104137482,"SIMILARS_GROUP":"DRUGS","USD_CAP":3601574195.7485647},{"ADDRESS":"20, Rue Royale","CITY":"Brussels","COMPANY_XRF":"74","COMPANY_ZONE":"E","HQ_COUNTRY":"Belgium","HQ_COUNTRY_ISO":"BE","LATITUDE":50.503887,"LISTING_XRF":"215","LISTING_ZONE":"E","LONGITUDE":4.469936,"NAME":"AGEAS","POSTAL_CODE":"1000","SECTOR":"FINANCE","SHARES":182719979.1,"SIMILARS_GROUP":"INS LIFE","USD_CAP":9538385989.293896},{"ADDRESS":"Maanplein 55","CITY":"Rotterdam","COMPANY_XRF":"5251","COMPANY_ZONE":"E","HQ_COUNTRY":"Netherlands","HQ_COUNTRY_ISO":"NL","LATITUDE":52.0678256,"LISTING_XRF":"7960","LISTING_ZONE":"E","LONGITUDE":4.350009399999999,"NAME":"KONINKLIJKE KPN NV","POSTAL_CODE":"2500 GA","SECTOR":"TELECOMM","SHARES":3362275523.2000003,"SIMILARS_GROUP":"PHONE","USD_CAP":10445179239.772867},{"ADDRESS":"-iale Regina Margherita 137","CITY":"ROMA","COMPANY_XRF":"8973","COMPANY_ZONE":"E","HQ_COUNTRY":"Italy","HQ_COUNTRY_ISO":"IT","LATITUDE":41.9161012,"LISTING_XRF":"12072","LISTING_ZONE":"E","LONGITUDE":12.5029816,"NAME":"ENEL SPA","POSTAL_CODE":"00198","SECTOR":"UTILS","SHARES":8133343956.8,"SIMILARS_GROUP":"ELECTRIC","USD_CAP":50360588112.431335},{"ADDRESS":"Am Campeon 1 - 12","CITY":"Munchen","COMPANY_XRF":"9248","COMPANY_ZONE":"E","HQ_COUNTRY":"Germany","HQ_COUNTRY_ISO":"DE","LATITUDE":48.0800492,"LISTING_XRF":"12375","LISTING_ZONE":"E","LONGITUDE":11.6148193,"NAME":"INFINEON TECHNOLOGIES A G","POSTAL_CODE":"81541","SECTOR":"TECH","SHARES":1137024717,"SIMILARS_GROUP":"SEMICOND","USD_CAP":27364810817.342304},{"ADDRESS":"Kraftvaerksvej 53 - Skaerbaek","CITY":"Fredericia","COMPANY_XRF":"13226","COMPANY_ZONE":"E","HQ_COUNTRY":"Denmark","HQ_COUNTRY_ISO":"DK","LATITUDE":55.5157405,"LISTING_XRF":"17529","LISTING_ZONE":"E","LONGITUDE":9.6238295,"NAME":"ORSTED A\/S","POSTAL_CODE":"7000","SECTOR":"","SHARES":189171486,"SIMILARS_GROUP":"","USD_CAP":14098610565.877216},{"ADDRESS":"Boule-ard du Roi Albert II","CITY":"Brussels","COMPANY_XRF":"11490","COMPANY_ZONE":"E","HQ_COUNTRY":"Belgium","HQ_COUNTRY_ISO":"BE","LATITUDE":50.86020190000001,"LISTING_XRF":"14993","LISTING_ZONE":"E","LONGITUDE":4.3578725,"NAME":"PROXIMUS SADP","POSTAL_CODE":"1030","SECTOR":"TELECOMM","SHARES":152111310.75,"SIMILARS_GROUP":"PHONE","USD_CAP":4512371233.4956875},{"ADDRESS":"1 A-enue du General de Gaulle","CITY":"Paris","COMPANY_XRF":"845","COMPANY_ZONE":"E","HQ_COUNTRY":"France","HQ_COUNTRY_ISO":"FR","LATITUDE":48.8716735,"LISTING_XRF":"15891","LISTING_ZONE":"E","LONGITUDE":2.2941974,"NAME":"SCOR SE","POSTAL_CODE":"75116","SECTOR":"FINANCE","SHARES":163036557.75,"SIMILARS_GROUP":"INS LIFE","USD_CAP":7153295001.087138},{"ADDRESS":"2 Princes Way","CITY":"High Wycombe","COMPANY_XRF":"2211","COMPANY_ZONE":"E","HQ_COUNTRY":"United Kingdom","HQ_COUNTRY_ISO":"GB","LATITUDE":52.3786052,"LISTING_XRF":"2724","LISTING_ZONE":"E","LONGITUDE":-1.7408653,"NAME":"TAYLOR WIMPEY PLC","POSTAL_CODE":"B91 3ES","SECTOR":"REALEST","SHARES":3276671471,"SIMILARS_GROUP":"HOMEBLDG","USD_CAP":8057439180.51516},{"ADDRESS":"24 Rue du Faubourg","CITY":"Paris","COMPANY_XRF":"5144","COMPANY_ZONE":"E","HQ_COUNTRY":"France","HQ_COUNTRY_ISO":"FR","LATITUDE":48.8689335,"LISTING_XRF":"7853","LISTING_ZONE":"E","LONGITUDE":2.3216536,"NAME":"HERMES INTL","POSTAL_CODE":"75008","SECTOR":"CONSDIS","SHARES":31670823.599999998,"SIMILARS_GROUP":"APPAREL","USD_CAP":21651030125.1972},{"ADDRESS":"3 rue d'Antin","CITY":"Paris","COMPANY_XRF":"789","COMPANY_ZONE":"E","HQ_COUNTRY":"France","HQ_COUNTRY_ISO":"FR","LATITUDE":48.8680138,"LISTING_XRF":"7791","LISTING_ZONE":"E","LONGITUDE":2.3320588,"NAME":"BNP PARIBAS SA","POSTAL_CODE":"75078","SECTOR":"FINANCE","SHARES":1124818704.9,"SIMILARS_GROUP":"BANKS","USD_CAP":61749723041.65135},{"ADDRESS":"Het O-erloon 1","CITY":"Heerlen","COMPANY_XRF":"4631","COMPANY_ZONE":"E","HQ_COUNTRY":"Netherlands","HQ_COUNTRY_ISO":"NL","LATITUDE":50.8873834,"LISTING_XRF":"7330","LISTING_ZONE":"E","LONGITUDE":5.967873399999999,"NAME":"Koninklijke DSM NV","POSTAL_CODE":"6401 JH","SECTOR":"CONSTAPL","SHARES":181425000,"SIMILARS_GROUP":"FOOD","USD_CAP":20871105693.375},{"ADDRESS":"Paseo Del Conde De Los Gaitanes","CITY":"Alcobendas","COMPANY_XRF":"9290","COMPANY_ZONE":"E","HQ_COUNTRY":"Spain","HQ_COUNTRY_ISO":"ES","LATITUDE":40.52545509999999,"LISTING_XRF":"12422","LISTING_ZONE":"E","LONGITUDE":-3.6030152,"NAME":"Red Electrica Corp SA","POSTAL_CODE":"28109","SECTOR":"UTILS","SHARES":432864000,"SIMILARS_GROUP":"ELECTRIC","USD_CAP":8884802192.112001},{"ADDRESS":"14, Rue Royale","CITY":"Clichy","COMPANY_XRF":"711","COMPANY_ZONE":"E","HQ_COUNTRY":"France","HQ_COUNTRY_ISO":"FR","LATITUDE":48.9003244,"LISTING_XRF":"1025","LISTING_ZONE":"E","LONGITUDE":2.3082247,"NAME":"L'OREAL SA","POSTAL_CODE":"75008","SECTOR":"CONSDIS","SHARES":252153697.5,"SIMILARS_GROUP":"COSMETIC","USD_CAP":68725559385.30241},{"ADDRESS":"Als-ej 21","CITY":"Aarhus","COMPANY_XRF":"7253","COMPANY_ZONE":"E","HQ_COUNTRY":"Denmark","HQ_COUNTRY_ISO":"DK","LATITUDE":56.26392,"LISTING_XRF":"10250","LISTING_ZONE":"E","LONGITUDE":9.501785,"NAME":"VESTAS WIND SYSTEMS A\/S","POSTAL_CODE":"6950","SECTOR":"INDUSTRY","SHARES":195411202.85,"SIMILARS_GROUP":"ENGINES","USD_CAP":17699302432.294746},{"ADDRESS":"2 Ha-enlaan","CITY":"Brussels","COMPANY_XRF":"79","COMPANY_ZONE":"E","HQ_COUNTRY":"Belgium","HQ_COUNTRY_ISO":"BE","LATITUDE":50.8600006,"LISTING_XRF":"228","LISTING_ZONE":"E","LONGITUDE":4.345892699999999,"NAME":"KBC GROUP NV","POSTAL_CODE":"1080","SECTOR":"FINANCE","SHARES":249538540.2,"SIMILARS_GROUP":"BANKS","USD_CAP":18737075414.14338},{"ADDRESS":"A-enida Po XII n 102","CITY":"Madrid","COMPANY_XRF":"4892","COMPANY_ZONE":"E","HQ_COUNTRY":"Spain","HQ_COUNTRY_ISO":"ES","LATITUDE":40.47332900000001,"LISTING_XRF":"6870","LISTING_ZONE":"E","LONGITUDE":-3.676927,"NAME":"ACS ACTIVIDADES DE CONSTRUCCION Y SERVICIOS","POSTAL_CODE":"28036","SECTOR":"INDUSTRY","SHARES":255043934.4,"SIMILARS_GROUP":"CONSTRUC","USD_CAP":11653196848.990402},{"ADDRESS":"5 Gainsford St","CITY":"London","COMPANY_XRF":"9949","COMPANY_ZONE":"E","HQ_COUNTRY":"United Kingdom","HQ_COUNTRY_ISO":"GB","LATITUDE":0,"LISTING_XRF":"13164","LISTING_ZONE":"E","LONGITUDE":0,"NAME":"CARNIVAL PLC","POSTAL_CODE":"SE1 2NE","SECTOR":"TRANSPRT","SHARES":169140546,"SIMILARS_GROUP":"SEA","USD_CAP":8832733923.28441},{"ADDRESS":"Immeuble Columbus","CITY":"Malakoff","COMPANY_XRF":"12480","COMPANY_ZONE":"E","HQ_COUNTRY":"France","HQ_COUNTRY_ISO":"FR","LATITUDE":48.8198314,"LISTING_XRF":"16615","LISTING_ZONE":"E","LONGITUDE":2.3095176,"NAME":"EDENRED","POSTAL_CODE":"92240","SECTOR":"BUSINSRV","SHARES":239266350,"SIMILARS_GROUP":"SERVICES","USD_CAP":11310389778.4101},{"ADDRESS":"Viale Piero e Alberto Pirelli n. 25","CITY":"Milan","COMPANY_XRF":"13188","COMPANY_ZONE":"E","HQ_COUNTRY":"Italy","HQ_COUNTRY_ISO":"IT","LATITUDE":41.87194,"LISTING_XRF":"17484","LISTING_ZONE":"E","LONGITUDE":12.56738,"NAME":"Pirelli & C SPA","POSTAL_CODE":"20126","SECTOR":"","SHARES":400000000,"SIMILARS_GROUP":"","USD_CAP":2886923200},{"ADDRESS":"Friesenheimer Strasse 17","CITY":"Mannheim","COMPANY_XRF":"450","COMPANY_ZONE":"E","HQ_COUNTRY":"Germany","HQ_COUNTRY_ISO":"DE","LATITUDE":49.51503,"LISTING_XRF":"5790","LISTING_ZONE":"E","LONGITUDE":8.45818,"NAME":"FUCHS PETROLUB SE","POSTAL_CODE":"68169","SECTOR":"ENERGY","SHARES":69500000,"SIMILARS_GROUP":"OIL RFNG","USD_CAP":3050119534.0000005},{"ADDRESS":"Grenzacherstrasse 124","CITY":"Basel","COMPANY_XRF":"1999","COMPANY_ZONE":"E","HQ_COUNTRY":"Switzerland","HQ_COUNTRY_ISO":"CH","LATITUDE":47.55862399999999,"LISTING_XRF":"5689","LISTING_ZONE":"E","LONGITUDE":7.606018,"NAME":"ROCHE HOLDING AG","POSTAL_CODE":"4058","SECTOR":"HEALTH","SHARES":702562700,"SIMILARS_GROUP":"MDCL INS","USD_CAP":181183030194.58002},{"ADDRESS":"-ia Antonio Nibby 20","CITY":"ROMA","COMPANY_XRF":"4635","COMPANY_ZONE":"E","HQ_COUNTRY":"Italy","HQ_COUNTRY_ISO":"IT","LATITUDE":41.9171054,"LISTING_XRF":"10156","LISTING_ZONE":"E","LONGITUDE":12.5164685,"NAME":"ATLANTIA SPA","POSTAL_CODE":"00159","SECTOR":"INDUSTRY","SHARES":495470394,"SIMILARS_GROUP":"CONSTRUC","USD_CAP":12721319792.43338},{"ADDRESS":"E.ON-Platz 1","CITY":"Dusseldorf","COMPANY_XRF":"12959","COMPANY_ZONE":"E","HQ_COUNTRY":"Germany","HQ_COUNTRY_ISO":"DE","LATITUDE":51.23545,"LISTING_XRF":"17246","LISTING_ZONE":"E","LONGITUDE":6.773569999999999,"NAME":"Uniper AG","POSTAL_CODE":"40479","SECTOR":"","SHARES":201278000.00000003,"SIMILARS_GROUP":"","USD_CAP":6135565325.120001},{"ADDRESS":"Bahnhofstrasse 45","CITY":"Zurich","COMPANY_XRF":"1993","COMPANY_ZONE":"E","HQ_COUNTRY":"Switzerland","HQ_COUNTRY_ISO":"CH","LATITUDE":47.3717046,"LISTING_XRF":"10074","LISTING_ZONE":"E","LONGITUDE":8.5379387,"NAME":"UBS GROUP AG","POSTAL_CODE":"8098","SECTOR":"FINANCE","SHARES":3855226995,"SIMILARS_GROUP":"BANKS","USD_CAP":50730119150.74911},{"ADDRESS":"1 West Regent Street","CITY":"Glasgow","COMPANY_XRF":"4507","COMPANY_ZONE":"E","HQ_COUNTRY":"United Kingdom","HQ_COUNTRY_ISO":"GB","LATITUDE":55.86275999999999,"LISTING_XRF":"5608","LISTING_ZONE":"E","LONGITUDE":-4.255434,"NAME":"WEIR GROUP PLC\/THE","POSTAL_CODE":"G2 1RW","SECTOR":"INDUSTRY","SHARES":246460449.39999998,"SIMILARS_GROUP":"MACHINES","USD_CAP":5660331357.335097},{"ADDRESS":"11-12 St James's Square, 4th Floor","CITY":"London","COMPANY_XRF":"2234","COMPANY_ZONE":"E","HQ_COUNTRY":"United Kingdom","HQ_COUNTRY_ISO":"GB","LATITUDE":51.507561,"LISTING_XRF":"2748","LISTING_ZONE":"E","LONGITUDE":0,"NAME":"Smiths Group PLC","POSTAL_CODE":"NW11 8DS","SECTOR":"INDUSTRY","SHARES":395938021,"SIMILARS_GROUP":"MACHINES","USD_CAP":7915018859.413631},{"ADDRESS":"Elgendorfer Strasse 57","CITY":"Montabaur","COMPANY_XRF":"7422","COMPANY_ZONE":"E","HQ_COUNTRY":"Germany","HQ_COUNTRY_ISO":"DE","LATITUDE":50.4356046,"LISTING_XRF":"10426","LISTING_ZONE":"E","LONGITUDE":7.812257499999999,"NAME":"UNITED INTERNET AG","POSTAL_CODE":"56410","SECTOR":"BUSINSRV","SHARES":123000000,"SIMILARS_GROUP":"ADS","USD_CAP":5023111884.000001},{"ADDRESS":"Seestrasse 204","CITY":"Kilchberg","COMPANY_XRF":"3531","COMPANY_ZONE":"E","HQ_COUNTRY":"Switzerland","HQ_COUNTRY_ISO":"CH","LATITUDE":46.818188,"LISTING_XRF":"6727","LISTING_ZONE":"E","LONGITUDE":8.227511999999999,"NAME":"CHOCOLADEFABRIKEN LINDT & SPRUENGLI AG","POSTAL_CODE":"8802","SECTOR":"CONSTAPL","SHARES":1071646,"SIMILARS_GROUP":"FOOD","USD_CAP":7129473640.500589},{"ADDRESS":"Sickla Industri-ag 3","CITY":"Nacka","COMPANY_XRF":"4354","COMPANY_ZONE":"E","HQ_COUNTRY":"Sweden","HQ_COUNTRY_ISO":"SE","LATITUDE":60.12816100000001,"LISTING_XRF":"5332","LISTING_ZONE":"E","LONGITUDE":18.643501,"NAME":"ATLAS COPCO AB","POSTAL_CODE":"105 23","SECTOR":"INDUSTRY","SHARES":390219008,"SIMILARS_GROUP":"MACHINES","USD_CAP":10923850906.48448},{"ADDRESS":"22 A-enue Montaigne","CITY":"Paris","COMPANY_XRF":"702","COMPANY_ZONE":"E","HQ_COUNTRY":"France","HQ_COUNTRY_ISO":"FR","LATITUDE":48.86622209999999,"LISTING_XRF":"1009","LISTING_ZONE":"E","LONGITUDE":2.3054415,"NAME":"LVMH MOET HENNESSY LOUIS VUITTON SE","POSTAL_CODE":"75008","SECTOR":"CONSDIS","SHARES":277765647.5,"SIMILARS_GROUP":"LEATHER","USD_CAP":109668157914.28998},{"ADDRESS":"Arsenalsgatan 8C","CITY":"Stockholm","COMPANY_XRF":"4347","COMPANY_ZONE":"E","HQ_COUNTRY":"Sweden","HQ_COUNTRY_ISO":"SE","LATITUDE":59.3310895,"LISTING_XRF":"5312","LISTING_ZONE":"E","LONGITUDE":18.0744396,"NAME":"INVESTOR AB","POSTAL_CODE":"103 32","SECTOR":"FINANCE","SHARES":455484000,"SIMILARS_GROUP":"PUR INV","USD_CAP":21326020053.57332},{"ADDRESS":"A.P. Moller","CITY":"Copenhagen","COMPANY_XRF":"4041","COMPANY_ZONE":"E","HQ_COUNTRY":"Denmark","HQ_COUNTRY_ISO":"DK","LATITUDE":55.687679,"LISTING_XRF":"4846","LISTING_ZONE":"E","LONGITUDE":12.597389,"NAME":"AP MOLLER - MAERSK A\/S","POSTAL_CODE":"1098","SECTOR":"ENERGY","SHARES":6539314.600000001,"SIMILARS_GROUP":"OIL&GAS","USD_CAP":8828491453.354765},{"ADDRESS":"1, avenue Ney","CITY":"Metz","COMPANY_XRF":"1438","COMPANY_ZONE":"E","HQ_COUNTRY":"France","HQ_COUNTRY_ISO":"FR","LATITUDE":46.227638,"LISTING_XRF":"1785","LISTING_ZONE":"E","LONGITUDE":2.213749,"NAME":"COVIVIO","POSTAL_CODE":"57000","SECTOR":"REALEST","SHARES":45571724,"SIMILARS_GROUP":"REIT","USD_CAP":4836540283.91996},{"ADDRESS":"-ol-o Bergegards-ag 1","CITY":"Goteborg","COMPANY_XRF":"4336","COMPANY_ZONE":"E","HQ_COUNTRY":"Sweden","HQ_COUNTRY_ISO":"SE","LATITUDE":60.12816100000001,"LISTING_XRF":"5273","LISTING_ZONE":"E","LONGITUDE":18.643501,"NAME":"VOLVO AB","POSTAL_CODE":"405 08","SECTOR":"INDUSTRY","SHARES":1567333171.4499998,"SIMILARS_GROUP":"ENGINES","USD_CAP":25091211845.496964},{"ADDRESS":"2 Gresham Street","CITY":"London","COMPANY_XRF":"11339","COMPANY_ZONE":"E","HQ_COUNTRY":"United Kingdom","HQ_COUNTRY_ISO":"GB","LATITUDE":51.5147245,"LISTING_XRF":"14804","LISTING_ZONE":"E","LONGITUDE":0,"NAME":"Investec PLC","POSTAL_CODE":"EC2V 7QP","SECTOR":"FINANCE","SHARES":682121211,"SIMILARS_GROUP":"BANKS","USD_CAP":4538265388.309547},{"ADDRESS":"Dorfstrasse 50","CITY":"Schindellegi","COMPANY_XRF":"6970","COMPANY_ZONE":"E","HQ_COUNTRY":"Switzerland","HQ_COUNTRY_ISO":"CH","LATITUDE":47.17842390000001,"LISTING_XRF":"9920","LISTING_ZONE":"E","LONGITUDE":8.7073649,"NAME":"KUEHNE + NAGEL INTERNATIONAL AG","POSTAL_CODE":"8834","SECTOR":"TRANSPRT","SHARES":54000000,"SIMILARS_GROUP":"RAILROAD","USD_CAP":7684674118.726248},{"ADDRESS":"Box 1195","CITY":"Solna","COMPANY_XRF":"4335","COMPANY_ZONE":"E","HQ_COUNTRY":"Sweden","HQ_COUNTRY_ISO":"SE","LATITUDE":60.12816100000001,"LISTING_XRF":"5269","LISTING_ZONE":"E","LONGITUDE":18.643501,"NAME":"SKANSKA AB","POSTAL_CODE":"111 91","SECTOR":"REALEST","SHARES":340144320.65,"SIMILARS_GROUP":"HOMEBLDG","USD_CAP":6371026297.812618},{"ADDRESS":"Torshamnsgatan 21","CITY":"Stockholm","COMPANY_XRF":"4332","COMPANY_ZONE":"E","HQ_COUNTRY":"Sweden","HQ_COUNTRY_ISO":"SE","LATITUDE":60.12816100000001,"LISTING_XRF":"5254","LISTING_ZONE":"E","LONGITUDE":18.643501,"NAME":"Telefonaktiebolaget LM Ericsson","POSTAL_CODE":"126 25","SECTOR":"TECH","SHARES":3072395752,"SIMILARS_GROUP":"TLCOM EQ","USD_CAP":30855730476.677216},{"ADDRESS":"Kartanontie 1","CITY":"Espoo","COMPANY_XRF":"4210","COMPANY_ZONE":"E","HQ_COUNTRY":"Finland","HQ_COUNTRY_ISO":"FI","LATITUDE":60.1943406,"LISTING_XRF":"5071","LISTING_ZONE":"E","LONGITUDE":24.881275,"NAME":"KONE OYJ","POSTAL_CODE":"00330","SECTOR":"INDUSTRY","SHARES":338904204,"SIMILARS_GROUP":"MACHINES","USD_CAP":18257463884.193996},{"ADDRESS":"Keilaranta 21","CITY":"Espoo","COMPANY_XRF":"11531","COMPANY_ZONE":"E","HQ_COUNTRY":"Finland","HQ_COUNTRY_ISO":"FI","LATITUDE":60.1793677,"LISTING_XRF":"15110","LISTING_ZONE":"E","LONGITUDE":24.8375056,"NAME":"NESTE OYJ","POSTAL_CODE":"00095","SECTOR":"ENERGY","SHARES":384605529,"SIMILARS_GROUP":"OIL RFNG","USD_CAP":13883393080.643164},{"ADDRESS":"Hiililaiturinkuja 2","CITY":"Helsinki","COMPANY_XRF":"4206","COMPANY_ZONE":"E","HQ_COUNTRY":"Finland","HQ_COUNTRY_ISO":"FI","LATITUDE":60.16634999999999,"LISTING_XRF":"5065","LISTING_ZONE":"E","LONGITUDE":24.9008929,"NAME":"WARTSILA OYJ ABP","POSTAL_CODE":"00180","SECTOR":"INDUSTRY","SHARES":443792542.5,"SIMILARS_GROUP":"MACHINES","USD_CAP":7716514061.421822},{"ADDRESS":"Grafenauweg 10","CITY":"Droitwich Spa","COMPANY_XRF":"2245","COMPANY_ZONE":"E","HQ_COUNTRY":"United Kingdom","HQ_COUNTRY_ISO":"GB","LATITUDE":0,"LISTING_XRF":"2759","LISTING_ZONE":"E","LONGITUDE":0,"NAME":"FERGUSON PLC","POSTAL_CODE":"6301","SECTOR":"BUSINSRV","SHARES":231852131,"SIMILARS_GROUP":"WHLSE TR","USD_CAP":16199481491.002483},{"ADDRESS":"Dietmar-Hopp-Allee 16","CITY":"Walldorf","COMPANY_XRF":"4919","COMPANY_ZONE":"E","HQ_COUNTRY":"Germany","HQ_COUNTRY_ISO":"DE","LATITUDE":49.2937288,"LISTING_XRF":"7755","LISTING_ZONE":"E","LONGITUDE":8.6416591,"NAME":"SAP SE","POSTAL_CODE":"69190","SECTOR":"TECH","SHARES":982803385.6,"SIMILARS_GROUP":"SOFTWARE","USD_CAP":110671460746.22813},{"ADDRESS":"P.O. Box 28","CITY":"Amsterdam","COMPANY_XRF":"1800","COMPANY_ZONE":"E","HQ_COUNTRY":"Netherlands","HQ_COUNTRY_ISO":"NL","LATITUDE":52.132633,"LISTING_XRF":"2203","LISTING_ZONE":"E","LONGITUDE":5.291265999999999,"NAME":"HEINEKEN NV","POSTAL_CODE":"1000 AA","SECTOR":"CONSTAPL","SHARES":259201175.85,"SIMILARS_GROUP":"BEER","USD_CAP":27358042847.25845},{"ADDRESS":"Diemermere 25","CITY":"Amsterdam-Zuidoost","COMPANY_XRF":"4742","COMPANY_ZONE":"E","HQ_COUNTRY":"Netherlands","HQ_COUNTRY_ISO":"NL","LATITUDE":52.3234149,"LISTING_XRF":"4787","LISTING_ZONE":"E","LONGITUDE":4.9531925,"NAME":"RANDSTAD NV","POSTAL_CODE":"1100 AP","SECTOR":"BUSINSRV","SHARES":119146183.65,"SIMILARS_GROUP":"SERVICES","USD_CAP":6570869969.694672},{"ADDRESS":"20 Carlton House Terrace","CITY":"London","COMPANY_XRF":"3716","COMPANY_ZONE":"E","HQ_COUNTRY":"United Kingdom","HQ_COUNTRY_ISO":"GB","LATITUDE":51.5069534,"LISTING_XRF":"4415","LISTING_ZONE":"E","LONGITUDE":0,"NAME":"ANGLO AMERICAN","POSTAL_CODE":"SW1Y 5AN","SECTOR":"BASICIND","SHARES":1053677040,"SIMILARS_GROUP":"MINERALS","USD_CAP":29577634191.65729},{"ADDRESS":"175 Glasgow Road","CITY":"Edinburgh","COMPANY_XRF":"4496","COMPANY_ZONE":"E","HQ_COUNTRY":"United Kingdom","HQ_COUNTRY_ISO":"GB","LATITUDE":55.9348228,"LISTING_XRF":"5597","LISTING_ZONE":"E","LONGITUDE":-3.3338142,"NAME":"Royal Bank of Scotland Group PLC","POSTAL_CODE":"EH12 1HQ","SECTOR":"FINANCE","SHARES":4819402768,"SIMILARS_GROUP":"BANKS","USD_CAP":16362637748.454777},{"ADDRESS":"Lower Baggot Street","CITY":"Dublin","COMPANY_XRF":"3675","COMPANY_ZONE":"E","HQ_COUNTRY":"Ireland","HQ_COUNTRY_ISO":"IE","LATITUDE":53.3363773,"LISTING_XRF":"4312","LISTING_ZONE":"E","LONGITUDE":-6.247638999999999,"NAME":"BANK OF IRELAND GROUP PLC","POSTAL_CODE":"2","SECTOR":"FINANCE","SHARES":970940584.8000001,"SIMILARS_GROUP":"BANKS","USD_CAP":6474392024.642893},{"ADDRESS":"Persimmon House","CITY":"Fulford","COMPANY_XRF":"2525","COMPANY_ZONE":"E","HQ_COUNTRY":"United Kingdom","HQ_COUNTRY_ISO":"GB","LATITUDE":53.9211156,"LISTING_XRF":"3063","LISTING_ZONE":"E","LONGITUDE":-1.0657532,"NAME":"PERSIMMON","POSTAL_CODE":"YO1 4FE","SECTOR":"REALEST","SHARES":315971589,"SIMILARS_GROUP":"HOMEBLDG","USD_CAP":9583009171.08066},{"ADDRESS":"Belgard Castle","CITY":"Dublin","COMPANY_XRF":"3674","COMPANY_ZONE":"E","HQ_COUNTRY":"Ireland","HQ_COUNTRY_ISO":"IE","LATITUDE":53.303932,"LISTING_XRF":"4310","LISTING_ZONE":"E","LONGITUDE":-6.3879556,"NAME":"CRH PLC","POSTAL_CODE":"16","SECTOR":"BASICIND","SHARES":818899773,"SIMILARS_GROUP":"CNST MAT","USD_CAP":28018631985.101585},{"ADDRESS":"Georg-Brauchle-Ring 23-25","CITY":"Munich","COMPANY_XRF":"12772","COMPANY_ZONE":"E","HQ_COUNTRY":"Germany","HQ_COUNTRY_ISO":"DE","LATITUDE":48.17685669999999,"LISTING_XRF":"17052","LISTING_ZONE":"E","LONGITUDE":11.5326363,"NAME":"Telefonica Deutschland Holding AG","POSTAL_CODE":"80992","SECTOR":"TELECOMM","SHARES":743638748.25,"SIMILARS_GROUP":"PHONE","USD_CAP":2414348053.1394563},{"ADDRESS":"Tamara-Danz-Strasse 1","CITY":"Berlin","COMPANY_XRF":"12721","COMPANY_ZONE":"E","HQ_COUNTRY":"Germany","HQ_COUNTRY_ISO":"DE","LATITUDE":52.5040053,"LISTING_XRF":"17001","LISTING_ZONE":"E","LONGITUDE":13.4436867,"NAME":"Zalando SE","POSTAL_CODE":"10243","SECTOR":"","SHARES":112720033.35000001,"SIMILARS_GROUP":"","USD_CAP":5260187214.869367},{"ADDRESS":"Weston Centre","CITY":"London","COMPANY_XRF":"2176","COMPANY_ZONE":"E","HQ_COUNTRY":"United Kingdom","HQ_COUNTRY_ISO":"GB","LATITUDE":0,"LISTING_XRF":"2682","LISTING_ZONE":"E","LONGITUDE":0,"NAME":"ASSOCIATED BRITISH FOODS PLC","POSTAL_CODE":"SW1X 7LQ","SECTOR":"BASICIND","SHARES":356253382.35,"SIMILARS_GROUP":"AGRIBUS","USD_CAP":11579102372.410189},{"ADDRESS":"Gustav Mahlerlaan 10","CITY":"Amsterdam","COMPANY_XRF":"12722","COMPANY_ZONE":"E","HQ_COUNTRY":"Netherlands","HQ_COUNTRY_ISO":"NL","LATITUDE":52.3374762,"LISTING_XRF":"17002","LISTING_ZONE":"E","LONGITUDE":4.874887,"NAME":"ABN AMRO Group NV","POSTAL_CODE":"1082 PP","SECTOR":"","SHARES":423000000.45,"SIMILARS_GROUP":"","USD_CAP":10372347479.034412},{"ADDRESS":"Holmens Kanal 2-12","CITY":"Copenhagen","COMPANY_XRF":"4042","COMPANY_ZONE":"E","HQ_COUNTRY":"Denmark","HQ_COUNTRY_ISO":"DK","LATITUDE":55.6785,"LISTING_XRF":"4848","LISTING_ZONE":"E","LONGITUDE":12.5854487,"NAME":"Danske Bank A\/S","POSTAL_CODE":"1092","SECTOR":"FINANCE","SHARES":716762896.8000001,"SIMILARS_GROUP":"BANKS","USD_CAP":13868510501.125193},{"ADDRESS":"100 Cheapside","CITY":"Leatherhead","COMPANY_XRF":"2809","COMPANY_ZONE":"E","HQ_COUNTRY":"United Kingdom","HQ_COUNTRY_ISO":"GB","LATITUDE":51.5142035,"LISTING_XRF":"3371","LISTING_ZONE":"E","LONGITUDE":0,"NAME":"ASHTEAD GROUP","POSTAL_CODE":"EC2V 6DT","SECTOR":"BUSINSRV","SHARES":479584281,"SIMILARS_GROUP":"EQP LEAS","USD_CAP":13465452000.984114},{"ADDRESS":"20 North Audley Street","CITY":"Denham","COMPANY_XRF":"2139","COMPANY_ZONE":"E","HQ_COUNTRY":"United Kingdom","HQ_COUNTRY_ISO":"GB","LATITUDE":0,"LISTING_XRF":"2638","LISTING_ZONE":"E","LONGITUDE":0,"NAME":"Intercontinental Hotels Group PLC","POSTAL_CODE":"SL4 3HD","SECTOR":"BUSINSRV","SHARES":172079619.9,"SIMILARS_GROUP":"HOTELS","USD_CAP":10983400391.36617},{"ADDRESS":"1 St James's Square","CITY":"London","COMPANY_XRF":"2117","COMPANY_ZONE":"E","HQ_COUNTRY":"United Kingdom","HQ_COUNTRY_ISO":"GB","LATITUDE":0,"LISTING_XRF":"2597","LISTING_ZONE":"E","LONGITUDE":0,"NAME":"BP plc","POSTAL_CODE":"EC2M 7BA","SECTOR":"ENERGY","SHARES":20056583612,"SIMILARS_GROUP":"INTG OIL","USD_CAP":147323529461.1541},{"ADDRESS":"Box 12307","CITY":"Stockholm","COMPANY_XRF":"4724","COMPANY_ZONE":"E","HQ_COUNTRY":"Sweden","HQ_COUNTRY_ISO":"SE","LATITUDE":59.33229119999999,"LISTING_XRF":"6468","LISTING_ZONE":"E","LONGITUDE":18.0194537,"NAME":"SECURITAS AB","POSTAL_CODE":"102 28","SECTOR":"BUSINSRV","SHARES":313124667.3,"SIMILARS_GROUP":"SERVICES","USD_CAP":5355307006.314633},{"ADDRESS":"6 Poole Rd","CITY":"Christchurch","COMPANY_XRF":"2514","COMPANY_ZONE":"E","HQ_COUNTRY":"United Kingdom","HQ_COUNTRY_ISO":"GB","LATITUDE":0,"LISTING_XRF":"3052","LISTING_ZONE":"E","LONGITUDE":0,"NAME":"MEGGITT PLC","POSTAL_CODE":"BH21 1OE","SECTOR":"INDUSTRY","SHARES":776835429,"SIMILARS_GROUP":"ELCT MCH","USD_CAP":5214651071.839978},{"ADDRESS":"5 Princes Gate","CITY":"London","COMPANY_XRF":"2427","COMPANY_ZONE":"E","HQ_COUNTRY":"United Kingdom","HQ_COUNTRY_ISO":"GB","LATITUDE":0,"LISTING_XRF":"2958","LISTING_ZONE":"E","LONGITUDE":0,"NAME":"ANTOFAGASTA PLC","POSTAL_CODE":"EC2M 7AH","SECTOR":"BASICIND","SHARES":394342678,"SIMILARS_GROUP":"COPPER","USD_CAP":5148268750.074599},{"ADDRESS":"2 bd du general Martial -alin","CITY":"Paris","COMPANY_XRF":"921","COMPANY_ZONE":"E","HQ_COUNTRY":"France","HQ_COUNTRY_ISO":"FR","LATITUDE":48.83673539999999,"LISTING_XRF":"1260","LISTING_ZONE":"E","LONGITUDE":2.2694325,"NAME":"Safran SA","POSTAL_CODE":"75015","SECTOR":"INDUSTRY","SHARES":333623668,"SIMILARS_GROUP":"AIRPARTS","USD_CAP":46269140535.040504},{"ADDRESS":"13-15 Quai Le Gallo","CITY":"Boulogne-Billancourt","COMPANY_XRF":"5597","COMPANY_ZONE":"E","HQ_COUNTRY":"France","HQ_COUNTRY_ISO":"FR","LATITUDE":48.8315158,"LISTING_XRF":"8383","LISTING_ZONE":"E","LONGITUDE":2.2282107,"NAME":"RENAULT SA","POSTAL_CODE":"92100","SECTOR":"CONSDIS","SHARES":192219484.6,"SIMILARS_GROUP":"AUTOS","USD_CAP":13758899440.107222},{"ADDRESS":"Berliner Ring 2","CITY":"Wolfsburg","COMPANY_XRF":"197","COMPANY_ZONE":"E","HQ_COUNTRY":"Germany","HQ_COUNTRY_ISO":"DE","LATITUDE":52.43712499999999,"LISTING_XRF":"431","LISTING_ZONE":"E","LONGITUDE":10.7659397,"NAME":"VOLKSWAGEN-VW AG","POSTAL_CODE":"38436","SECTOR":"INDUSTRY","SHARES":32459879.98,"SIMILARS_GROUP":"MACHINES","USD_CAP":6060539396.431428},{"ADDRESS":"Cowick Hall","CITY":"Goole","COMPANY_XRF":"2386","COMPANY_ZONE":"E","HQ_COUNTRY":"United Kingdom","HQ_COUNTRY_ISO":"GB","LATITUDE":53.6823133,"LISTING_XRF":"2913","LISTING_ZONE":"E","LONGITUDE":-1.0071477,"NAME":"CRODA INTERNATIONAL PLC","POSTAL_CODE":"DN14 9AA","SECTOR":"BASICIND","SHARES":131643021,"SIMILARS_GROUP":"CHEMICAL","USD_CAP":8652822892.850847},{"ADDRESS":"200 Grays Inn Road","CITY":"London","COMPANY_XRF":"2377","COMPANY_ZONE":"E","HQ_COUNTRY":"United Kingdom","HQ_COUNTRY_ISO":"GB","LATITUDE":51.5234388,"LISTING_XRF":"2903","LISTING_ZONE":"E","LONGITUDE":0,"NAME":"ITV Plc","POSTAL_CODE":"SE1 9LT","SECTOR":"CONSDIS","SHARES":3622868274.6,"SIMILARS_GROUP":"BROADCAS","USD_CAP":6576676454.318468},{"ADDRESS":"Bellerivestrasse 30","CITY":"Cheserex","COMPANY_XRF":"2014","COMPANY_ZONE":"E","HQ_COUNTRY":"Switzerland","HQ_COUNTRY_ISO":"CH","LATITUDE":47.3581183,"LISTING_XRF":"2460","LISTING_ZONE":"E","LONGITUDE":8.5496679,"NAME":"ADECCO GROUP AG","POSTAL_CODE":"1000","SECTOR":"BUSINSRV","SHARES":158247130.65,"SIMILARS_GROUP":"SERVICES","USD_CAP":9305459671.276344},{"ADDRESS":"Sickla Industrivag 19","CITY":"Nacka","COMPANY_XRF":"13203","COMPANY_ZONE":"E","HQ_COUNTRY":"Sweden","HQ_COUNTRY_ISO":"SE","LATITUDE":59.30410589999999,"LISTING_XRF":"17506","LISTING_ZONE":"E","LONGITUDE":18.1186496,"NAME":"EPIROC AB","POSTAL_CODE":"131 54","SECTOR":"","SHARES":659012683.2,"SIMILARS_GROUP":"","USD_CAP":7184576888.456331},{"ADDRESS":"Klarabergsviadukten 63","CITY":"Stockholm","COMPANY_XRF":"13163","COMPANY_ZONE":"E","HQ_COUNTRY":"Sweden","HQ_COUNTRY_ISO":"SE","LATITUDE":59.32995529999999,"LISTING_XRF":"17449","LISTING_ZONE":"E","LONGITUDE":18.0556828,"NAME":"ESSITY AB","POSTAL_CODE":"101 23","SECTOR":"","SHARES":606432192.1999999,"SIMILARS_GROUP":"","USD_CAP":17138360793.757912},{"ADDRESS":"Metro-Strasse 1","CITY":"Dusseldorf","COMPANY_XRF":"13176","COMPANY_ZONE":"E","HQ_COUNTRY":"Germany","HQ_COUNTRY_ISO":"DE","LATITUDE":51.2340588,"LISTING_XRF":"17464","LISTING_ZONE":"E","LONGITUDE":6.8235666,"NAME":"METRO AG","POSTAL_CODE":"40235","SECTOR":"","SHARES":180060868,"SIMILARS_GROUP":"","USD_CAP":3004715857.889564},{"ADDRESS":"Alvar Aallon kati 1","CITY":"Helsinki","COMPANY_XRF":"6391","COMPANY_ZONE":"E","HQ_COUNTRY":"Finland","HQ_COUNTRY_ISO":"FI","LATITUDE":60.17497830000001,"LISTING_XRF":"9280","LISTING_ZONE":"E","LONGITUDE":24.93899,"NAME":"UPM-KYMMENE OYJ","POSTAL_CODE":"00101","SECTOR":"BASICIND","SHARES":533735699,"SIMILARS_GROUP":"LUMBER","USD_CAP":15205166137.837608},{"ADDRESS":"30 A-enue Pierre Mendes","CITY":"Paris","COMPANY_XRF":"769","COMPANY_ZONE":"E","HQ_COUNTRY":"France","HQ_COUNTRY_ISO":"FR","LATITUDE":48.8385928,"LISTING_XRF":"1103","LISTING_ZONE":"E","LONGITUDE":2.3707346,"NAME":"NATIXIS SA","POSTAL_CODE":"75007","SECTOR":"FINANCE","SHARES":945086577.6,"SIMILARS_GROUP":"BANKS","USD_CAP":5558463952.405648},{"ADDRESS":"10 Gros-enor Street","CITY":"London","COMPANY_XRF":"2194","COMPANY_ZONE":"E","HQ_COUNTRY":"United Kingdom","HQ_COUNTRY_ISO":"GB","LATITUDE":0,"LISTING_XRF":"2704","LISTING_ZONE":"E","LONGITUDE":0,"NAME":"HAMMERSON PLC","POSTAL_CODE":"N1 9GE","SECTOR":"REALEST","SHARES":770798374,"SIMILARS_GROUP":"REALPROP","USD_CAP":3295164428.2155604},{"ADDRESS":"Dieselstrasse 12","CITY":"Metzingen","COMPANY_XRF":"373","COMPANY_ZONE":"E","HQ_COUNTRY":"Germany","HQ_COUNTRY_ISO":"DE","LATITUDE":48.546767,"LISTING_XRF":"659","LISTING_ZONE":"E","LONGITUDE":9.2680092,"NAME":"BOSS (HUGO) AG","POSTAL_CODE":"72555","SECTOR":"CONSDIS","SHARES":63360000,"SIMILARS_GROUP":"APPAREL","USD_CAP":4437972000},{"ADDRESS":"P.O. Box 760","CITY":"Rotterdam","COMPANY_XRF":"1787","COMPANY_ZONE":"E","HQ_COUNTRY":"Netherlands","HQ_COUNTRY_ISO":"NL","LATITUDE":51.9240121,"LISTING_XRF":"4405","LISTING_ZONE":"E","LONGITUDE":4.4737887,"NAME":"UNILEVER N V","POSTAL_CODE":"3000 AL","SECTOR":"CONSTAPL","SHARES":1543254911.1000001,"SIMILARS_GROUP":"FOOD","USD_CAP":90402312461.52289},{"ADDRESS":" ","CITY":"Oslo","COMPANY_XRF":"4243","COMPANY_ZONE":"E","HQ_COUNTRY":"Norway","HQ_COUNTRY_ISO":"NO","LATITUDE":59.9138184,"LISTING_XRF":"5127","LISTING_ZONE":"E","LONGITUDE":10.6504724,"NAME":"Norsk Hydro ASA","POSTAL_CODE":"0240","SECTOR":"BASICIND","SHARES":1344848879.4,"SIMILARS_GROUP":"ALUMINUM","USD_CAP":6130843081.125242},{"ADDRESS":"AkzoNobel Center","CITY":"Amsterdam","COMPANY_XRF":"1795","COMPANY_ZONE":"E","HQ_COUNTRY":"Netherlands","HQ_COUNTRY_ISO":"NL","LATITUDE":52.339873,"LISTING_XRF":"2185","LISTING_ZONE":"E","LONGITUDE":4.877218,"NAME":"AKZO NOBEL N V","POSTAL_CODE":"1070 AS","SECTOR":"BASICIND","SHARES":224551631,"SIMILARS_GROUP":"CHEMICAL","USD_CAP":20195314782.151424},{"ADDRESS":"Fabianinkatu 27","CITY":"Helsinki","COMPANY_XRF":"4692","COMPANY_ZONE":"E","HQ_COUNTRY":"Finland","HQ_COUNTRY_ISO":"FI","LATITUDE":60.1680412,"LISTING_XRF":"7391","LISTING_ZONE":"E","LONGITUDE":24.9496212,"NAME":"SAMPO OYJ","POSTAL_CODE":"00075","SECTOR":"FINANCE","SHARES":443321480,"SIMILARS_GROUP":"BANKS","USD_CAP":20494253283.735},{"ADDRESS":"Kaiser-Wilhelm-Allee 60","CITY":"Leverkusen","COMPANY_XRF":"12913","COMPANY_ZONE":"E","HQ_COUNTRY":"Germany","HQ_COUNTRY_ISO":"DE","LATITUDE":51.0143613,"LISTING_XRF":"17196","LISTING_ZONE":"E","LONGITUDE":6.9871954,"NAME":"COVESTRO AG","POSTAL_CODE":"51373","SECTOR":"","SHARES":192375000,"SIMILARS_GROUP":"","USD_CAP":11435140899},{"ADDRESS":"105 Victoria Street","CITY":"Crawley","COMPANY_XRF":"2255","COMPANY_ZONE":"E","HQ_COUNTRY":"United Kingdom","HQ_COUNTRY_ISO":"GB","LATITUDE":51.4970278,"LISTING_XRF":"2772","LISTING_ZONE":"E","LONGITUDE":0,"NAME":"G4S PLC","POSTAL_CODE":"1780","SECTOR":"BUSINSRV","SHARES":1551594436,"SIMILARS_GROUP":"SERVICES","USD_CAP":4661618098.060746},{"ADDRESS":"10 Cornwall Terrace","CITY":"London","COMPANY_XRF":"2225","COMPANY_ZONE":"E","HQ_COUNTRY":"United Kingdom","HQ_COUNTRY_ISO":"GB","LATITUDE":0,"LISTING_XRF":"2739","LISTING_ZONE":"E","LONGITUDE":0,"NAME":"BRITISH LAND CO PLC\/THE","POSTAL_CODE":"NW1 4QP","SECTOR":"REALEST","SHARES":916027322.65,"SIMILARS_GROUP":"REALPROP","USD_CAP":7059263271.790569},{"ADDRESS":"-on-Gablenz-Strasse 2-6","CITY":"Cologne","COMPANY_XRF":"214","COMPANY_ZONE":"E","HQ_COUNTRY":"Germany","HQ_COUNTRY_ISO":"DE","LATITUDE":50.9414159,"LISTING_XRF":"474","LISTING_ZONE":"E","LONGITUDE":6.981212500000001,"NAME":"LUFTHANSA AG","POSTAL_CODE":"50679","SECTOR":"TRANSPRT","SHARES":237605364.5,"SIMILARS_GROUP":"AIRLINES","USD_CAP":6015363059.770439},{"ADDRESS":"10 A-enue Hoche","CITY":"Paris","COMPANY_XRF":"822","COMPANY_ZONE":"E","HQ_COUNTRY":"France","HQ_COUNTRY_ISO":"FR","LATITUDE":46.227638,"LISTING_XRF":"1160","LISTING_ZONE":"E","LONGITUDE":2.213749,"NAME":"KERING SA","POSTAL_CODE":"75007","SECTOR":"CONSDIS","SHARES":75767593.2,"SIMILARS_GROUP":"WATCHES","USD_CAP":43339463363.29211},{"ADDRESS":"103-105 Bath Road","CITY":"Slough","COMPANY_XRF":"2173","COMPANY_ZONE":"E","HQ_COUNTRY":"United Kingdom","HQ_COUNTRY_ISO":"GB","LATITUDE":51.5118286,"LISTING_XRF":"2678","LISTING_ZONE":"E","LONGITUDE":0,"NAME":"RECKITT BENCKISER GROUP PLC","POSTAL_CODE":"SL1 3UH","SECTOR":"CONSTAPL","SHARES":671992537.6999999,"SIMILARS_GROUP":"SOAP","USD_CAP":50534307441.5086},{"ADDRESS":"1 Churchill Place","CITY":"London","COMPANY_XRF":"2126","COMPANY_ZONE":"E","HQ_COUNTRY":"United Kingdom","HQ_COUNTRY_ISO":"GB","LATITUDE":51.50442,"LISTING_XRF":"2618","LISTING_ZONE":"E","LONGITUDE":0,"NAME":"BARCLAYS PLC","POSTAL_CODE":"E14 5HP","SECTOR":"FINANCE","SHARES":17131259005,"SIMILARS_GROUP":"BANKS","USD_CAP":37549049624.12346},{"ADDRESS":"19 a-enue de la Liberte","CITY":"Luxembourg","COMPANY_XRF":"12384","COMPANY_ZONE":"E","HQ_COUNTRY":"Luxembourg","HQ_COUNTRY_ISO":"LU","LATITUDE":49.6056211,"LISTING_XRF":"16455","LISTING_ZONE":"E","LONGITUDE":6.1298613,"NAME":"Arcelormittal SA","POSTAL_CODE":"1160","SECTOR":"BASICIND","SHARES":664237356.25,"SIMILARS_GROUP":"MINERALS","USD_CAP":15662403340.342852},{"ADDRESS":"3 Sheldon Square ","CITY":"London","COMPANY_XRF":"2193","COMPANY_ZONE":"E","HQ_COUNTRY":"United Kingdom","HQ_COUNTRY_ISO":"GB","LATITUDE":51.5196482,"LISTING_XRF":"2703","LISTING_ZONE":"E","LONGITUDE":0,"NAME":"KINGFISHER PLC","POSTAL_CODE":"NW1 5PX","SECTOR":"CONSDIS","SHARES":2131285954,"SIMILARS_GROUP":"RTL DOIT","USD_CAP":7211235491.559196},{"ADDRESS":"Charles-de-Gaulle Strasse 20","CITY":"Bonn","COMPANY_XRF":"10094","COMPANY_ZONE":"E","HQ_COUNTRY":"Germany","HQ_COUNTRY_ISO":"DE","LATITUDE":50.7159077,"LISTING_XRF":"13326","LISTING_ZONE":"E","LONGITUDE":7.130135399999999,"NAME":"DEUTSCHE POST AG","POSTAL_CODE":"53105","SECTOR":"TRANSPRT","SHARES":989205407.2,"SIMILARS_GROUP":"TRUCKING","USD_CAP":34471994732.8059},{"ADDRESS":"81 Newgate Street","CITY":"London","COMPANY_XRF":"2118","COMPANY_ZONE":"E","HQ_COUNTRY":"United Kingdom","HQ_COUNTRY_ISO":"GB","LATITUDE":51.5156875,"LISTING_XRF":"2599","LISTING_ZONE":"E","LONGITUDE":0,"NAME":"BT Group plc","POSTAL_CODE":"EC1A 7AJ","SECTOR":"TELECOMM","SHARES":8433623012.95,"SIMILARS_GROUP":"PHONE","USD_CAP":25081583643.068905},{"ADDRESS":"DCC House","CITY":"Blackrock","COMPANY_XRF":"6657","COMPANY_ZONE":"E","HQ_COUNTRY":"Ireland","HQ_COUNTRY_ISO":"IE","LATITUDE":53.2714252,"LISTING_XRF":"9578","LISTING_ZONE":"E","LONGITUDE":-6.197208,"NAME":"DCC PLC","POSTAL_CODE":"18","SECTOR":"ENERGY","SHARES":98249479,"SIMILARS_GROUP":"WHLSE OL","USD_CAP":8763907747.49037},{"ADDRESS":"6 Carlton Gardens","CITY":"London","COMPANY_XRF":"2187","COMPANY_ZONE":"E","HQ_COUNTRY":"United Kingdom","HQ_COUNTRY_ISO":"GB","LATITUDE":51.505951,"LISTING_XRF":"2696","LISTING_ZONE":"E","LONGITUDE":0,"NAME":"BAE SYSTEMS PLC","POSTAL_CODE":"SW 1Y 5AD","SECTOR":"INDUSTRY","SHARES":3195444061,"SIMILARS_GROUP":"AIRCFT G","USD_CAP":20337815538.788113},{"ADDRESS":"154 rue de l'Uni-ersit","CITY":"Paris","COMPANY_XRF":"821","COMPANY_ZONE":"E","HQ_COUNTRY":"France","HQ_COUNTRY_ISO":"FR","LATITUDE":48.85124709999999,"LISTING_XRF":"1159","LISTING_ZONE":"E","LONGITUDE":2.28656,"NAME":"IMERYS","POSTAL_CODE":"75007","SECTOR":"BASICIND","SHARES":35821928.25,"SIMILARS_GROUP":"MINERALS","USD_CAP":1959909900.2008154},{"ADDRESS":"Bahnhofstrasse 36","CITY":"Zurich","COMPANY_XRF":"12420","COMPANY_ZONE":"E","HQ_COUNTRY":"Switzerland","HQ_COUNTRY_ISO":"CH","LATITUDE":47.371239,"LISTING_XRF":"16519","LISTING_ZONE":"E","LONGITUDE":8.538973,"NAME":"Julius Baer Group Ltd","POSTAL_CODE":"8010","SECTOR":"FINANCE","SHARES":223809448,"SIMILARS_GROUP":"INVSTMAN","USD_CAP":10522458731.402851},{"ADDRESS":"One Coleman Street","CITY":"London","COMPANY_XRF":"2175","COMPANY_ZONE":"E","HQ_COUNTRY":"United Kingdom","HQ_COUNTRY_ISO":"GB","LATITUDE":0,"LISTING_XRF":"2681","LISTING_ZONE":"E","LONGITUDE":0,"NAME":"LEGAL & GENERAL GP","POSTAL_CODE":"EC2R 5AA","SECTOR":"FINANCE","SHARES":5960614438,"SIMILARS_GROUP":"INVSTMAN","USD_CAP":22458392275.173058},{"ADDRESS":"Compass House","CITY":"Chertsey","COMPANY_XRF":"10228","COMPANY_ZONE":"E","HQ_COUNTRY":"United Kingdom","HQ_COUNTRY_ISO":"GB","LATITUDE":51.3873426,"LISTING_XRF":"13466","LISTING_ZONE":"E","LONGITUDE":0,"NAME":"COMPASS GROUP PLC","POSTAL_CODE":"KT16 9BA","SECTOR":"CONSDIS","SHARES":1585899372,"SIMILARS_GROUP":"EATS","USD_CAP":35273435959.57384},{"ADDRESS":"","CITY":"Stuttgart","COMPANY_XRF":"190","COMPANY_ZONE":"E","HQ_COUNTRY":"Germany","HQ_COUNTRY_ISO":"DE","LATITUDE":48.7863462,"LISTING_XRF":"10195","LISTING_ZONE":"E","LONGITUDE":9.2380718,"NAME":"DAIMLER-BENZ AG","POSTAL_CODE":"70327","SECTOR":"CONSDIS","SHARES":909361829.9499999,"SIMILARS_GROUP":"AUTOS","USD_CAP":60444114125.54867},{"ADDRESS":"A-inguda de la Generalitat 152","CITY":"Barcelona","COMPANY_XRF":"12026","COMPANY_ZONE":"E","HQ_COUNTRY":"Spain","HQ_COUNTRY_ISO":"ES","LATITUDE":40.46366700000001,"LISTING_XRF":"15842","LISTING_ZONE":"E","LONGITUDE":-3.74922,"NAME":"Grifols SA","POSTAL_CODE":"08005","SECTOR":"HEALTH","SHARES":298290858.59999996,"SIMILARS_GROUP":"BIOTECH","USD_CAP":8036441348.2018},{"ADDRESS":"Akersgata 55","CITY":"Oslo","COMPANY_XRF":"5138","COMPANY_ZONE":"E","HQ_COUNTRY":"Norway","HQ_COUNTRY_ISO":"NO","LATITUDE":59.9143254,"LISTING_XRF":"16962","LISTING_ZONE":"E","LONGITUDE":10.7431883,"NAME":"SCHIBSTED ASA","POSTAL_CODE":"0105","SECTOR":"CONSDIS","SHARES":98013279.75,"SIMILARS_GROUP":"NEWSPAPR","USD_CAP":2545070056.020471},{"ADDRESS":"CityPoint","CITY":"Dunstable","COMPANY_XRF":"2174","COMPANY_ZONE":"E","HQ_COUNTRY":"United Kingdom","HQ_COUNTRY_ISO":"GB","LATITUDE":2.000000120334615,"LISTING_XRF":"2679","LISTING_ZONE":"E","LONGITUDE":0,"NAME":"WHITBREAD","POSTAL_CODE":"EC2Y 9HX","SECTOR":"CONSDIS","SHARES":183637301,"SIMILARS_GROUP":"EATS","USD_CAP":11504876165.595446},{"ADDRESS":"Maidenhead Road","CITY":"Windsor","COMPANY_XRF":"6592","COMPANY_ZONE":"E","HQ_COUNTRY":"United Kingdom","HQ_COUNTRY_ISO":"GB","LATITUDE":51.4856444,"LISTING_XRF":"9505","LISTING_ZONE":"E","LONGITUDE":0,"NAME":"CENTRICA PLC","POSTAL_CODE":"SL4 5GD","SECTOR":"UTILS","SHARES":5696376952,"SIMILARS_GROUP":"GAS TRDI","USD_CAP":7794268435.014166},{"ADDRESS":"Building K 10","CITY":"Cologne","COMPANY_XRF":"11528","COMPANY_ZONE":"E","HQ_COUNTRY":"Germany","HQ_COUNTRY_ISO":"DE","LATITUDE":50.9374169,"LISTING_XRF":"15097","LISTING_ZONE":"E","LONGITUDE":6.970690200000001,"NAME":"LANXESS AG","POSTAL_CODE":"50569","SECTOR":"BASICIND","SHARES":86946789.2,"SIMILARS_GROUP":"CHEMICAL","USD_CAP":5347576714.105428},{"ADDRESS":"P.O. Box 6701","CITY":"Fornebu","COMPANY_XRF":"10106","COMPANY_ZONE":"E","HQ_COUNTRY":"Norway","HQ_COUNTRY_ISO":"NO","LATITUDE":60.47202399999999,"LISTING_XRF":"13343","LISTING_ZONE":"E","LONGITUDE":8.468945999999999,"NAME":"TELENOR ASA","POSTAL_CODE":"0130","SECTOR":"TELECOMM","SHARES":735729015.5,"SIMILARS_GROUP":"PHONE","USD_CAP":14560418229.828829},{"ADDRESS":"3 Burlington Gardens","CITY":"London","COMPANY_XRF":"2172","COMPANY_ZONE":"E","HQ_COUNTRY":"United Kingdom","HQ_COUNTRY_ISO":"GB","LATITUDE":0,"LISTING_XRF":"2677","LISTING_ZONE":"E","LONGITUDE":0,"NAME":"Pearson PLC","POSTAL_CODE":"W1X 1LE","SECTOR":"CONSDIS","SHARES":781072200,"SIMILARS_GROUP":"PUBLISHI","USD_CAP":8523560331.386436},{"ADDRESS":"Amstelveenseweg 500","CITY":"Amsterdam","COMPANY_XRF":"12714","COMPANY_ZONE":"E","HQ_COUNTRY":"Netherlands","HQ_COUNTRY_ISO":"NL","LATITUDE":52.0767629,"LISTING_XRF":"16994","LISTING_ZONE":"E","LONGITUDE":4.335808,"NAME":"NN Group NV","POSTAL_CODE":"1081 KL","SECTOR":"","SHARES":306953163.90000004,"SIMILARS_GROUP":"","USD_CAP":13175292332.978563},{"ADDRESS":"Bayerwerk Gebaeude W11","CITY":"Le-erkusen","COMPANY_XRF":"194","COMPANY_ZONE":"E","HQ_COUNTRY":"Germany","HQ_COUNTRY_ISO":"DE","LATITUDE":51.0137002,"LISTING_XRF":"414","LISTING_ZONE":"E","LONGITUDE":6.9836351,"NAME":"BAYER AG","POSTAL_CODE":"51368","SECTOR":"BASICIND","SHARES":932551964,"SIMILARS_GROUP":"AG CHEM","USD_CAP":63918987907.11157},{"ADDRESS":"173, Boulevard Haussmann","CITY":"Courbevoie","COMPANY_XRF":"732","COMPANY_ZONE":"E","HQ_COUNTRY":"France","HQ_COUNTRY_ISO":"FR","LATITUDE":46.227638,"LISTING_XRF":"1061","LISTING_ZONE":"E","LONGITUDE":2.213749,"NAME":"Thales SA","POSTAL_CODE":"75008","SECTOR":"INDUSTRY","SHARES":106329362.5,"SIMILARS_GROUP":"SENSGUID","USD_CAP":12839847358.666563},{"ADDRESS":"Birchwood Point Business Park","CITY":"Warrington","COMPANY_XRF":"2257","COMPANY_ZONE":"E","HQ_COUNTRY":"United Kingdom","HQ_COUNTRY_ISO":"GB","LATITUDE":0,"LISTING_XRF":"6621","LISTING_ZONE":"E","LONGITUDE":0,"NAME":"UNITED UTILITIES GROUP PLC","POSTAL_CODE":"WA3 7WB","SECTOR":"UTILS","SHARES":681888418,"SIMILARS_GROUP":"WATER UT","USD_CAP":7238277480.611362},{"ADDRESS":"39 Chemin du Champ des Filles","CITY":"Gene-a","COMPANY_XRF":"6361","COMPANY_ZONE":"E","HQ_COUNTRY":"France","HQ_COUNTRY_ISO":"FR","LATITUDE":46.227638,"LISTING_XRF":"9066","LISTING_ZONE":"E","LONGITUDE":2.213749,"NAME":"STMICROELECTRONICS NV","POSTAL_CODE":"1215","SECTOR":"INDUSTRY","SHARES":682919853.75,"SIMILARS_GROUP":"ELCT MCH","USD_CAP":12708608191.021065},{"ADDRESS":"1-6 rue Paul Cezanne","CITY":"Charenton","COMPANY_XRF":"841","COMPANY_ZONE":"E","HQ_COUNTRY":"France","HQ_COUNTRY_ISO":"FR","LATITUDE":46.227638,"LISTING_XRF":"6587","LISTING_ZONE":"E","LONGITUDE":2.213749,"NAME":"ESSILORLUXOTTICA SA","POSTAL_CODE":"75008","SECTOR":"HEALTH","SHARES":287910119.90000004,"SIMILARS_GROUP":"MDCL INS","USD_CAP":34895773238.87424},{"ADDRESS":"225, Aenue Matignon","CITY":"Paris","COMPANY_XRF":"709","COMPANY_ZONE":"E","HQ_COUNTRY":"France","HQ_COUNTRY_ISO":"FR","LATITUDE":48.8711322,"LISTING_XRF":"1022","LISTING_ZONE":"E","LONGITUDE":2.3131251,"NAME":"AXA SA","POSTAL_CODE":"75008","SECTOR":"FINANCE","SHARES":1939573116.8000002,"SIMILARS_GROUP":"BANKS","USD_CAP":51592285116.06683},{"ADDRESS":"174 A-enue De France","CITY":"Paris","COMPANY_XRF":"902","COMPANY_ZONE":"E","HQ_COUNTRY":"France","HQ_COUNTRY_ISO":"FR","LATITUDE":48.8735672,"LISTING_XRF":"11282","LISTING_ZONE":"E","LONGITUDE":2.3128394,"NAME":"SANOFI","POSTAL_CODE":"75008","SECTOR":"HEALTH","SHARES":1126797610.5,"SIMILARS_GROUP":"DRUGS","USD_CAP":92020387721.70522},{"ADDRESS":"25 Sa-ile Row","CITY":"London","COMPANY_XRF":"11471","COMPANY_ZONE":"E","HQ_COUNTRY":"United Kingdom","HQ_COUNTRY_ISO":"GB","LATITUDE":0,"LISTING_XRF":"14930","LISTING_ZONE":"E","LONGITUDE":0,"NAME":"INTERTEK GROUP","POSTAL_CODE":"W1G 0PS","SECTOR":"BUSINSRV","SHARES":161393127,"SIMILARS_GROUP":"R AND D","USD_CAP":11130341958.044647},{"ADDRESS":"33 Holborn","CITY":"London","COMPANY_XRF":"2137","COMPANY_ZONE":"E","HQ_COUNTRY":"United Kingdom","HQ_COUNTRY_ISO":"GB","LATITUDE":51.5173591,"LISTING_XRF":"2636","LISTING_ZONE":"E","LONGITUDE":0,"NAME":"SAINSBURYS J P L C","POSTAL_CODE":"EC1N 2HT","SECTOR":"CONSTAPL","SHARES":1761356334.4,"SIMILARS_GROUP":"GROCERY","USD_CAP":5189272994.402421},{"ADDRESS":"-ahrenwalder Strasse 9","CITY":"Hanno-er","COMPANY_XRF":"232","COMPANY_ZONE":"E","HQ_COUNTRY":"Germany","HQ_COUNTRY_ISO":"DE","LATITUDE":51.165691,"LISTING_XRF":"502","LISTING_ZONE":"E","LONGITUDE":10.451526,"NAME":"CONTINENTAL AG","POSTAL_CODE":"30001","SECTOR":"INDUSTRY","SHARES":110003290.65,"SIMILARS_GROUP":"TIRES","USD_CAP":19182475026.574398},{"ADDRESS":"Michael House","CITY":"London","COMPANY_XRF":"2134","COMPANY_ZONE":"E","HQ_COUNTRY":"United Kingdom","HQ_COUNTRY_ISO":"GB","LATITUDE":0,"LISTING_XRF":"2631","LISTING_ZONE":"E","LONGITUDE":0,"NAME":"MARKS & SPENCER GP","POSTAL_CODE":"W1A 1DN","SECTOR":"CONSTAPL","SHARES":1624915851,"SIMILARS_GROUP":"GROCERY","USD_CAP":5935236318.502479},{"ADDRESS":"Amstelplein 2","CITY":"Amsterdam","COMPANY_XRF":"1791","COMPANY_ZONE":"E","HQ_COUNTRY":"Netherlands","HQ_COUNTRY_ISO":"NL","LATITUDE":52.3444402,"LISTING_XRF":"2167","LISTING_ZONE":"E","LONGITUDE":4.9167667,"NAME":"Koninklijke Philips NV","POSTAL_CODE":"1070 MX","SECTOR":"HEALTH","SHARES":926195539,"SIMILARS_GROUP":"MDCL INS","USD_CAP":36672092741.88941},{"ADDRESS":"Zugerstrasse 50","CITY":"Baar","COMPANY_XRF":"2041","COMPANY_ZONE":"E","HQ_COUNTRY":"Switzerland","HQ_COUNTRY_ISO":"CH","LATITUDE":47.186949,"LISTING_XRF":"2501","LISTING_ZONE":"E","LONGITUDE":8.520709,"NAME":"Sika AG","POSTAL_CODE":"6341","SECTOR":"BASICIND","SHARES":127603044,"SIMILARS_GROUP":"CHEMICAL","USD_CAP":18946112364.869457},{"ADDRESS":"Aeschengraben 21","CITY":"Basel","COMPANY_XRF":"2021","COMPANY_ZONE":"E","HQ_COUNTRY":"Switzerland","HQ_COUNTRY_ISO":"CH","LATITUDE":47.54936,"LISTING_XRF":"2473","LISTING_ZONE":"E","LONGITUDE":7.593582,"NAME":"BALOISE HOLDING AG","POSTAL_CODE":"4002","SECTOR":"FINANCE","SHARES":48800000,"SIMILARS_GROUP":"BANKS","USD_CAP":8337424470.36212},{"ADDRESS":"","CITY":"","COMPANY_XRF":"12578","COMPANY_ZONE":"E","HQ_COUNTRY":"United Kingdom","HQ_COUNTRY_ISO":"GB","LATITUDE":54.5082566,"LISTING_XRF":"16813","LISTING_ZONE":"E","LONGITUDE":-6.0954776,"NAME":"COCA-COLA HBC AG","POSTAL_CODE":"","SECTOR":"","SHARES":204497550.95000002,"SIMILARS_GROUP":"","USD_CAP":7157339911.918766},{"ADDRESS":"P.O. Box 3050","CITY":"Amsterdam","COMPANY_XRF":"1803","COMPANY_ZONE":"E","HQ_COUNTRY":"Netherlands","HQ_COUNTRY_ISO":"NL","LATITUDE":52.132633,"LISTING_XRF":"2208","LISTING_ZONE":"E","LONGITUDE":5.291265999999999,"NAME":"KONINKLIJKE AHOLD DELHAIZE NV","POSTAL_CODE":"1019","SECTOR":"CONSTAPL","SHARES":1183724959,"SIMILARS_GROUP":"GROCERY","USD_CAP":29231643373.782894},{"ADDRESS":"2 Cavendish Square","CITY":"Amersham","COMPANY_XRF":"2387","COMPANY_ZONE":"E","HQ_COUNTRY":"United Kingdom","HQ_COUNTRY_ISO":"GB","LATITUDE":51.516234,"LISTING_XRF":"2914","LISTING_ZONE":"E","LONGITUDE":0,"NAME":"Babcock International Group PLC","POSTAL_CODE":"HP7 0DD","SECTOR":"BUSINSRV","SHARES":252798298.5,"SIMILARS_GROUP":"ENG ARCH","USD_CAP":1702188674.5749073},{"ADDRESS":"-ia Matteo Ci-itali 1","CITY":"Milan","COMPANY_XRF":"1697","COMPANY_ZONE":"E","HQ_COUNTRY":"Italy","HQ_COUNTRY_ISO":"IT","LATITUDE":45.4689694,"LISTING_XRF":"2054","LISTING_ZONE":"E","LONGITUDE":9.136527599999999,"NAME":"RECORDATI SPA","POSTAL_CODE":"20148","SECTOR":"BASICIND","SHARES":104562578,"SIMILARS_GROUP":"INDSTRL","USD_CAP":4157662815.720009},{"ADDRESS":"Capital Tower","CITY":"Cardiff","COMPANY_XRF":"11687","COMPANY_ZONE":"E","HQ_COUNTRY":"United Kingdom","HQ_COUNTRY_ISO":"GB","LATITUDE":51.47912609999999,"LISTING_XRF":"15317","LISTING_ZONE":"E","LONGITUDE":-3.1728243,"NAME":"ADMIRAL GROUP PLC","POSTAL_CODE":"CF10 2EH","SECTOR":"FINANCE","SHARES":203351915.89999998,"SIMILARS_GROUP":"INS MISC","USD_CAP":5875343381.273536},{"ADDRESS":"Piazza Paolo Ferrari 10","CITY":"Milano","COMPANY_XRF":"1550","COMPANY_ZONE":"E","HQ_COUNTRY":"Italy","HQ_COUNTRY_ISO":"IT","LATITUDE":45.4665306,"LISTING_XRF":"1904","LISTING_ZONE":"E","LONGITUDE":9.1877971,"NAME":"Intesa Sanpaolo SpA","POSTAL_CODE":"10121","SECTOR":"FINANCE","SHARES":14882953421.1,"SIMILARS_GROUP":"BANKS","USD_CAP":38904527659.47994},{"ADDRESS":"Avenida de San Luis, 77","CITY":"Barcelona","COMPANY_XRF":"643","COMPANY_ZONE":"E","HQ_COUNTRY":"Spain","HQ_COUNTRY_ISO":"ES","LATITUDE":40.46366700000001,"LISTING_XRF":"945","LISTING_ZONE":"E","LONGITUDE":-3.74922,"NAME":"NATURGY ENERGY GROUP SA","POSTAL_CODE":"08002","SECTOR":"UTILS","SHARES":350241269.34999996,"SIMILARS_GROUP":"ELECTRIC","USD_CAP":9742231993.712725},{"ADDRESS":"Box 5403","CITY":"Stockholm","COMPANY_XRF":"4366","COMPANY_ZONE":"E","HQ_COUNTRY":"Sweden","HQ_COUNTRY_ISO":"SE","LATITUDE":60.12816100000001,"LISTING_XRF":"5368","LISTING_ZONE":"E","LONGITUDE":18.643501,"NAME":"INDUSTRIVARDEN AB","POSTAL_CODE":"114 51","SECTOR":"FINANCE","SHARES":167025472,"SIMILARS_GROUP":"INVSTMAN","USD_CAP":3723833037.4179525},{"ADDRESS":"-ia Nizza 250","CITY":"London","COMPANY_XRF":"1534","COMPANY_ZONE":"E","HQ_COUNTRY":"Italy","HQ_COUNTRY_ISO":"IT","LATITUDE":45.0325158,"LISTING_XRF":"1882","LISTING_ZONE":"E","LONGITUDE":7.6669356,"NAME":"FIAT CHRYSLER AUTOMOBILES NV","POSTAL_CODE":"10126","SECTOR":"CONSDIS","SHARES":1085432294.1,"SIMILARS_GROUP":"AUTOS","USD_CAP":17828202853.600784},{"ADDRESS":"Flughofstrasse 61","CITY":"Bern","COMPANY_XRF":"3700","COMPANY_ZONE":"E","HQ_COUNTRY":"Switzerland","HQ_COUNTRY_ISO":"CH","LATITUDE":47.4406024,"LISTING_XRF":"14269","LISTING_ZONE":"E","LONGITUDE":8.565707999999999,"NAME":"VIFOR PHARMA AG","POSTAL_CODE":"3001","SECTOR":"HEALTH","SHARES":45500000,"SIMILARS_GROUP":"DRUGS","USD_CAP":5893698296.422488},{"ADDRESS":"Rellinghauser Strasse 1-11","CITY":"Essen","COMPANY_XRF":"12711","COMPANY_ZONE":"E","HQ_COUNTRY":"Germany","HQ_COUNTRY_ISO":"DE","LATITUDE":51.4493759,"LISTING_XRF":"16990","LISTING_ZONE":"E","LONGITUDE":7.0140864,"NAME":"EVONIK INDUSTRIES","POSTAL_CODE":"45128","SECTOR":"","SHARES":163100000,"SIMILARS_GROUP":"","USD_CAP":4975439547.400001},{"ADDRESS":"Koniginstr. 107","CITY":"Muenchen","COMPANY_XRF":"200","COMPANY_ZONE":"E","HQ_COUNTRY":"Germany","HQ_COUNTRY_ISO":"DE","LATITUDE":48.15643,"LISTING_XRF":"446","LISTING_ZONE":"E","LONGITUDE":11.5883,"NAME":"MUENCHENER RUECKVERSICHERUNGS-GESELLSCHAFT AG IN MUENCHEN","POSTAL_CODE":"80802","SECTOR":"FINANCE","SHARES":149538477,"SIMILARS_GROUP":"INVSTMAN","USD_CAP":37120691315.01885},{"ADDRESS":"14-16 rue des Capucines","CITY":"Paris","COMPANY_XRF":"923","COMPANY_ZONE":"E","HQ_COUNTRY":"France","HQ_COUNTRY_ISO":"FR","LATITUDE":48.8691506,"LISTING_XRF":"1262","LISTING_ZONE":"E","LONGITUDE":2.3292505,"NAME":"GECINA","POSTAL_CODE":"75002","SECTOR":"REALEST","SHARES":45697740.6,"SIMILARS_GROUP":"REIT","USD_CAP":6662870871.543642},{"ADDRESS":"Holtedam 1","CITY":"Humlebaek","COMPANY_XRF":"4084","COMPANY_ZONE":"E","HQ_COUNTRY":"Denmark","HQ_COUNTRY_ISO":"DK","LATITUDE":55.965058,"LISTING_XRF":"4908","LISTING_ZONE":"E","LONGITUDE":12.4946819,"NAME":"Coloplast A\/S","POSTAL_CODE":"3050","SECTOR":"HEALTH","SHARES":118800000,"SIMILARS_GROUP":"MDCL INS","USD_CAP":12222552941.86981},{"ADDRESS":"General Guisan-Quai 40","CITY":"Zurich","COMPANY_XRF":"5759","COMPANY_ZONE":"E","HQ_COUNTRY":"Switzerland","HQ_COUNTRY_ISO":"CH","LATITUDE":47.362937,"LISTING_XRF":"14754","LISTING_ZONE":"E","LONGITUDE":8.53474,"NAME":"Swiss Life Holding AG","POSTAL_CODE":"8022","SECTOR":"FINANCE","SHARES":34223106,"SIMILARS_GROUP":"INVSTMAN","USD_CAP":15929247463.157019},{"ADDRESS":"152 Avenue des Champs-Elysees","CITY":"Cognac","COMPANY_XRF":"844","COMPANY_ZONE":"E","HQ_COUNTRY":"France","HQ_COUNTRY_ISO":"FR","LATITUDE":45.6889428,"LISTING_XRF":"1182","LISTING_ZONE":"E","LONGITUDE":0,"NAME":"REMY COINTREAU SA","POSTAL_CODE":"16100","SECTOR":"CONSTAPL","SHARES":22927404.150000002,"SIMILARS_GROUP":"LIQUOR","USD_CAP":3021701639.314429},{"ADDRESS":"An den Treptowers 1","CITY":"Aschheim","COMPANY_XRF":"10803","COMPANY_ZONE":"E","HQ_COUNTRY":"Germany","HQ_COUNTRY_ISO":"DE","LATITUDE":48.14570819999999,"LISTING_XRF":"14106","LISTING_ZONE":"E","LONGITUDE":11.6863305,"NAME":"WIRECARD AG","POSTAL_CODE":"10247","SECTOR":"BUSINSRV","SHARES":117387306.69999999,"SIMILARS_GROUP":"SERVICES","USD_CAP":15799870149.70467},{"ADDRESS":"Forusbeen 50","CITY":"Sta-anger","COMPANY_XRF":"10417","COMPANY_ZONE":"E","HQ_COUNTRY":"Norway","HQ_COUNTRY_ISO":"NO","LATITUDE":60.47202399999999,"LISTING_XRF":"13673","LISTING_ZONE":"E","LONGITUDE":8.468945999999999,"NAME":"EQUINOR ASA","POSTAL_CODE":"4035","SECTOR":"ENERGY","SHARES":1168531426.6499999,"SIMILARS_GROUP":"INTG OIL","USD_CAP":27092733774.512653},{"ADDRESS":"Drammensveien 288","CITY":"Oslo","COMPANY_XRF":"12555","COMPANY_ZONE":"E","HQ_COUNTRY":"Norway","HQ_COUNTRY_ISO":"NO","LATITUDE":59.9102095,"LISTING_XRF":"16764","LISTING_ZONE":"E","LONGITUDE":10.7627442,"NAME":"GJENSIDIGE FORSIKRING ASA","POSTAL_CODE":"0191","SECTOR":"FINANCE","SHARES":200000000,"SIMILARS_GROUP":"BANKS","USD_CAP":3727875912.4087596},{"ADDRESS":"1 Esplanade de France","CITY":"Saint-Etienne","COMPANY_XRF":"780","COMPANY_ZONE":"E","HQ_COUNTRY":"France","HQ_COUNTRY_ISO":"FR","LATITUDE":46.227638,"LISTING_XRF":"1115","LISTING_ZONE":"E","LONGITUDE":2.213749,"NAME":"Casino Guichard Perrachon SA","POSTAL_CODE":"42000","SECTOR":"CONSDIS","SHARES":54864708,"SIMILARS_GROUP":"EATS","USD_CAP":2339575717.6255803},{"ADDRESS":"1 London Wall Place","CITY":"London","COMPANY_XRF":"2288","COMPANY_ZONE":"E","HQ_COUNTRY":"United Kingdom","HQ_COUNTRY_ISO":"GB","LATITUDE":51.5177778,"LISTING_XRF":"2811","LISTING_ZONE":"E","LONGITUDE":0,"NAME":"SCHRODERS","POSTAL_CODE":"EC2V 7QA","SECTOR":"FINANCE","SHARES":124312320.00000001,"SIMILARS_GROUP":"INVSTMAN","USD_CAP":5140640157.117175},{"ADDRESS":"37, Boulevard de Montmorency","CITY":"Blagnac","COMPANY_XRF":"9585","COMPANY_ZONE":"E","HQ_COUNTRY":"Netherlands","HQ_COUNTRY_ISO":"NL","LATITUDE":43.6331955,"LISTING_XRF":"12767","LISTING_ZONE":"E","LONGITUDE":1.3496101,"NAME":"AIRBUS SE","POSTAL_CODE":"1119 -PR","SECTOR":"INDUSTRY","SHARES":582275910.75,"SIMILARS_GROUP":"AIRCFT C","USD_CAP":78463407168.4656},{"ADDRESS":"Corporate Communications","CITY":"Brussels","COMPANY_XRF":"67","COMPANY_ZONE":"E","HQ_COUNTRY":"Belgium","HQ_COUNTRY_ISO":"BE","LATITUDE":50.9011235,"LISTING_XRF":"190","LISTING_ZONE":"E","LONGITUDE":4.4003779,"NAME":"SOLVAY SA","POSTAL_CODE":"1050","SECTOR":"BASICIND","SHARES":74113491.19999999,"SIMILARS_GROUP":"CHEMICAL","USD_CAP":9157253602.059359},{"ADDRESS":"Airton House","CITY":"Dublin","COMPANY_XRF":"10305","COMPANY_ZONE":"E","HQ_COUNTRY":"Ireland","HQ_COUNTRY_ISO":"IE","LATITUDE":53.3120018,"LISTING_XRF":"13551","LISTING_ZONE":"E","LONGITUDE":-6.234020699999999,"NAME":"PADDY POWER BETFAIR PLC","POSTAL_CODE":"24","SECTOR":"CONSDIS","SHARES":80078540,"SIMILARS_GROUP":"AMUSMENT","USD_CAP":6874391914.9948015},{"ADDRESS":"25 Gresham Street","CITY":"London","COMPANY_XRF":"2164","COMPANY_ZONE":"E","HQ_COUNTRY":"United Kingdom","HQ_COUNTRY_ISO":"GB","LATITUDE":51.51641859999999,"LISTING_XRF":"2668","LISTING_ZONE":"E","LONGITUDE":0,"NAME":"LLOYDS BANKING GROUP PLC","POSTAL_CODE":"EC2V 7HN","SECTOR":"FINANCE","SHARES":71155240499,"SIMILARS_GROUP":"BANKS","USD_CAP":60672035813.59363},{"ADDRESS":"Frankfurt Airport Ser-ices Worldwide","CITY":"Frankfurt Am Main","COMPANY_XRF":"10369","COMPANY_ZONE":"E","HQ_COUNTRY":"Germany","HQ_COUNTRY_ISO":"DE","LATITUDE":50.05174900000001,"LISTING_XRF":"13622","LISTING_ZONE":"E","LONGITUDE":8.579844999999999,"NAME":"FRAPORT AG FRANKFURT AIRPORT","POSTAL_CODE":"60547","SECTOR":"TRANSPRT","SHARES":41610916.800000004,"SIMILARS_GROUP":"AIRCARGO","USD_CAP":3393042870.346618},{"ADDRESS":"Box 14048","CITY":"Stockholm","COMPANY_XRF":"4362","COMPANY_ZONE":"E","HQ_COUNTRY":"Sweden","HQ_COUNTRY_ISO":"SE","LATITUDE":59.32944,"LISTING_XRF":"5356","LISTING_ZONE":"E","LONGITUDE":18.077487,"NAME":"L E LUNDBERGFORETAGEN AB","POSTAL_CODE":"104 40","SECTOR":"BASICIND","SHARES":76000000,"SIMILARS_GROUP":"PAPER","USD_CAP":2498235421.2794323},{"ADDRESS":"Box 1112","CITY":"Helsingborg","COMPANY_XRF":"4442","COMPANY_ZONE":"E","HQ_COUNTRY":"Sweden","HQ_COUNTRY_ISO":"SE","LATITUDE":60.12816100000001,"LISTING_XRF":"5528","LISTING_ZONE":"E","LONGITUDE":18.643501,"NAME":"HEXAGON AB","POSTAL_CODE":"103 59","SECTOR":"INDUSTRY","SHARES":260381019,"SIMILARS_GROUP":"TIRES","USD_CAP":14433787943.882105},{"ADDRESS":"18 Place des Philosophes","CITY":"Gene-a","COMPANY_XRF":"10908","COMPANY_ZONE":"E","HQ_COUNTRY":"Switzerland","HQ_COUNTRY_ISO":"CH","LATITUDE":46.1963848,"LISTING_XRF":"14211","LISTING_ZONE":"E","LONGITUDE":6.1464742,"NAME":"TEMENOS AG","POSTAL_CODE":"1205","SECTOR":"TECH","SHARES":60387626.949999996,"SIMILARS_GROUP":"SOFTWARE","USD_CAP":9808689995.58232},{"ADDRESS":"-odafone House","CITY":"Newbury","COMPANY_XRF":"2140","COMPANY_ZONE":"E","HQ_COUNTRY":"United Kingdom","HQ_COUNTRY_ISO":"GB","LATITUDE":51.4147682,"LISTING_XRF":"2639","LISTING_ZONE":"E","LONGITUDE":-1.3200359,"NAME":"VODAFONE GROUP PLC","POSTAL_CODE":"RG14 1JX","SECTOR":"TELECOMM","SHARES":26719584603,"SIMILARS_GROUP":"CELLULAR","USD_CAP":49286008884.26744},{"ADDRESS":"2 Eastbourne Terrace","CITY":"London","COMPANY_XRF":"2131","COMPANY_ZONE":"E","HQ_COUNTRY":"United Kingdom","HQ_COUNTRY_ISO":"GB","LATITUDE":51.508027,"LISTING_XRF":"2626","LISTING_ZONE":"E","LONGITUDE":0,"NAME":"RIO TINTO","POSTAL_CODE":"EC2V 7HR","SECTOR":"BASICIND","SHARES":1155537932.4,"SIMILARS_GROUP":"MINERALS","USD_CAP":68776219590.9153},{"ADDRESS":"Strasserau 6","CITY":"Linz","COMPANY_XRF":"6674","COMPANY_ZONE":"E","HQ_COUNTRY":"Austria","HQ_COUNTRY_ISO":"AT","LATITUDE":48.3173003,"LISTING_XRF":"9597","LISTING_ZONE":"E","LONGITUDE":14.2996951,"NAME":"VOESTALPINE AG","POSTAL_CODE":"4020","SECTOR":"BASICIND","SHARES":114626955.95,"SIMILARS_GROUP":"STEEL","USD_CAP":3910396354.989543},{"ADDRESS":"Bockenheimer Landstrasse 73-77","CITY":"Bochum","COMPANY_XRF":"217","COMPANY_ZONE":"E","HQ_COUNTRY":"Germany","HQ_COUNTRY_ISO":"DE","LATITUDE":51.275545,"LISTING_XRF":"479","LISTING_ZONE":"E","LONGITUDE":6.771159,"NAME":"GEA GROUP AG","POSTAL_CODE":"40468","SECTOR":"INDUSTRY","SHARES":162442954.8,"SIMILARS_GROUP":"MACHINES","USD_CAP":4711449327.220038},{"ADDRESS":"Unnastrasse 48","CITY":"Hamburg","COMPANY_XRF":"228","COMPANY_ZONE":"E","HQ_COUNTRY":"Germany","HQ_COUNTRY_ISO":"DE","LATITUDE":53.5794582,"LISTING_XRF":"498","LISTING_ZONE":"E","LONGITUDE":9.9600324,"NAME":"BEIERSDORF AG","POSTAL_CODE":"20245","SECTOR":"BASICIND","SHARES":100800000,"SIMILARS_GROUP":"PAPRPROD","USD_CAP":10519446067.2},{"ADDRESS":"255 quai de la Bataille","CITY":"Issy-les-Moulineaux","COMPANY_XRF":"847","COMPANY_ZONE":"E","HQ_COUNTRY":"France","HQ_COUNTRY_ISO":"FR","LATITUDE":48.821628,"LISTING_XRF":"1186","LISTING_ZONE":"E","LONGITUDE":2.2509258,"NAME":"SODEXO SA","POSTAL_CODE":"78180","SECTOR":"BUSINSRV","SHARES":88472932.2,"SIMILARS_GROUP":"SERVICES","USD_CAP":10197743614.73614},{"ADDRESS":"Karenslyst alle 6","CITY":"Oslo","COMPANY_XRF":"4248","COMPANY_ZONE":"E","HQ_COUNTRY":"Norway","HQ_COUNTRY_ISO":"NO","LATITUDE":60.47202399999999,"LISTING_XRF":"5144","LISTING_ZONE":"E","LONGITUDE":8.468945999999999,"NAME":"ORKLA ASA","POSTAL_CODE":"0213","SECTOR":"BUSINSRV","SHARES":815144776,"SIMILARS_GROUP":"PRINTING","USD_CAP":6321379908.314698},{"ADDRESS":"Calle Castello, 74","CITY":"Madrid","COMPANY_XRF":"10592","COMPANY_ZONE":"E","HQ_COUNTRY":"Spain","HQ_COUNTRY_ISO":"ES","LATITUDE":40.4461492,"LISTING_XRF":"13871","LISTING_ZONE":"E","LONGITUDE":-3.6579531,"NAME":"SIEMENS GAMESA RENEWABLE ENERGY SA","POSTAL_CODE":"28006","SECTOR":"INDUSTRY","SHARES":238400183.7,"SIMILARS_GROUP":"ENGINES","USD_CAP":4131862703.019604},{"ADDRESS":"New Tesco House","CITY":"Cheshunt","COMPANY_XRF":"2144","COMPANY_ZONE":"E","HQ_COUNTRY":"United Kingdom","HQ_COUNTRY_ISO":"GB","LATITUDE":51.8098113,"LISTING_XRF":"2643","LISTING_ZONE":"E","LONGITUDE":0,"NAME":"TESCO PLC","POSTAL_CODE":"AL7 1GA","SECTOR":"CONSTAPL","SHARES":9793496561,"SIMILARS_GROUP":"GROCERY","USD_CAP":31691860025.835793},{"ADDRESS":"Bredgade 34","CITY":"Copenhagen","COMPANY_XRF":"10110","COMPANY_ZONE":"E","HQ_COUNTRY":"Denmark","HQ_COUNTRY_ISO":"DK","LATITUDE":55.6655003,"LISTING_XRF":"13348","LISTING_ZONE":"E","LONGITUDE":12.5674601,"NAME":"GENMAB AS","POSTAL_CODE":"1253","SECTOR":"HEALTH","SHARES":61497571,"SIMILARS_GROUP":"BIOTECH","USD_CAP":10357434746.009027},{"ADDRESS":"Apollolaan 153","CITY":"Alphen aan den Rijn","COMPANY_XRF":"1806","COMPANY_ZONE":"E","HQ_COUNTRY":"Netherlands","HQ_COUNTRY_ISO":"NL","LATITUDE":52.132633,"LISTING_XRF":"2212","LISTING_ZONE":"E","LONGITUDE":5.291265999999999,"NAME":"Wolters Kluwer NV","POSTAL_CODE":"1070 AE","SECTOR":"CONSDIS","SHARES":279716860,"SIMILARS_GROUP":"PUBLISHI","USD_CAP":19592417812.625},{"ADDRESS":"100 Victoria Street","CITY":"London","COMPANY_XRF":"2151","COMPANY_ZONE":"E","HQ_COUNTRY":"United Kingdom","HQ_COUNTRY_ISO":"GB","LATITUDE":51.4968779,"LISTING_XRF":"2650","LISTING_ZONE":"E","LONGITUDE":0,"NAME":"Land Securities Group PLC","POSTAL_CODE":"SW1E 5JL","SECTOR":"REALEST","SHARES":741461814,"SIMILARS_GROUP":"REIT","USD_CAP":8739838922.349108},{"ADDRESS":"58 Strandvejen","CITY":"Hellerup","COMPANY_XRF":"6603","COMPANY_ZONE":"E","HQ_COUNTRY":"Denmark","HQ_COUNTRY_ISO":"DK","LATITUDE":55.7271807,"LISTING_XRF":"9518","LISTING_ZONE":"E","LONGITUDE":12.5827132,"NAME":"DEMANT A\/S","POSTAL_CODE":"2765","SECTOR":"HEALTH","SHARES":100947190,"SIMILARS_GROUP":"MDCL INS","USD_CAP":2941934610.096029},{"ADDRESS":"Campus SEB","CITY":"Ecully","COMPANY_XRF":"837","COMPANY_ZONE":"E","HQ_COUNTRY":"France","HQ_COUNTRY_ISO":"FR","LATITUDE":45.7982481,"LISTING_XRF":"1175","LISTING_ZONE":"E","LONGITUDE":4.772647699999999,"NAME":"SEB SA","POSTAL_CODE":"69130","SECTOR":"CONSDIS","SHARES":22576072.05,"SIMILARS_GROUP":"DURABLES","USD_CAP":4111413141.2956877},{"ADDRESS":"Austrasse 46","CITY":"Zurich","COMPANY_XRF":"9316","COMPANY_ZONE":"E","HQ_COUNTRY":"Switzerland","HQ_COUNTRY_ISO":"CH","LATITUDE":47.36401009999999,"LISTING_XRF":"10097","LISTING_ZONE":"E","LONGITUDE":8.5192061,"NAME":"ZURICH INSURANCE GROUP AG","POSTAL_CODE":"8002","SECTOR":"FINANCE","SHARES":151347589,"SIMILARS_GROUP":"INS MISC","USD_CAP":48632964443.343254},{"ADDRESS":"Porscheplatz 1","CITY":"Stuttgart","COMPANY_XRF":"1340","COMPANY_ZONE":"E","HQ_COUNTRY":"Germany","HQ_COUNTRY_ISO":"DE","LATITUDE":48.8342848,"LISTING_XRF":"3173","LISTING_ZONE":"E","LONGITUDE":9.1527057,"NAME":"PORSCHE AUTOMOBIL HOLDING SE","POSTAL_CODE":"70435","SECTOR":"CONSDIS","SHARES":153125000,"SIMILARS_GROUP":"AUTOS","USD_CAP":11075527881.250002},{"ADDRESS":"Box 1508","CITY":"Solna","COMPANY_XRF":"12043","COMPANY_ZONE":"E","HQ_COUNTRY":"Sweden","HQ_COUNTRY_ISO":"SE","LATITUDE":59.37147539999999,"LISTING_XRF":"15860","LISTING_ZONE":"E","LONGITUDE":18.0087667,"NAME":"ICA GRUPPEN AB","POSTAL_CODE":"169 04","SECTOR":"CONSDIS","SHARES":80458718,"SIMILARS_GROUP":"PUBLISHI","USD_CAP":2947063139.5018754},{"ADDRESS":"Zurcherstrasse 156","CITY":"Jona","COMPANY_XRF":"2005","COMPANY_ZONE":"E","HQ_COUNTRY":"Switzerland","HQ_COUNTRY_ISO":"CH","LATITUDE":47.2383566,"LISTING_XRF":"2445","LISTING_ZONE":"E","LONGITUDE":8.813493500000002,"NAME":"LafargeHolcim Ltd","POSTAL_CODE":"8645","SECTOR":"BASICIND","SHARES":485527264,"SIMILARS_GROUP":"CEMENT","USD_CAP":25261075183.856613},{"ADDRESS":"13 boulevard du Fort de Vaux","CITY":"Paris","COMPANY_XRF":"851","COMPANY_ZONE":"E","HQ_COUNTRY":"France","HQ_COUNTRY_ISO":"FR","LATITUDE":48.8926631,"LISTING_XRF":"1190","LISTING_ZONE":"E","LONGITUDE":2.3034002,"NAME":"REXEL SA","POSTAL_CODE":"75009","SECTOR":"BUSINSRV","SHARES":303988899,"SIMILARS_GROUP":"WHLSE TR","USD_CAP":3870128879.4816484},{"ADDRESS":"22-30 A-enue de Wagram","CITY":"Paris","COMPANY_XRF":"11796","COMPANY_ZONE":"E","HQ_COUNTRY":"France","HQ_COUNTRY_ISO":"FR","LATITUDE":48.87655239999999,"LISTING_XRF":"15443","LISTING_ZONE":"E","LONGITUDE":2.2995442,"NAME":"ELECTRICITE DE FRANCE SA","POSTAL_CODE":"75008","SECTOR":"UTILS","SHARES":602053535.2,"SIMILARS_GROUP":"ELECTRIC","USD_CAP":8656675522.209553},{"ADDRESS":"Dachauer Str. 665","CITY":"Munchen","COMPANY_XRF":"11994","COMPANY_ZONE":"E","HQ_COUNTRY":"Germany","HQ_COUNTRY_ISO":"DE","LATITUDE":48.21361419999999,"LISTING_XRF":"15806","LISTING_ZONE":"E","LONGITUDE":11.4809669,"NAME":"MTU Aero Engines AG","POSTAL_CODE":"80995","SECTOR":"INDUSTRY","SHARES":52000000,"SIMILARS_GROUP":"AIRPARTS","USD_CAP":11999110760},{"ADDRESS":"Barratt House","CITY":"Coal-ille","COMPANY_XRF":"2322","COMPANY_ZONE":"E","HQ_COUNTRY":"United Kingdom","HQ_COUNTRY_ISO":"GB","LATITUDE":52.7039442,"LISTING_XRF":"2847","LISTING_ZONE":"E","LONGITUDE":-1.3276773,"NAME":"BARRATT DEVEL","POSTAL_CODE":"LE67 1UF","SECTOR":"REALEST","SHARES":1014217083,"SIMILARS_GROUP":"HOMEBLDG","USD_CAP":8073159081.471052},{"ADDRESS":"90 Boulevard Pasteur","CITY":"Paris","COMPANY_XRF":"12927","COMPANY_ZONE":"E","HQ_COUNTRY":"France","HQ_COUNTRY_ISO":"FR","LATITUDE":48.8390072,"LISTING_XRF":"17209","LISTING_ZONE":"E","LONGITUDE":2.3158126,"NAME":"AMUNDI","POSTAL_CODE":"75015","SECTOR":"","SHARES":60511306.199999996,"SIMILARS_GROUP":"","USD_CAP":4252001807.817918},{"ADDRESS":"43 Rue Bayen","CITY":"Paris","COMPANY_XRF":"757","COMPANY_ZONE":"E","HQ_COUNTRY":"France","HQ_COUNTRY_ISO":"FR","LATITUDE":48.8813445,"LISTING_XRF":"1091","LISTING_ZONE":"E","LONGITUDE":2.2925673,"NAME":"VALEO","POSTAL_CODE":"75017","SECTOR":"CONSDIS","SHARES":240253100,"SIMILARS_GROUP":"AUTOPART","USD_CAP":8729138466.0914},{"ADDRESS":"1 avenue Eugene Freyssinet","CITY":"Paris","COMPANY_XRF":"743","COMPANY_ZONE":"E","HQ_COUNTRY":"France","HQ_COUNTRY_ISO":"FR","LATITUDE":48.7857286,"LISTING_XRF":"1074","LISTING_ZONE":"E","LONGITUDE":2.0713824,"NAME":"BOUYGUES SA","POSTAL_CODE":"75008","SECTOR":"INDUSTRY","SHARES":219981771.6,"SIMILARS_GROUP":"CONSTRUC","USD_CAP":8628675000.1242},{"ADDRESS":"Piazza Monte Grappa 4","CITY":"Roma","COMPANY_XRF":"1642","COMPANY_ZONE":"E","HQ_COUNTRY":"Italy","HQ_COUNTRY_ISO":"IT","LATITUDE":41.91852799999999,"LISTING_XRF":"1999","LISTING_ZONE":"E","LONGITUDE":12.468559,"NAME":"LEONARDO SPA","POSTAL_CODE":"00195","SECTOR":"INDUSTRY","SHARES":404705276.5,"SIMILARS_GROUP":"AIRCFT C","USD_CAP":4814467253.810233},{"ADDRESS":"Calle Ribera del Loira 60","CITY":"Madrid","COMPANY_XRF":"625","COMPANY_ZONE":"E","HQ_COUNTRY":"Spain","HQ_COUNTRY_ISO":"ES","LATITUDE":40.4600897,"LISTING_XRF":"922","LISTING_ZONE":"E","LONGITUDE":-3.6179242,"NAME":"Endesa S.A.","POSTAL_CODE":"28002","SECTOR":"UTILS","SHARES":317625635.09999996,"SIMILARS_GROUP":"ELECTRIC","USD_CAP":7802710039.704015},{"ADDRESS":"15 Adam Street","CITY":"London","COMPANY_XRF":"2200","COMPANY_ZONE":"E","HQ_COUNTRY":"United Kingdom","HQ_COUNTRY_ISO":"GB","LATITUDE":0,"LISTING_XRF":"2712","LISTING_ZONE":"E","LONGITUDE":0,"NAME":"Smith & Nephew","POSTAL_CODE":"WC2N 6LA","SECTOR":"HEALTH","SHARES":874536343,"SIMILARS_GROUP":"MDCL INS","USD_CAP":16345253877.300058},{"ADDRESS":"14 Rue Jeanne d Asnieres","CITY":"Clichy","COMPANY_XRF":"817","COMPANY_ZONE":"E","HQ_COUNTRY":"France","HQ_COUNTRY_ISO":"FR","LATITUDE":48.9012357,"LISTING_XRF":"1155","LISTING_ZONE":"E","LONGITUDE":2.2967846,"NAME":"BIC SOCIETE","POSTAL_CODE":"92110","SECTOR":"CONSTAPL","SHARES":25638724.1,"SIMILARS_GROUP":"STUFF","USD_CAP":2346075422.772736},{"ADDRESS":"Petuelring 130","CITY":"Munchen","COMPANY_XRF":"204","COMPANY_ZONE":"E","HQ_COUNTRY":"Germany","HQ_COUNTRY_ISO":"DE","LATITUDE":48.1769,"LISTING_XRF":"453","LISTING_ZONE":"E","LONGITUDE":11.56134,"NAME":"BMW-BAYER MOTOREN WERKE AG","POSTAL_CODE":"80788","SECTOR":"CONSDIS","SHARES":331097357.8,"SIMILARS_GROUP":"AUTOS","USD_CAP":28849977890.922268},{"ADDRESS":"Amstelveenseweg 500","CITY":"Amsterdam","COMPANY_XRF":"1798","COMPANY_ZONE":"E","HQ_COUNTRY":"Netherlands","HQ_COUNTRY_ISO":"NL","LATITUDE":52.31370920000001,"LISTING_XRF":"6815","LISTING_ZONE":"E","LONGITUDE":4.952393799999999,"NAME":"ING GROEP NV","POSTAL_CODE":"1000","SECTOR":"FINANCE","SHARES":3891646414,"SIMILARS_GROUP":"BANKS","USD_CAP":52510872359.4844},{"ADDRESS":"7, rue Henri Sainte-Claire Deville","CITY":"Paris","COMPANY_XRF":"706","COMPANY_ZONE":"E","HQ_COUNTRY":"France","HQ_COUNTRY_ISO":"FR","LATITUDE":48.86692619999999,"LISTING_XRF":"1016","LISTING_ZONE":"E","LONGITUDE":2.2834932,"NAME":"PEUGEOT SA","POSTAL_CODE":"75116","SECTOR":"CONSDIS","SHARES":588138338.45,"SIMILARS_GROUP":"AUTOS","USD_CAP":16366114369.419724},{"ADDRESS":"60261 Kaiserplatz","CITY":"Frankfurt Am Main","COMPANY_XRF":"207","COMPANY_ZONE":"E","HQ_COUNTRY":"Germany","HQ_COUNTRY_ISO":"DE","LATITUDE":50.1108312,"LISTING_XRF":"458","LISTING_ZONE":"E","LONGITUDE":8.6751421,"NAME":"COMMERZBANK AG","POSTAL_CODE":"60261","SECTOR":"FINANCE","SHARES":1001886107.2,"SIMILARS_GROUP":"BANKS","USD_CAP":9125107430.27538},{"ADDRESS":"Carl Bosch Strasse 38","CITY":"Ludwigshafen","COMPANY_XRF":"196","COMPANY_ZONE":"E","HQ_COUNTRY":"Germany","HQ_COUNTRY_ISO":"DE","LATITUDE":49.49501799999999,"LISTING_XRF":"425","LISTING_ZONE":"E","LONGITUDE":8.434130999999999,"NAME":"BASF SE","POSTAL_CODE":"67056","SECTOR":"ENERGY","SHARES":918478694,"SIMILARS_GROUP":"OIL&GAS","USD_CAP":76335785606.64772},{"ADDRESS":"12, cours Sablon","CITY":"Clermont-Ferrand","COMPANY_XRF":"731","COMPANY_ZONE":"E","HQ_COUNTRY":"France","HQ_COUNTRY_ISO":"FR","LATITUDE":46.227638,"LISTING_XRF":"1059","LISTING_ZONE":"E","LONGITUDE":2.213749,"NAME":"CIE GENERALE DES ETABLISSEMENTS MICHELIN SCA","POSTAL_CODE":"63000","SECTOR":"INDUSTRY","SHARES":170762930.35,"SIMILARS_GROUP":"TIRES","USD_CAP":22476878184.279125},{"ADDRESS":"AEGONplein 50","CITY":"Den Haag","COMPANY_XRF":"1796","COMPANY_ZONE":"E","HQ_COUNTRY":"Netherlands","HQ_COUNTRY_ISO":"NL","LATITUDE":52.091566,"LISTING_XRF":"2191","LISTING_ZONE":"E","LONGITUDE":4.3694613,"NAME":"AEGON NV","POSTAL_CODE":"2501 CE","SECTOR":"FINANCE","SHARES":1781301007.3999999,"SIMILARS_GROUP":"INS MISC","USD_CAP":9320743558.059158},{"ADDRESS":"Bilbao Gardoqui 8","CITY":"Bilbao","COMPANY_XRF":"629","COMPANY_ZONE":"E","HQ_COUNTRY":"Spain","HQ_COUNTRY_ISO":"ES","LATITUDE":43.2678811,"LISTING_XRF":"930","LISTING_ZONE":"E","LONGITUDE":-2.9386845,"NAME":"Iberdrola SA","POSTAL_CODE":"48008","SECTOR":"UTILS","SHARES":6212808606.349999,"SIMILARS_GROUP":"ELECTRIC","USD_CAP":54155838638.751274},{"ADDRESS":"Paseo de la Castellana 29","CITY":"Madrid","COMPANY_XRF":"637","COMPANY_ZONE":"E","HQ_COUNTRY":"Spain","HQ_COUNTRY_ISO":"ES","LATITUDE":40.430917,"LISTING_XRF":"939","LISTING_ZONE":"E","LONGITUDE":-3.689588,"NAME":"BANKINTER SA","POSTAL_CODE":"28046","SECTOR":"FINANCE","SHARES":674149615.5,"SIMILARS_GROUP":"BANKS","USD_CAP":5550046056.671385},{"ADDRESS":"18-22 Haymarket","CITY":"London","COMPANY_XRF":"11468","COMPANY_ZONE":"E","HQ_COUNTRY":"United Kingdom","HQ_COUNTRY_ISO":"GB","LATITUDE":0,"LISTING_XRF":"14927","LISTING_ZONE":"E","LONGITUDE":0,"NAME":"Burberry Group PLC","POSTAL_CODE":"SW1P 2AW","SECTOR":"CONSDIS","SHARES":411374002,"SIMILARS_GROUP":"RTL WEAR","USD_CAP":10719945320.087511},{"ADDRESS":"Box 70340","CITY":"Stockholm","COMPANY_XRF":"6885","COMPANY_ZONE":"E","HQ_COUNTRY":"Sweden","HQ_COUNTRY_ISO":"SE","LATITUDE":59.3302818,"LISTING_XRF":"9817","LISTING_ZONE":"E","LONGITUDE":18.0536968,"NAME":"ASSA ABLOY AB","POSTAL_CODE":"107 23","SECTOR":"INDUSTRY","SHARES":1002297846.75,"SIMILARS_GROUP":"INSTRMNT","USD_CAP":22506687752.571327},{"ADDRESS":"Koeniginstrasse 28","CITY":"Muenchen","COMPANY_XRF":"189","COMPANY_ZONE":"E","HQ_COUNTRY":"Germany","HQ_COUNTRY_ISO":"DE","LATITUDE":48.1544997,"LISTING_XRF":"394","LISTING_ZONE":"E","LONGITUDE":11.5887577,"NAME":"ALLIANZ  SE","POSTAL_CODE":"80802","SECTOR":"FINANCE","SHARES":424459661,"SIMILARS_GROUP":"INVSTMAN","USD_CAP":102202413756.46811},{"ADDRESS":"Desford Road","CITY":"Enderby","COMPANY_XRF":"2374","COMPANY_ZONE":"E","HQ_COUNTRY":"United Kingdom","HQ_COUNTRY_ISO":"GB","LATITUDE":52.5956529,"LISTING_XRF":"2900","LISTING_ZONE":"E","LONGITUDE":-1.2200477,"NAME":"NEXT","POSTAL_CODE":"LE19 4AT","SECTOR":"CONSDIS","SHARES":139685453,"SIMILARS_GROUP":"RTL DEPT","USD_CAP":10435763354.621897},{"ADDRESS":"15 Justice Mill Lane","CITY":"Aberdeen","COMPANY_XRF":"11359","COMPANY_ZONE":"E","HQ_COUNTRY":"United Kingdom","HQ_COUNTRY_ISO":"GB","LATITUDE":57.1424939,"LISTING_XRF":"14701","LISTING_ZONE":"E","LONGITUDE":-2.1098932,"NAME":"WOOD GROUP JOHN PLC","POSTAL_CODE":"AB11 6EQ","SECTOR":"ENERGY","SHARES":681539369,"SIMILARS_GROUP":"OIL SRVC","USD_CAP":4453265499.894262},{"ADDRESS":"Brusseler Platz 1","CITY":"Dusseldorf","COMPANY_XRF":"193","COMPANY_ZONE":"E","HQ_COUNTRY":"Germany","HQ_COUNTRY_ISO":"DE","LATITUDE":51.4245516,"LISTING_XRF":"410","LISTING_ZONE":"E","LONGITUDE":6.992865,"NAME":"E.ON SE","POSTAL_CODE":"40479","SECTOR":"UTILS","SHARES":2201099000,"SIMILARS_GROUP":"ELECTRIC","USD_CAP":24248365312.619},{"ADDRESS":"89 rue Taitbout","CITY":"Paris","COMPANY_XRF":"849","COMPANY_ZONE":"E","HQ_COUNTRY":"France","HQ_COUNTRY_ISO":"FR","LATITUDE":48.8776076,"LISTING_XRF":"1188","LISTING_ZONE":"E","LONGITUDE":2.335466,"NAME":"WENDEL SA","POSTAL_CODE":"75009","SECTOR":"CONSDIS","SHARES":27767580.599999998,"SIMILARS_GROUP":"LEATHER","USD_CAP":3740519134.926084},{"ADDRESS":"Otto-Wagner-Platz 5","CITY":"-ienna","COMPANY_XRF":"4602","COMPANY_ZONE":"E","HQ_COUNTRY":"Austria","HQ_COUNTRY_ISO":"AT","LATITUDE":48.213891,"LISTING_XRF":"6808","LISTING_ZONE":"E","LONGITUDE":16.414636,"NAME":"OMV AG","POSTAL_CODE":"1020","SECTOR":"ENERGY","SHARES":147272727.15,"SIMILARS_GROUP":"OIL RFNG","USD_CAP":8164951536.832238},{"ADDRESS":"Av De Cantabria S\/N","CITY":"Boadilla del Monte","COMPANY_XRF":"626","COMPANY_ZONE":"E","HQ_COUNTRY":"Spain","HQ_COUNTRY_ISO":"ES","LATITUDE":40.3956116,"LISTING_XRF":"923","LISTING_ZONE":"E","LONGITUDE":-3.8634198,"NAME":"Banco Santander SA","POSTAL_CODE":"28014","SECTOR":"FINANCE","SHARES":16236573942,"SIMILARS_GROUP":"BANKS","USD_CAP":83866877673.02843},{"ADDRESS":"Piazza Cordusio","CITY":"Genova","COMPANY_XRF":"1543","COMPANY_ZONE":"E","HQ_COUNTRY":"Italy","HQ_COUNTRY_ISO":"IT","LATITUDE":44.4046624,"LISTING_XRF":"1895","LISTING_ZONE":"E","LONGITUDE":8.9413096,"NAME":"UniCredit SpA","POSTAL_CODE":"16121","SECTOR":"FINANCE","SHARES":2007158998.5,"SIMILARS_GROUP":"BANKS","USD_CAP":28702638623.537804},{"ADDRESS":"5 Chemin de la Parfumerie","CITY":"-ernier","COMPANY_XRF":"9510","COMPANY_ZONE":"E","HQ_COUNTRY":"Switzerland","HQ_COUNTRY_ISO":"CH","LATITUDE":46.20656289999999,"LISTING_XRF":"12688","LISTING_ZONE":"E","LONGITUDE":6.0785769,"NAME":"Givaudan SA","POSTAL_CODE":"1214","SECTOR":"BASICIND","SHARES":9233586,"SIMILARS_GROUP":"CHEMICAL","USD_CAP":23188594561.187263},{"ADDRESS":"42 A-enue De Friedland","CITY":"Paris","COMPANY_XRF":"703","COMPANY_ZONE":"E","HQ_COUNTRY":"France","HQ_COUNTRY_ISO":"FR","LATITUDE":48.8742013,"LISTING_XRF":"1010","LISTING_ZONE":"E","LONGITUDE":2.297564,"NAME":"VIVENDI SA","POSTAL_CODE":"75380","SECTOR":"TELECOMM","SHARES":1044184469.6,"SIMILARS_GROUP":"CELLULAR","USD_CAP":30296931983.23984},{"ADDRESS":"1 Place Des Alpes","CITY":"Gene-a","COMPANY_XRF":"2025","COMPANY_ZONE":"E","HQ_COUNTRY":"Switzerland","HQ_COUNTRY_ISO":"CH","LATITUDE":46.209513,"LISTING_XRF":"2480","LISTING_ZONE":"E","LONGITUDE":6.1464266,"NAME":"SGS SA","POSTAL_CODE":"1211","SECTOR":"BUSINSRV","SHARES":5343612.399999999,"SIMILARS_GROUP":"SERVICES","USD_CAP":13906139602.092726},{"ADDRESS":"Dublin Road","CITY":"Kingscourt","COMPANY_XRF":"3697","COMPANY_ZONE":"E","HQ_COUNTRY":"Ireland","HQ_COUNTRY_ISO":"IE","LATITUDE":53.8951658,"LISTING_XRF":"4355","LISTING_ZONE":"E","LONGITUDE":-6.8021625,"NAME":"KINGSPAN GROUP","POSTAL_CODE":"A82 XY31","SECTOR":"BASICIND","SHARES":153194352.5,"SIMILARS_GROUP":"BLDG MAT","USD_CAP":7897505898.9505005},{"ADDRESS":"calle Gran Via 28","CITY":"Madrid","COMPANY_XRF":"622","COMPANY_ZONE":"E","HQ_COUNTRY":"Spain","HQ_COUNTRY_ISO":"ES","LATITUDE":40.420193,"LISTING_XRF":"916","LISTING_ZONE":"E","LONGITUDE":-3.701847,"NAME":"TELEFONICA S.A.","POSTAL_CODE":"28013","SECTOR":"TELECOMM","SHARES":4672918517.400001,"SIMILARS_GROUP":"PHONE","USD_CAP":39318943886.635956},{"ADDRESS":"Werner-von-Siemens-Strasse 1","CITY":"Muenchen","COMPANY_XRF":"191","COMPANY_ZONE":"E","HQ_COUNTRY":"Germany","HQ_COUNTRY_ISO":"DE","LATITUDE":48.1443652,"LISTING_XRF":"398","LISTING_ZONE":"E","LONGITUDE":11.5746769,"NAME":"SIEMENS AG","POSTAL_CODE":"80333","SECTOR":"INDUSTRY","SHARES":765000000,"SIMILARS_GROUP":"ENGINES","USD_CAP":91306230750},{"ADDRESS":"1 Francis Crick Avenue","CITY":"Cambridge","COMPANY_XRF":"4584","COMPANY_ZONE":"E","HQ_COUNTRY":"United Kingdom","HQ_COUNTRY_ISO":"GB","LATITUDE":52.1748061,"LISTING_XRF":"6206","LISTING_ZONE":"E","LONGITUDE":0,"NAME":"ASTRAZENECA PLC","POSTAL_CODE":"CB2 0AA","SECTOR":"HEALTH","SHARES":1266811703,"SIMILARS_GROUP":"DRUGS","USD_CAP":95314296788.49464},{"ADDRESS":"Ballymount Road","CITY":"Dublin","COMPANY_XRF":"12248","COMPANY_ZONE":"E","HQ_COUNTRY":"Ireland","HQ_COUNTRY_ISO":"IE","LATITUDE":53.3166363,"LISTING_XRF":"16265","LISTING_ZONE":"E","LONGITUDE":-6.343866299999999,"NAME":"SMURFIT KAPPA GROUP PLC","POSTAL_CODE":"12","SECTOR":"BASICIND","SHARES":225352242.64999998,"SIMILARS_GROUP":"PAPER","USD_CAP":6932559491.374121},{"ADDRESS":"Fuederholzstrasse 34","CITY":"Domat\/Ems","COMPANY_XRF":"2019","COMPANY_ZONE":"E","HQ_COUNTRY":"Switzerland","HQ_COUNTRY_ISO":"CH","LATITUDE":46.8282685,"LISTING_XRF":"2470","LISTING_ZONE":"E","LONGITUDE":9.4308515,"NAME":"EMS-CHEMIE HOLDING AG","POSTAL_CODE":"7013","SECTOR":"BASICIND","SHARES":8186159.8,"SIMILARS_GROUP":"CHEMICAL","USD_CAP":4993268550.506076},{"ADDRESS":"Piazzetta Enrico Cuccia 1","CITY":"Milan","COMPANY_XRF":"1535","COMPANY_ZONE":"E","HQ_COUNTRY":"Italy","HQ_COUNTRY_ISO":"IT","LATITUDE":45.4675106,"LISTING_XRF":"1885","LISTING_ZONE":"E","LONGITUDE":9.188294599999999,"NAME":"MEDIOBANCA BANCA DI CREDITO FINANZIARIO SPA","POSTAL_CODE":"20121","SECTOR":"FINANCE","SHARES":620930058,"SIMILARS_GROUP":"BANKS","USD_CAP":6610825002.0057},{"ADDRESS":"Allee de la Recherche 60","CITY":"Brussels","COMPANY_XRF":"89","COMPANY_ZONE":"E","HQ_COUNTRY":"Belgium","HQ_COUNTRY_ISO":"BE","LATITUDE":50.8163952,"LISTING_XRF":"254","LISTING_ZONE":"E","LONGITUDE":4.2741383,"NAME":"UCB SA-NV","POSTAL_CODE":"1070","SECTOR":"HEALTH","SHARES":126428677.7,"SIMILARS_GROUP":"DRUGS","USD_CAP":9960709922.616817},{"ADDRESS":"Berkeley House","CITY":"Cobham","COMPANY_XRF":"2701","COMPANY_ZONE":"E","HQ_COUNTRY":"United Kingdom","HQ_COUNTRY_ISO":"GB","LATITUDE":51.3330935,"LISTING_XRF":"3256","LISTING_ZONE":"E","LONGITUDE":0,"NAME":"Berkeley Group Holdings PLC","POSTAL_CODE":"KT11 1JG","SECTOR":"REALEST","SHARES":122714743.3,"SIMILARS_GROUP":"HOMEBLDG","USD_CAP":6112990698.410131},{"ADDRESS":"12 Arthur Street","CITY":"London","COMPANY_XRF":"2138","COMPANY_ZONE":"E","HQ_COUNTRY":"United Kingdom","HQ_COUNTRY_ISO":"GB","LATITUDE":51.5104096,"LISTING_XRF":"2637","LISTING_ZONE":"E","LONGITUDE":0,"NAME":"PRUDENTIAL PLC","POSTAL_CODE":"EC4R 0HH","SECTOR":"FINANCE","SHARES":2591998315,"SIMILARS_GROUP":"INVSTMAN","USD_CAP":59696790055.81586},{"ADDRESS":"22-30 Old Bath Road","CITY":"Newbury","COMPANY_XRF":"11650","COMPANY_ZONE":"E","HQ_COUNTRY":"United Kingdom","HQ_COUNTRY_ISO":"GB","LATITUDE":51.4066705,"LISTING_XRF":"15276","LISTING_ZONE":"E","LONGITUDE":-1.3325174,"NAME":"Micro Focus International PLC","POSTAL_CODE":"RG14 1QN","SECTOR":"TECH","SHARES":423403184,"SIMILARS_GROUP":"SOFTWARE","USD_CAP":10430792975.58108},{"ADDRESS":"15, rue du Helder","CITY":"Paris","COMPANY_XRF":"704","COMPANY_ZONE":"E","HQ_COUNTRY":"France","HQ_COUNTRY_ISO":"FR","LATITUDE":48.872484,"LISTING_XRF":"1011","LISTING_ZONE":"E","LONGITUDE":2.3348067,"NAME":"DANONE SA","POSTAL_CODE":"75008","SECTOR":"CONSTAPL","SHARES":616549680,"SIMILARS_GROUP":"FOOD","USD_CAP":48644092736.8704},{"ADDRESS":"Opernplatz 2","CITY":"Essen","COMPANY_XRF":"205","COMPANY_ZONE":"E","HQ_COUNTRY":"Germany","HQ_COUNTRY_ISO":"DE","LATITUDE":51.4470153,"LISTING_XRF":"456","LISTING_ZONE":"E","LONGITUDE":7.014022199999999,"NAME":"HOCHTIEF AG","POSTAL_CODE":"45128","SECTOR":"INDUSTRY","SHARES":24726347.45,"SIMILARS_GROUP":"CONSTRUC","USD_CAP":3663370085.0298233},{"ADDRESS":"11 rue de Tilsitt","CITY":"Paris","COMPANY_XRF":"734","COMPANY_ZONE":"E","HQ_COUNTRY":"France","HQ_COUNTRY_ISO":"FR","LATITUDE":48.8747797,"LISTING_XRF":"1063","LISTING_ZONE":"E","LONGITUDE":2.2934198,"NAME":"CAPGEMINI SE","POSTAL_CODE":"75017","SECTOR":"TECH","SHARES":160376181.35,"SIMILARS_GROUP":"SOFTWARE","USD_CAP":20013334849.97653},{"ADDRESS":"Fabianinkatu 9 A","CITY":"Helsinki","COMPANY_XRF":"4217","COMPANY_ZONE":"E","HQ_COUNTRY":"Finland","HQ_COUNTRY_ISO":"FI","LATITUDE":60.172604,"LISTING_XRF":"11792","LISTING_ZONE":"E","LONGITUDE":24.9377848,"NAME":"Metso Oyj","POSTAL_CODE":"00100","SECTOR":"INDUSTRY","SHARES":105243779.19999999,"SIMILARS_GROUP":"MACHINES","USD_CAP":3988957507.2780604},{"ADDRESS":"Seestrasse 55","CITY":"Ebikon","COMPANY_XRF":"2020","COMPANY_ZONE":"E","HQ_COUNTRY":"Switzerland","HQ_COUNTRY_ISO":"CH","LATITUDE":46.988211,"LISTING_XRF":"2471","LISTING_ZONE":"E","LONGITUDE":8.3132472,"NAME":"SCHINDLER-HLDG AG","POSTAL_CODE":"6030","SECTOR":"INDUSTRY","SHARES":20123235.599999998,"SIMILARS_GROUP":"MACHINES","USD_CAP":4263553604.708415},{"ADDRESS":"Laubisruetistrasse 28","CITY":"Staefa","COMPANY_XRF":"5744","COMPANY_ZONE":"E","HQ_COUNTRY":"Switzerland","HQ_COUNTRY_ISO":"CH","LATITUDE":47.2390857,"LISTING_XRF":"8530","LISTING_ZONE":"E","LONGITUDE":8.7440906,"NAME":"Sonova Holding AG","POSTAL_CODE":"8712","SECTOR":"HEALTH","SHARES":55531253.949999996,"SIMILARS_GROUP":"MDCL INS","USD_CAP":10890180774.248486},{"ADDRESS":"A-enue Nestle 55","CITY":"-e-ey","COMPANY_XRF":"1991","COMPANY_ZONE":"E","HQ_COUNTRY":"Switzerland","HQ_COUNTRY_ISO":"CH","LATITUDE":46.4664606,"LISTING_XRF":"2411","LISTING_ZONE":"E","LONGITUDE":6.8349167,"NAME":"NESTLE SA","POSTAL_CODE":"1800","SECTOR":"CONSTAPL","SHARES":3063000000,"SIMILARS_GROUP":"FOOD","USD_CAP":287445671589.56885},{"ADDRESS":"26 Quai Michelet","CITY":"Boulogne Billancourt","COMPANY_XRF":"716","COMPANY_ZONE":"E","HQ_COUNTRY":"France","HQ_COUNTRY_ISO":"FR","LATITUDE":48.8346426,"LISTING_XRF":"1034","LISTING_ZONE":"E","LONGITUDE":2.2546079,"NAME":"Carrefour SA","POSTAL_CODE":"75016","SECTOR":"CONSTAPL","SHARES":591939629.25,"SIMILARS_GROUP":"GROCERY","USD_CAP":11088509400.89544},{"ADDRESS":"31 Rue du Marais ","CITY":"Brussels","COMPANY_XRF":"4055","COMPANY_ZONE":"E","HQ_COUNTRY":"Belgium","HQ_COUNTRY_ISO":"BE","LATITUDE":50.85083849999999,"LISTING_XRF":"6759","LISTING_ZONE":"E","LONGITUDE":4.358330599999999,"NAME":"Umicore SA","POSTAL_CODE":"1000","SECTOR":"BASICIND","SHARES":209440000,"SIMILARS_GROUP":"NFMTL PR","USD_CAP":10198558277.6}]