[{"ADDRESS":"120 Tredegar St","CITY":"Richmond","COMPANY_XRF":"189","COMPANY_ZONE":"U","HQ_COUNTRY":"United States","HQ_COUNTRY_ISO":"US","LATITUDE":37.5342325,"LISTING_XRF":"191","LISTING_ZONE":"U","LONGITUDE":-77.452041,"NAME":"DOMINION ENERGY INC","POSTAL_CODE":"23219","SECTOR":"UTILS","SHARES":799314000,"SIMILARS_GROUP":"ELECTRIC","USD_CAP":59708753360.687256},{"ADDRESS":"200 Vesey St","CITY":"New York","COMPANY_XRF":"24","COMPANY_ZONE":"U","HQ_COUNTRY":"United States","HQ_COUNTRY_ISO":"US","LATITUDE":40.7134455,"LISTING_XRF":"25","LISTING_ZONE":"U","LONGITUDE":-74.01527209999999,"NAME":"American Express Co","POSTAL_CODE":"10285","SECTOR":"BUSINSRV","SHARES":691562580,"SIMILARS_GROUP":"SERVICES","USD_CAP":77683225877.6889},{"ADDRESS":"One Johnson & Johnson Plaza","CITY":"New Brunswick","COMPANY_XRF":"35","COMPANY_ZONE":"U","HQ_COUNTRY":"United States","HQ_COUNTRY_ISO":"US","LATITUDE":0,"LISTING_XRF":"36","LISTING_ZONE":"U","LONGITUDE":0,"NAME":"JOHNSON & JOHNSON","POSTAL_CODE":"08933","SECTOR":"HEALTH","SHARES":2663139000,"SIMILARS_GROUP":"MDCL INS","USD_CAP":367060453246.35315},{"ADDRESS":"10400 Fernwood Rd","CITY":"Bethesda","COMPANY_XRF":"196","COMPANY_ZONE":"U","HQ_COUNTRY":"United States","HQ_COUNTRY_ISO":"US","LATITUDE":0,"LISTING_XRF":"198","LISTING_ZONE":"U","LONGITUDE":0,"NAME":"HOST HOTELS & RESORTS INC","POSTAL_CODE":"20817","SECTOR":"REALEST","SHARES":740473000,"SIMILARS_GROUP":"REIT","USD_CAP":13839440765.455246},{"ADDRESS":"168 Third Avenue","CITY":"Waltham","COMPANY_XRF":"1386","COMPANY_ZONE":"U","HQ_COUNTRY":"United States","HQ_COUNTRY_ISO":"US","LATITUDE":42.3924448,"LISTING_XRF":"1398","LISTING_ZONE":"U","LONGITUDE":-71.2614226,"NAME":"Thermo Fisher Scientific Inc","POSTAL_CODE":"02451","SECTOR":"INDUSTRY","SHARES":402576000,"SIMILARS_GROUP":"INSTRMNT","USD_CAP":104303414365.72266},{"ADDRESS":"7 Powderhorn Dr","CITY":"Summit","COMPANY_XRF":"4557","COMPANY_ZONE":"U","HQ_COUNTRY":"United States","HQ_COUNTRY_ISO":"US","LATITUDE":40.6302849,"LISTING_XRF":"4708","LISTING_ZONE":"U","LONGITUDE":-74.5043051,"NAME":"CELGENE CORP","POSTAL_CODE":"07059-5190","SECTOR":"HEALTH","SHARES":702356000,"SIMILARS_GROUP":"BIOTECH","USD_CAP":65614096233.947754},{"ADDRESS":"175 Water Street","CITY":"New York","COMPANY_XRF":"51","COMPANY_ZONE":"U","HQ_COUNTRY":"United States","HQ_COUNTRY_ISO":"US","LATITUDE":40.7063759,"LISTING_XRF":"52","LISTING_ZONE":"U","LONGITUDE":-74.00515639999999,"NAME":"AMERICAN INTL GROUP INC","POSTAL_CODE":"10038","SECTOR":"FINANCE","SHARES":869486000,"SIMILARS_GROUP":"INS LIFE","USD_CAP":39996356000},{"ADDRESS":"10889 Wilshire Blvd","CITY":"Houston","COMPANY_XRF":"137","COMPANY_ZONE":"U","HQ_COUNTRY":"United States","HQ_COUNTRY_ISO":"US","LATITUDE":29.7305064,"LISTING_XRF":"139","LISTING_ZONE":"U","LONGITUDE":-95.4321022,"NAME":"OCCIDENTAL PETE CORP","POSTAL_CODE":"77046","SECTOR":"ENERGY","SHARES":749546000,"SIMILARS_GROUP":"OIL&GAS","USD_CAP":47258874728.141785},{"ADDRESS":"18 Loveton Cir","CITY":"Hunt Valley","COMPANY_XRF":"914","COMPANY_ZONE":"U","HQ_COUNTRY":"United States","HQ_COUNTRY_ISO":"US","LATITUDE":0,"LISTING_XRF":"923","LISTING_ZONE":"U","LONGITUDE":0,"NAME":"McCormick & Co Inc\/MD","POSTAL_CODE":"21031","SECTOR":"CONSTAPL","SHARES":122603000,"SIMILARS_GROUP":"FOOD","USD_CAP":18717799785.507202},{"ADDRESS":"388 Greenwich Street","CITY":"New York","COMPANY_XRF":"3644","COMPANY_ZONE":"U","HQ_COUNTRY":"United States","HQ_COUNTRY_ISO":"US","LATITUDE":40.7211322,"LISTING_XRF":"3666","LISTING_ZONE":"U","LONGITUDE":-74.0109186,"NAME":"CITIGROUP INC NEW","POSTAL_CODE":"10013","SECTOR":"FINANCE","SHARES":2351524000,"SIMILARS_GROUP":"BANKS","USD_CAP":162466784548.4619},{"ADDRESS":"2000 2nd Ave","CITY":"Detroit","COMPANY_XRF":"212","COMPANY_ZONE":"U","HQ_COUNTRY":"United States","HQ_COUNTRY_ISO":"US","LATITUDE":42.3336164,"LISTING_XRF":"214","LISTING_ZONE":"U","LONGITUDE":-83.0575473,"NAME":"DTE ENERGY CO","POSTAL_CODE":"48226","SECTOR":"UTILS","SHARES":181925000,"SIMILARS_GROUP":"ELECTRIC","USD_CAP":22325836222.076416},{"ADDRESS":"220 Occidental Avenue South","CITY":"Federal Way","COMPANY_XRF":"110","COMPANY_ZONE":"U","HQ_COUNTRY":"United States","HQ_COUNTRY_ISO":"US","LATITUDE":47.6004408,"LISTING_XRF":"111","LISTING_ZONE":"U","LONGITUDE":-122.332628,"NAME":"WEYERHAEUSER CO","POSTAL_CODE":"98063","SECTOR":"BASICIND","SHARES":746524000,"SIMILARS_GROUP":"LUMBER","USD_CAP":19230458410.865784},{"ADDRESS":"7000 Cardinal Pl","CITY":"Dublin","COMPANY_XRF":"2171","COMPANY_ZONE":"U","HQ_COUNTRY":"United States","HQ_COUNTRY_ISO":"US","LATITUDE":40.1092374,"LISTING_XRF":"2189","LISTING_ZONE":"U","LONGITUDE":-83.1210978,"NAME":"CARDINAL HEALTH INC","POSTAL_CODE":"43017","SECTOR":"HEALTH","SHARES":298017000,"SIMILARS_GROUP":"MDCL INS","USD_CAP":13488248919.78836},{"ADDRESS":"700 Anderson Hill Rd","CITY":"Purchase","COMPANY_XRF":"70","COMPANY_ZONE":"U","HQ_COUNTRY":"United States","HQ_COUNTRY_ISO":"US","LATITUDE":41.0365188,"LISTING_XRF":"71","LISTING_ZONE":"U","LONGITUDE":-73.695213,"NAME":"PEPSICO INC","POSTAL_CODE":"10577","SECTOR":"CONSTAPL","SHARES":1404686000,"SIMILARS_GROUP":"FOOD","USD_CAP":177608501269.40918},{"ADDRESS":"667 Madison Ave","CITY":"New York","COMPANY_XRF":"102","COMPANY_ZONE":"U","HQ_COUNTRY":"United States","HQ_COUNTRY_ISO":"US","LATITUDE":0,"LISTING_XRF":"103","LISTING_ZONE":"U","LONGITUDE":0,"NAME":"LOEWS CORP","POSTAL_CODE":"10021-8087","SECTOR":"ENERGY","SHARES":273943120,"SIMILARS_GROUP":"OIL&GAS","USD_CAP":13483480700.803223},{"ADDRESS":"12500 Ti Blvd","CITY":"Dallas","COMPANY_XRF":"171","COMPANY_ZONE":"U","HQ_COUNTRY":"United States","HQ_COUNTRY_ISO":"US","LATITUDE":32.9110152,"LISTING_XRF":"173","LISTING_ZONE":"U","LONGITUDE":-96.7523904,"NAME":"TEXAS INSTRUMENTS INC","POSTAL_CODE":"75243","SECTOR":"TECH","SHARES":938485000,"SIMILARS_GROUP":"SEMICOND","USD_CAP":107878847885.97107},{"ADDRESS":"4988 Great America Parkway","CITY":"Fort Lauderdale","COMPANY_XRF":"9027","COMPANY_ZONE":"U","HQ_COUNTRY":"United States","HQ_COUNTRY_ISO":"US","LATITUDE":26.205695,"LISTING_XRF":"9757","LISTING_ZONE":"U","LONGITUDE":-80.13851170000001,"NAME":"Citrix Systems Inc","POSTAL_CODE":"33309","SECTOR":"TECH","SHARES":125139700,"SIMILARS_GROUP":"SOFTWARE","USD_CAP":12495198854.051971},{"ADDRESS":"1500 County Rd B2 W Ste 400","CITY":"Golden Valley","COMPANY_XRF":"1248","COMPANY_ZONE":"U","HQ_COUNTRY":"United States","HQ_COUNTRY_ISO":"US","LATITUDE":0,"LISTING_XRF":"1258","LISTING_ZONE":"U","LONGITUDE":0,"NAME":"PENTAIR PLC","POSTAL_CODE":"55113-3105","SECTOR":"BASICIND","SHARES":157654880,"SIMILARS_GROUP":"METAL PR","USD_CAP":5934129586.975098},{"ADDRESS":"4440 Rosewood Dr","CITY":"Dublin","COMPANY_XRF":"4077","COMPANY_ZONE":"U","HQ_COUNTRY":"United States","HQ_COUNTRY_ISO":"US","LATITUDE":37.7103011,"LISTING_XRF":"4228","LISTING_ZONE":"U","LONGITUDE":-121.8899081,"NAME":"ROSS STORES INC","POSTAL_CODE":"94560-3440","SECTOR":"CONSDIS","SHARES":370589000,"SIMILARS_GROUP":"RTL WEAR","USD_CAP":36236191967.62085},{"ADDRESS":"500 Water St 15th Fl","CITY":"Jacksonville","COMPANY_XRF":"97","COMPANY_ZONE":"U","HQ_COUNTRY":"United States","HQ_COUNTRY_ISO":"US","LATITUDE":30.32452109999999,"LISTING_XRF":"98","LISTING_ZONE":"U","LONGITUDE":-81.6640579,"NAME":"Csx Corp","POSTAL_CODE":"23219-4031","SECTOR":"TRANSPRT","SHARES":774848500,"SIMILARS_GROUP":"RAILROAD","USD_CAP":61073558533.535},{"ADDRESS":"22 Cherry Hill Dr","CITY":"Danvers","COMPANY_XRF":"4747","COMPANY_ZONE":"U","HQ_COUNTRY":"United States","HQ_COUNTRY_ISO":"US","LATITUDE":42.5769634,"LISTING_XRF":"4898","LISTING_ZONE":"U","LONGITUDE":-70.9169998,"NAME":"Abiomed Inc","POSTAL_CODE":"01923","SECTOR":"HEALTH","SHARES":45086000,"SIMILARS_GROUP":"MDCL INS","USD_CAP":11764289649.780273},{"ADDRESS":"1301 E 9th St Ste 3710","CITY":"Cleveland","COMPANY_XRF":"14880","COMPANY_ZONE":"U","HQ_COUNTRY":"United States","HQ_COUNTRY_ISO":"US","LATITUDE":41.5050126,"LISTING_XRF":"16664","LISTING_ZONE":"U","LONGITUDE":-81.68969050000001,"NAME":"TransDigm Group Inc","POSTAL_CODE":"44114","SECTOR":"INDUSTRY","SHARES":48665240,"SIMILARS_GROUP":"AIRPARTS","USD_CAP":22742725955.736084},{"ADDRESS":"600 N Dairy Ashford ","CITY":"Bartlesville","COMPANY_XRF":"49","COMPANY_ZONE":"U","HQ_COUNTRY":"United States","HQ_COUNTRY_ISO":"US","LATITUDE":36.7504563,"LISTING_XRF":"50","LISTING_ZONE":"U","LONGITUDE":-95.9779569,"NAME":"CONOCOPHILLIPS","POSTAL_CODE":"74004","SECTOR":"ENERGY","SHARES":1134404000,"SIMILARS_GROUP":"INTG OIL","USD_CAP":75959690801.42212},{"ADDRESS":"1 Cvs Dr","CITY":"Woonsocket","COMPANY_XRF":"209","COMPANY_ZONE":"U","HQ_COUNTRY":"United States","HQ_COUNTRY_ISO":"US","LATITUDE":41.990756,"LISTING_XRF":"211","LISTING_ZONE":"U","LONGITUDE":-71.477265,"NAME":"CVS HEALTH CORP","POSTAL_CODE":"02895","SECTOR":"CONSTAPL","SHARES":1297082000,"SIMILARS_GROUP":"DRUGSTOR","USD_CAP":68006009655.83801},{"ADDRESS":"2200 Don Tyson Parkway","CITY":"Springdale","COMPANY_XRF":"801","COMPANY_ZONE":"U","HQ_COUNTRY":"United States","HQ_COUNTRY_ISO":"US","LATITUDE":36.1540738,"LISTING_XRF":"808","LISTING_ZONE":"U","LONGITUDE":-94.15422129999999,"NAME":"TYSON FOODS INC","POSTAL_CODE":"72762","SECTOR":"CONSTAPL","SHARES":295257000,"SIMILARS_GROUP":"FOOD","USD_CAP":21509471999.47357},{"ADDRESS":"395 Page Mill Rd","CITY":"Palo Alto","COMPANY_XRF":"12126","COMPANY_ZONE":"U","HQ_COUNTRY":"United States","HQ_COUNTRY_ISO":"US","LATITUDE":0,"LISTING_XRF":"13283","LISTING_ZONE":"U","LONGITUDE":0,"NAME":"AGILENT TECHNOLOGIES INC","POSTAL_CODE":"94306-2024","SECTOR":"INDUSTRY","SHARES":317616000,"SIMILARS_GROUP":"MEAS INS","USD_CAP":24002241023.07129},{"ADDRESS":"3000 Hanover Street","CITY":"Palo Alto","COMPANY_XRF":"16450","COMPANY_ZONE":"U","HQ_COUNTRY":"United States","HQ_COUNTRY_ISO":"US","LATITUDE":37.4158716,"LISTING_XRF":"18564","LISTING_ZONE":"U","LONGITUDE":-122.1465855,"NAME":"Hewlett Packard Enterprise Co","POSTAL_CODE":"94304","SECTOR":"","SHARES":1376962000,"SIMILARS_GROUP":"","USD_CAP":22843799790.107727},{"ADDRESS":"PO Box 619100","CITY":"Dallas","COMPANY_XRF":"185","COMPANY_ZONE":"U","HQ_COUNTRY":"United States","HQ_COUNTRY_ISO":"US","LATITUDE":32.8700521,"LISTING_XRF":"187","LISTING_ZONE":"U","LONGITUDE":-96.95055850000001,"NAME":"KIMBERLY CLARK CORP","POSTAL_CODE":"75261","SECTOR":"BASICIND","SHARES":344432000,"SIMILARS_GROUP":"PAPRPROD","USD_CAP":44862268000},{"ADDRESS":"235 E 42nd St","CITY":"New York","COMPANY_XRF":"41","COMPANY_ZONE":"U","HQ_COUNTRY":"United States","HQ_COUNTRY_ISO":"US","LATITUDE":40.7503024,"LISTING_XRF":"42","LISTING_ZONE":"U","LONGITUDE":-73.9726573,"NAME":"PFIZER INC","POSTAL_CODE":"10017","SECTOR":"HEALTH","SHARES":5551805000,"SIMILARS_GROUP":"DRUGS","USD_CAP":216409356358.58536},{"ADDRESS":"1550 Peachtree St NW","CITY":"Atlanta","COMPANY_XRF":"975","COMPANY_ZONE":"U","HQ_COUNTRY":"United States","HQ_COUNTRY_ISO":"US","LATITUDE":33.7963282,"LISTING_XRF":"984","LISTING_ZONE":"U","LONGITUDE":-84.3885861,"NAME":"EQUIFAX INC","POSTAL_CODE":"30309","SECTOR":"BUSINSRV","SHARES":120700000,"SIMILARS_GROUP":"INFO SRV","USD_CAP":15065773963.165283},{"ADDRESS":"1 Liberty Place 1650 Market Street","CITY":"Bloomfield","COMPANY_XRF":"105","COMPANY_ZONE":"U","HQ_COUNTRY":"United States","HQ_COUNTRY_ISO":"US","LATITUDE":0,"LISTING_XRF":"106","LISTING_ZONE":"U","LONGITUDE":0,"NAME":"CIGNA CORP NEW","POSTAL_CODE":"06002","SECTOR":"FINANCE","SHARES":380059000,"SIMILARS_GROUP":"INS MISC","USD_CAP":56244933497.72644},{"ADDRESS":"6140 Stoneridge Mall Rd Ste 590","CITY":"Pleasanton","COMPANY_XRF":"796","COMPANY_ZONE":"U","HQ_COUNTRY":"United States","HQ_COUNTRY_ISO":"US","LATITUDE":37.6976664,"LISTING_XRF":"803","LISTING_ZONE":"U","LONGITUDE":-121.9232041,"NAME":"COOPER COS INC","POSTAL_CODE":"94588","SECTOR":"HEALTH","SHARES":49339000,"SIMILARS_GROUP":"MDCL INS","USD_CAP":14027570969.543457},{"ADDRESS":"1030 Delta Boulevard","CITY":"Atlanta","COMPANY_XRF":"15127","COMPANY_ZONE":"U","HQ_COUNTRY":"United States","HQ_COUNTRY_ISO":"US","LATITUDE":33.6562298,"LISTING_XRF":"17003","LISTING_ZONE":"U","LONGITUDE":-84.4221987,"NAME":"DELTA AIR LINES INC","POSTAL_CODE":"30320","SECTOR":"TRANSPRT","SHARES":617844500,"SIMILARS_GROUP":"AIRLINES","USD_CAP":35680519875},{"ADDRESS":"40 Westminster St","CITY":"Providence","COMPANY_XRF":"257","COMPANY_ZONE":"U","HQ_COUNTRY":"United States","HQ_COUNTRY_ISO":"US","LATITUDE":41.8249766,"LISTING_XRF":"259","LISTING_ZONE":"U","LONGITUDE":-71.40892529999999,"NAME":"Textron Inc","POSTAL_CODE":"02903","SECTOR":"CONSDIS","SHARES":234679000,"SIMILARS_GROUP":"AUTOPART","USD_CAP":12653891250.289917},{"ADDRESS":"4 Irving Pl","CITY":"New York","COMPANY_XRF":"98","COMPANY_ZONE":"U","HQ_COUNTRY":"United States","HQ_COUNTRY_ISO":"US","LATITUDE":40.7340768,"LISTING_XRF":"99","LISTING_ZONE":"U","LONGITUDE":-73.98789459999999,"NAME":"CONSOLIDATED EDISON CO OF NEW YORK","POSTAL_CODE":"10003","SECTOR":"ENERGY","SHARES":321077000,"SIMILARS_GROUP":"WHLSE OL","USD_CAP":26925517415.96985},{"ADDRESS":"10801 Corporate Dr","CITY":"Kenosha","COMPANY_XRF":"551","COMPANY_ZONE":"U","HQ_COUNTRY":"United States","HQ_COUNTRY_ISO":"US","LATITUDE":42.5570789,"LISTING_XRF":"556","LISTING_ZONE":"U","LONGITUDE":-87.84331069999999,"NAME":"Snap-On Inc","POSTAL_CODE":"53143","SECTOR":"BASICIND","SHARES":55616000,"SIMILARS_GROUP":"METAL PR","USD_CAP":9366290763.671875},{"ADDRESS":"76 S Main St","CITY":"Akron","COMPANY_XRF":"241","COMPANY_ZONE":"U","HQ_COUNTRY":"United States","HQ_COUNTRY_ISO":"US","LATITUDE":41.0834275,"LISTING_XRF":"243","LISTING_ZONE":"U","LONGITUDE":-81.5185695,"NAME":"FIRSTENERGY CORP","POSTAL_CODE":"44308","SECTOR":"UTILS","SHARES":503644400,"SIMILARS_GROUP":"ELECTRIC","USD_CAP":20442926272.850037},{"ADDRESS":"1 Bowerman Dr","CITY":"Beaverton","COMPANY_XRF":"768","COMPANY_ZONE":"U","HQ_COUNTRY":"United States","HQ_COUNTRY_ISO":"US","LATITUDE":45.5077764,"LISTING_XRF":"775","LISTING_ZONE":"U","LONGITUDE":-122.8281466,"NAME":"NIKE Inc","POSTAL_CODE":"97005","SECTOR":"CONSDIS","SHARES":1258773000,"SIMILARS_GROUP":"LEATHER","USD_CAP":109966410048.29407},{"ADDRESS":"1840 Century Park E","CITY":"Falls Church","COMPANY_XRF":"204","COMPANY_ZONE":"U","HQ_COUNTRY":"United States","HQ_COUNTRY_ISO":"US","LATITUDE":38.8671114,"LISTING_XRF":"206","LISTING_ZONE":"U","LONGITUDE":-77.2148893,"NAME":"NORTHROP GRUMMAN CORP","POSTAL_CODE":"22042","SECTOR":"INDUSTRY","SHARES":169738000,"SIMILARS_GROUP":"AIRPARTS","USD_CAP":48017185306.396484},{"ADDRESS":"330 S 4th St","CITY":"Baton Rouge","COMPANY_XRF":"7643","COMPANY_ZONE":"U","HQ_COUNTRY":"United States","HQ_COUNTRY_ISO":"US","LATITUDE":-2.000000120208743,"LISTING_XRF":"6714","LISTING_ZONE":"U","LONGITUDE":0,"NAME":"Albemarle Corp","POSTAL_CODE":"23219-4350","SECTOR":"BASICIND","SHARES":105754000,"SIMILARS_GROUP":"CHEMICAL","USD_CAP":8689805986.358643},{"ADDRESS":"PO Box 8999","CITY":"San Francisco","COMPANY_XRF":"15310","COMPANY_ZONE":"U","HQ_COUNTRY":"United States","HQ_COUNTRY_ISO":"US","LATITUDE":0,"LISTING_XRF":"17246","LISTING_ZONE":"U","LONGITUDE":0,"NAME":"Visa Inc","POSTAL_CODE":"94128","SECTOR":"TECH","SHARES":1750177000,"SIMILARS_GROUP":"SOFTWARE","USD_CAP":280728380117.76733},{"ADDRESS":"170\/175 Lakeview Dr,  Swords Co","CITY":"Dublin","COMPANY_XRF":"447","COMPANY_ZONE":"U","HQ_COUNTRY":"United States","HQ_COUNTRY_ISO":"US","LATITUDE":53.4493569,"LISTING_XRF":"450","LISTING_ZONE":"U","LONGITUDE":-6.2184183,"NAME":"INGERSOLL-RAND PLC","POSTAL_CODE":"07675-7700","SECTOR":"BASICIND","SHARES":242169000,"SIMILARS_GROUP":"METAL PR","USD_CAP":27333615695.137024},{"ADDRESS":"250 Greenwich St","CITY":"New York","COMPANY_XRF":"64","COMPANY_ZONE":"U","HQ_COUNTRY":"United States","HQ_COUNTRY_ISO":"US","LATITUDE":40.7134088,"LISTING_XRF":"65","LISTING_ZONE":"U","LONGITUDE":-74.011926,"NAME":"Moody's Corp","POSTAL_CODE":"10007","SECTOR":"BUSINSRV","SHARES":166170000,"SIMILARS_GROUP":"INFO SRV","USD_CAP":31254914691.467285},{"ADDRESS":"16505 SW 72nd Ave","CITY":"Portland","COMPANY_XRF":"7788","COMPANY_ZONE":"U","HQ_COUNTRY":"United States","HQ_COUNTRY_ISO":"US","LATITUDE":0,"LISTING_XRF":"8418","LISTING_ZONE":"U","LONGITUDE":0,"NAME":"FLIR Systems Inc","POSTAL_CODE":"97070","SECTOR":"INDUSTRY","SHARES":135467000,"SIMILARS_GROUP":"INSTRMNT","USD_CAP":6751675300.670624},{"ADDRESS":"201 Merritt 7","CITY":"Norwalk","COMPANY_XRF":"76","COMPANY_ZONE":"U","HQ_COUNTRY":"United States","HQ_COUNTRY_ISO":"US","LATITUDE":41.1502284,"LISTING_XRF":"77","LISTING_ZONE":"U","LONGITUDE":-73.42614809999999,"NAME":"XEROX CORP","POSTAL_CODE":"06850-1203","SECTOR":"TECH","SHARES":199861620,"SIMILARS_GROUP":"PERIPHER","USD_CAP":6757321646.668167},{"ADDRESS":"745 Atlantic Ave","CITY":"Boston","COMPANY_XRF":"9299","COMPANY_ZONE":"U","HQ_COUNTRY":"United States","HQ_COUNTRY_ISO":"US","LATITUDE":0,"LISTING_XRF":"10046","LISTING_ZONE":"U","LONGITUDE":0,"NAME":"Iron Mountain Inc","POSTAL_CODE":"02110","SECTOR":"TRANSPRT","SHARES":286366000,"SIMILARS_GROUP":"TRUCKING","USD_CAP":10137356836.959839},{"ADDRESS":"2999 Cir 75 Pkwy","CITY":"Atlanta","COMPANY_XRF":"291","COMPANY_ZONE":"U","HQ_COUNTRY":"United States","HQ_COUNTRY_ISO":"US","LATITUDE":33.9108539,"LISTING_XRF":"293","LISTING_ZONE":"U","LONGITUDE":-84.456178,"NAME":"GENUINE PARTS CO","POSTAL_CODE":"30339","SECTOR":"BUSINSRV","SHARES":145944000,"SIMILARS_GROUP":"WHLSE TR","USD_CAP":15127095822.692871},{"ADDRESS":"7628 Thorndike Rd","CITY":"Greensboro","COMPANY_XRF":"16333","COMPANY_ZONE":"U","HQ_COUNTRY":"United States","HQ_COUNTRY_ISO":"US","LATITUDE":36.0763408,"LISTING_XRF":"18430","LISTING_ZONE":"U","LONGITUDE":-79.9651702,"NAME":"QORVO INC","POSTAL_CODE":"27409","SECTOR":"","SHARES":122789000,"SIMILARS_GROUP":"","USD_CAP":9333192152.305603},{"ADDRESS":"Lilly Corporate Center","CITY":"Indianapolis","COMPANY_XRF":"61","COMPANY_ZONE":"U","HQ_COUNTRY":"United States","HQ_COUNTRY_ISO":"US","LATITUDE":0,"LISTING_XRF":"62","LISTING_ZONE":"U","LONGITUDE":0,"NAME":"Eli Lilly & Co","POSTAL_CODE":"46285","SECTOR":"HEALTH","SHARES":863672020,"SIMILARS_GROUP":"DRUGS","USD_CAP":99728209203.68713},{"ADDRESS":"2030 Dow Center","CITY":"Midland","COMPANY_XRF":"16824","COMPANY_ZONE":"U","HQ_COUNTRY":"United States","HQ_COUNTRY_ISO":"US","LATITUDE":0,"LISTING_XRF":"19004","LISTING_ZONE":"U","LONGITUDE":0,"NAME":"DOWDUPONT INC","POSTAL_CODE":"48674","SECTOR":"","SHARES":2254762000,"SIMILARS_GROUP":"","USD_CAP":86402479151.90125},{"ADDRESS":"141 Spring St","CITY":"Lexington","COMPANY_XRF":"99","COMPANY_ZONE":"U","HQ_COUNTRY":"United States","HQ_COUNTRY_ISO":"US","LATITUDE":0,"LISTING_XRF":"100","LISTING_ZONE":"U","LONGITUDE":0,"NAME":"Raytheon Co","POSTAL_CODE":"02421-7899","SECTOR":"TECH","SHARES":282239000,"SIMILARS_GROUP":"ETRON CM","USD_CAP":51508617500},{"ADDRESS":"702 S.W. 8th Street","CITY":"Bentonville","COMPANY_XRF":"48","COMPANY_ZONE":"U","HQ_COUNTRY":"United States","HQ_COUNTRY_ISO":"US","LATITUDE":36.3648645,"LISTING_XRF":"49","LISTING_ZONE":"U","LONGITUDE":-94.2176775,"NAME":"WALMART INC","POSTAL_CODE":"72716","SECTOR":"CONSDIS","SHARES":1423577400,"SIMILARS_GROUP":"RTL DISC","USD_CAP":145731622347.9721},{"ADDRESS":"170 W Tasman Dr","CITY":"San Jose","COMPANY_XRF":"5472","COMPANY_ZONE":"U","HQ_COUNTRY":"United States","HQ_COUNTRY_ISO":"US","LATITUDE":37.4117327,"LISTING_XRF":"5705","LISTING_ZONE":"U","LONGITUDE":-121.9291762,"NAME":"CISCO SYSTEMS INC","POSTAL_CODE":"95134","SECTOR":"TECH","SHARES":4402028000,"SIMILARS_GROUP":"NETWORKS","USD_CAP":248010258191.69617},{"ADDRESS":"11 Devonshire Square","CITY":"Atlanta","COMPANY_XRF":"15277","COMPANY_ZONE":"U","HQ_COUNTRY":"United States","HQ_COUNTRY_ISO":"US","LATITUDE":0,"LISTING_XRF":"17194","LISTING_ZONE":"U","LONGITUDE":0,"NAME":"Invesco Ltd","POSTAL_CODE":"30309","SECTOR":"FINANCE","SHARES":397072000,"SIMILARS_GROUP":"INVSTMAN","USD_CAP":8489399026.763916},{"ADDRESS":"1221 Broadway ","CITY":"Oakland","COMPANY_XRF":"476","COMPANY_ZONE":"U","HQ_COUNTRY":"United States","HQ_COUNTRY_ISO":"US","LATITUDE":37.80358210000001,"LISTING_XRF":"479","LISTING_ZONE":"U","LONGITUDE":-122.2721165,"NAME":"Clorox Co","POSTAL_CODE":"94612","SECTOR":"CONSTAPL","SHARES":128164000,"SIMILARS_GROUP":"PRP FOOD","USD_CAP":19802618935.97412},{"ADDRESS":"1000 Nicollet Mall","CITY":"Minneapolis","COMPANY_XRF":"112","COMPANY_ZONE":"U","HQ_COUNTRY":"United States","HQ_COUNTRY_ISO":"US","LATITUDE":44.9748915,"LISTING_XRF":"113","LISTING_ZONE":"U","LONGITUDE":-93.2743017,"NAME":"Target Corp","POSTAL_CODE":"55403","SECTOR":"FINANCE","SHARES":521834000,"SIMILARS_GROUP":"CREDIT","USD_CAP":42800822928.237915},{"ADDRESS":"1000 Mylan Boulevard","CITY":"Canonsburg","COMPANY_XRF":"790","COMPANY_ZONE":"U","HQ_COUNTRY":"United States","HQ_COUNTRY_ISO":"US","LATITUDE":39.65911759999999,"LISTING_XRF":"797","LISTING_ZONE":"U","LONGITUDE":-79.9574911,"NAME":"Mylan NV","POSTAL_CODE":"15222-3463","SECTOR":"HEALTH","SHARES":515631000,"SIMILARS_GROUP":"DRUGS","USD_CAP":13777659965.94429},{"ADDRESS":"One Procter & Gamble Plaza","CITY":"Cincinnati","COMPANY_XRF":"26","COMPANY_ZONE":"U","HQ_COUNTRY":"United States","HQ_COUNTRY_ISO":"US","LATITUDE":0,"LISTING_XRF":"27","LISTING_ZONE":"U","LONGITUDE":0,"NAME":"PROCTER & GAMBLE","POSTAL_CODE":"45202","SECTOR":"HEALTH","SHARES":2501580000,"SIMILARS_GROUP":"DRUGS","USD_CAP":265192501143.95142},{"ADDRESS":"4666 E Faries Pkwy Box 1470","CITY":"Chicago","COMPANY_XRF":"229","COMPANY_ZONE":"U","HQ_COUNTRY":"United States","HQ_COUNTRY_ISO":"US","LATITUDE":39.8651177,"LISTING_XRF":"231","LISTING_ZONE":"U","LONGITUDE":-88.8872619,"NAME":"ARCHER DANIELS MIDLAND CO","POSTAL_CODE":"60601","SECTOR":"BASICIND","SHARES":560089000,"SIMILARS_GROUP":"AGRIBUS","USD_CAP":23893396654.5372},{"ADDRESS":"100 NE Adams St","CITY":"Deerfield","COMPANY_XRF":"121","COMPANY_ZONE":"U","HQ_COUNTRY":"United States","HQ_COUNTRY_ISO":"US","LATITUDE":42.1556838,"LISTING_XRF":"122","LISTING_ZONE":"U","LONGITUDE":-87.8408682,"NAME":"CATERPILLAR INC","POSTAL_CODE":"60015","SECTOR":"INDUSTRY","SHARES":575543000,"SIMILARS_GROUP":"CNST MCH","USD_CAP":81945815150.26855},{"ADDRESS":"150 N Orange Grove Blvd","CITY":"Glendale","COMPANY_XRF":"629","COMPANY_ZONE":"U","HQ_COUNTRY":"United States","HQ_COUNTRY_ISO":"US","LATITUDE":34.1570786,"LISTING_XRF":"636","LISTING_ZONE":"U","LONGITUDE":-118.256822,"NAME":"AVERY DENNISON CORP","POSTAL_CODE":"91103-3534","SECTOR":"BASICIND","SHARES":83981000,"SIMILARS_GROUP":"PAPRPROD","USD_CAP":9564596038.742065},{"ADDRESS":"10200 Bellaire Boulevard","CITY":"Dallas","COMPANY_XRF":"148","COMPANY_ZONE":"U","HQ_COUNTRY":"United States","HQ_COUNTRY_ISO":"US","LATITUDE":29.7065033,"LISTING_XRF":"150","LISTING_ZONE":"U","LONGITUDE":-95.56182849999999,"NAME":"Halliburton Co","POSTAL_CODE":"75201-3391","SECTOR":"ENERGY","SHARES":872543000,"SIMILARS_GROUP":"OIL DRIL","USD_CAP":27127362003.139496},{"ADDRESS":"100 Winchester Cir","CITY":"Los Gatos","COMPANY_XRF":"13957","COMPANY_ZONE":"U","HQ_COUNTRY":"United States","HQ_COUNTRY_ISO":"US","LATITUDE":37.259585,"LISTING_XRF":"15469","LISTING_ZONE":"U","LONGITUDE":-121.962695,"NAME":"NetFlix Inc","POSTAL_CODE":"95032","SECTOR":"CONSDIS","SHARES":436599000,"SIMILARS_GROUP":"RTL.INET","USD_CAP":164746265061.1267},{"ADDRESS":"1100 Park Place, Suite 200","CITY":"Palo Alto","COMPANY_XRF":"8452","COMPANY_ZONE":"U","HQ_COUNTRY":"United States","HQ_COUNTRY_ISO":"US","LATITUDE":37.5449477,"LISTING_XRF":"9072","LISTING_ZONE":"U","LONGITUDE":-122.2907963,"NAME":"Essex Property Trust Inc.","POSTAL_CODE":"94303","SECTOR":"REALEST","SHARES":65692000,"SIMILARS_GROUP":"REIT","USD_CAP":18076468522.094727},{"ADDRESS":"777 - 106th Avenue N.E.","CITY":"Bellevue","COMPANY_XRF":"543","COMPANY_ZONE":"U","HQ_COUNTRY":"United States","HQ_COUNTRY_ISO":"US","LATITUDE":47.6166867,"LISTING_XRF":"547","LISTING_ZONE":"U","LONGITUDE":-122.1995617,"NAME":"Paccar Inc","POSTAL_CODE":"98004","SECTOR":"INDUSTRY","SHARES":346718000,"SIMILARS_GROUP":"CNST MCH","USD_CAP":24662050387.71057},{"ADDRESS":"155 S Limerick Rd","CITY":"Limerick","COMPANY_XRF":"1425","COMPANY_ZONE":"U","HQ_COUNTRY":"United States","HQ_COUNTRY_ISO":"US","LATITUDE":40.0773358,"LISTING_XRF":"1437","LISTING_ZONE":"U","LONGITUDE":-75.417767,"NAME":"Teleflex Inc","POSTAL_CODE":"19087","SECTOR":"HEALTH","SHARES":46020000,"SIMILARS_GROUP":"MDCL INS","USD_CAP":12634331193.237305},{"ADDRESS":"1 Infinite Loop","CITY":"Cupertino","COMPANY_XRF":"287","COMPANY_ZONE":"U","HQ_COUNTRY":"United States","HQ_COUNTRY_ISO":"US","LATITUDE":37.3316756,"LISTING_XRF":"289","LISTING_ZONE":"U","LONGITUDE":-122.030189,"NAME":"APPLE INC","POSTAL_CODE":"95014","SECTOR":"TECH","SHARES":4479516000,"SIMILARS_GROUP":"COMPUTER","USD_CAP":916195402011.8408},{"ADDRESS":"100 College Street","CITY":"Boston","COMPANY_XRF":"10197","COMPANY_ZONE":"U","HQ_COUNTRY":"United States","HQ_COUNTRY_ISO":"US","LATITUDE":42.3510789,"LISTING_XRF":"11078","LISTING_ZONE":"U","LONGITUDE":-71.04447809999999,"NAME":"Alexion Pharmaceuticals Inc","POSTAL_CODE":"02210","SECTOR":"HEALTH","SHARES":223469000,"SIMILARS_GROUP":"BIOTECH","USD_CAP":28818563740.341187},{"ADDRESS":"2702 Love Field Drive","CITY":"Dallas","COMPANY_XRF":"537","COMPANY_ZONE":"U","HQ_COUNTRY":"United States","HQ_COUNTRY_ISO":"US","LATITUDE":32.8452861,"LISTING_XRF":"541","LISTING_ZONE":"U","LONGITUDE":-96.8623949,"NAME":"Southwest Airlines C","POSTAL_CODE":"75235","SECTOR":"TRANSPRT","SHARES":497420100,"SIMILARS_GROUP":"AIRLINES","USD_CAP":25721592915.598297},{"ADDRESS":"660 Main St","CITY":"Sturbridge","COMPANY_XRF":"15144","COMPANY_ZONE":"U","HQ_COUNTRY":"United States","HQ_COUNTRY_ISO":"US","LATITUDE":42.081183,"LISTING_XRF":"17023","LISTING_ZONE":"U","LONGITUDE":-71.88113,"NAME":"IPG PHOTONICS CORP","POSTAL_CODE":"01518-1259","SECTOR":"TECH","SHARES":35484540,"SIMILARS_GROUP":"SEMICOND","USD_CAP":6264795645.290222},{"ADDRESS":"1 Merck Dr","CITY":"Kenilworth","COMPANY_XRF":"39","COMPANY_ZONE":"U","HQ_COUNTRY":"United States","HQ_COUNTRY_ISO":"US","LATITUDE":0,"LISTING_XRF":"40","LISTING_ZONE":"U","LONGITUDE":0,"NAME":"MERCK & CO INC","POSTAL_CODE":"07033","SECTOR":"HEALTH","SHARES":2581220000,"SIMILARS_GROUP":"DRUGS","USD_CAP":189616418836.8225},{"ADDRESS":"1014 Vine St","CITY":"Cincinnati","COMPANY_XRF":"277","COMPANY_ZONE":"U","HQ_COUNTRY":"United States","HQ_COUNTRY_ISO":"US","LATITUDE":39.1067628,"LISTING_XRF":"279","LISTING_ZONE":"U","LONGITUDE":-84.513954,"NAME":"Kroger Co\/The","POSTAL_CODE":"45202","SECTOR":"CONSTAPL","SHARES":797743000,"SIMILARS_GROUP":"GROCERY","USD_CAP":20342446500},{"ADDRESS":"1114 Avenue Of The Americas","CITY":"New York","COMPANY_XRF":"866","COMPANY_ZONE":"U","HQ_COUNTRY":"United States","HQ_COUNTRY_ISO":"US","LATITUDE":0,"LISTING_XRF":"874","LISTING_ZONE":"U","LONGITUDE":0,"NAME":"Interpublic Group of Cos Inc","POSTAL_CODE":"10020-1300","SECTOR":"BUSINSRV","SHARES":384913000,"SIMILARS_GROUP":"ADS","USD_CAP":8645145627.601624},{"ADDRESS":"2200 Mission College Blvd","CITY":"Santa Clara","COMPANY_XRF":"149","COMPANY_ZONE":"U","HQ_COUNTRY":"United States","HQ_COUNTRY_ISO":"US","LATITUDE":37.3875909,"LISTING_XRF":"151","LISTING_ZONE":"U","LONGITUDE":-121.9637869,"NAME":"INTEL CORP","POSTAL_CODE":"95052-8119","SECTOR":"TECH","SHARES":4497000000,"SIMILARS_GROUP":"SEMICOND","USD_CAP":264513538627.6245},{"ADDRESS":"1 N Central Ave","CITY":"New Orleans","COMPANY_XRF":"4053","COMPANY_ZONE":"U","HQ_COUNTRY":"United States","HQ_COUNTRY_ISO":"US","LATITUDE":33.4516712,"LISTING_XRF":"2530","LISTING_ZONE":"U","LONGITUDE":-112.073049,"NAME":"FREEPORT-MCMORAN INC","POSTAL_CODE":"70112-1254","SECTOR":"BASICIND","SHARES":1449034000,"SIMILARS_GROUP":"MINERALS","USD_CAP":19779313547.237396},{"ADDRESS":"2900 Eisenhower Ave Ste 300","CITY":"Alexandria","COMPANY_XRF":"8286","COMPANY_ZONE":"U","HQ_COUNTRY":"United States","HQ_COUNTRY_ISO":"US","LATITUDE":0,"LISTING_XRF":"8904","LISTING_ZONE":"U","LONGITUDE":0,"NAME":"AvalonBay Communities Inc","POSTAL_CODE":"22203","SECTOR":"REALEST","SHARES":138509000,"SIMILARS_GROUP":"REIT","USD_CAP":26822267004.608154},{"ADDRESS":"700 Universe Blvd","CITY":"Juno Beach","COMPANY_XRF":"175","COMPANY_ZONE":"U","HQ_COUNTRY":"United States","HQ_COUNTRY_ISO":"US","LATITUDE":26.8592458,"LISTING_XRF":"177","LISTING_ZONE":"U","LONGITUDE":-80.0583839,"NAME":"NEXTERA ENERGY INC","POSTAL_CODE":"33408","SECTOR":"UTILS","SHARES":478168000,"SIMILARS_GROUP":"ELECTRIC","USD_CAP":91033626174.80469},{"ADDRESS":"1 Park Plaza","CITY":"Nashville","COMPANY_XRF":"15946","COMPANY_ZONE":"U","HQ_COUNTRY":"United States","HQ_COUNTRY_ISO":"US","LATITUDE":36.1536774,"LISTING_XRF":"18014","LISTING_ZONE":"U","LONGITUDE":-86.8138175,"NAME":"HCA HEALTHCARE INC","POSTAL_CODE":"37203","SECTOR":"HEALTH","SHARES":267054060,"SIMILARS_GROUP":"HOSPITAL","USD_CAP":30711216900},{"ADDRESS":"1 Financial Plz","CITY":"Farmington","COMPANY_XRF":"78","COMPANY_ZONE":"U","HQ_COUNTRY":"United States","HQ_COUNTRY_ISO":"US","LATITUDE":41.7122183,"LISTING_XRF":"79","LISTING_ZONE":"U","LONGITUDE":-72.80407079999999,"NAME":"UNITED TECHNOLOGIES CORP","POSTAL_CODE":"06032","SECTOR":"INDUSTRY","SHARES":810592080,"SIMILARS_GROUP":"MACHINES","USD_CAP":110978161672.8},{"ADDRESS":"1 John Deere Pl","CITY":"Moline","COMPANY_XRF":"245","COMPANY_ZONE":"U","HQ_COUNTRY":"United States","HQ_COUNTRY_ISO":"US","LATITUDE":0,"LISTING_XRF":"247","LISTING_ZONE":"U","LONGITUDE":0,"NAME":"Deere & Co","POSTAL_CODE":"61265","SECTOR":"INDUSTRY","SHARES":318493000,"SIMILARS_GROUP":"FARM MCH","USD_CAP":53873089006.073},{"ADDRESS":"2450 Bayshore Pkwy","CITY":"Foster City","COMPANY_XRF":"13162","COMPANY_ZONE":"U","HQ_COUNTRY":"United States","HQ_COUNTRY_ISO":"US","LATITUDE":0,"LISTING_XRF":"14124","LISTING_ZONE":"U","LONGITUDE":0,"NAME":"Equinix Inc","POSTAL_CODE":"94043-1107","SECTOR":"REALEST","SHARES":83318000,"SIMILARS_GROUP":"REIT","USD_CAP":37262310055.35889},{"ADDRESS":"500 Clinton Center Dr","CITY":"Clinton","COMPANY_XRF":"193","COMPANY_ZONE":"U","HQ_COUNTRY":"United States","HQ_COUNTRY_ISO":"US","LATITUDE":0,"LISTING_XRF":"195","LISTING_ZONE":"U","LONGITUDE":0,"NAME":"ENTERGY CORP NEW","POSTAL_CODE":"39056-5630","SECTOR":"UTILS","SHARES":189581000,"SIMILARS_GROUP":"ELECTRIC","USD_CAP":17752364724.28894},{"ADDRESS":"1201 S 2nd St","CITY":"Milwaukee","COMPANY_XRF":"59","COMPANY_ZONE":"U","HQ_COUNTRY":"United States","HQ_COUNTRY_ISO":"US","LATITUDE":43.0185625,"LISTING_XRF":"60","LISTING_ZONE":"U","LONGITUDE":-87.9133706,"NAME":"ROCKWELL AUTOMATION INC","POSTAL_CODE":"53202-5302","SECTOR":"INDUSTRY","SHARES":119544000,"SIMILARS_GROUP":"MACHINES","USD_CAP":22636851912.963867},{"ADDRESS":"One Citizens Plaza","CITY":"Providence","COMPANY_XRF":"16390","COMPANY_ZONE":"U","HQ_COUNTRY":"United States","HQ_COUNTRY_ISO":"US","LATITUDE":41.8274346,"LISTING_XRF":"18489","LISTING_ZONE":"U","LONGITUDE":-71.4107334,"NAME":"Citizens Financial Group Inc","POSTAL_CODE":"02903","SECTOR":"","SHARES":460390000,"SIMILARS_GROUP":"","USD_CAP":16435923351.249695},{"ADDRESS":"6800 Cintas Blvd","CITY":"Cincinnati","COMPANY_XRF":"1166","COMPANY_ZONE":"U","HQ_COUNTRY":"United States","HQ_COUNTRY_ISO":"US","LATITUDE":39.34118160000001,"LISTING_XRF":"1176","LISTING_ZONE":"U","LONGITUDE":-84.282986,"NAME":"Cintas Corp","POSTAL_CODE":"45262","SECTOR":"CONSDIS","SHARES":84680640,"SIMILARS_GROUP":"APPAREL","USD_CAP":17848138854.594727},{"ADDRESS":"575 Market St","CITY":"San Francisco","COMPANY_XRF":"11","COMPANY_ZONE":"U","HQ_COUNTRY":"United States","HQ_COUNTRY_ISO":"US","LATITUDE":0,"LISTING_XRF":"12","LISTING_ZONE":"U","LONGITUDE":0,"NAME":"Chevron Corp","POSTAL_CODE":"94105-2823","SECTOR":"ENERGY","SHARES":1900063000,"SIMILARS_GROUP":"COAL","USD_CAP":231617682599.26605},{"ADDRESS":"1303 E Algonquin Rd","CITY":"Chicago","COMPANY_XRF":"95","COMPANY_ZONE":"U","HQ_COUNTRY":"United States","HQ_COUNTRY_ISO":"US","LATITUDE":42.0623745,"LISTING_XRF":"96","LISTING_ZONE":"U","LONGITUDE":-88.0524223,"NAME":"Motorola Solutions Inc","POSTAL_CODE":"60196","SECTOR":"TECH","SHARES":163871000,"SIMILARS_GROUP":"TLCOM EQ","USD_CAP":23617087719.848633},{"ADDRESS":"1 General Mills Blvd","CITY":"Minneapolis","COMPANY_XRF":"195","COMPANY_ZONE":"U","HQ_COUNTRY":"United States","HQ_COUNTRY_ISO":"US","LATITUDE":44.9767123,"LISTING_XRF":"197","LISTING_ZONE":"U","LONGITUDE":-93.3979445,"NAME":"General Mills Inc","POSTAL_CODE":"55426","SECTOR":"CONSTAPL","SHARES":596749000,"SIMILARS_GROUP":"FOOD","USD_CAP":30881760750},{"ADDRESS":"2535 Garcia Ave","CITY":"Mountain View","COMPANY_XRF":"7491","COMPANY_ZONE":"U","HQ_COUNTRY":"United States","HQ_COUNTRY_ISO":"US","LATITUDE":37.42696310000001,"LISTING_XRF":"8124","LISTING_ZONE":"U","LONGITUDE":-122.0966014,"NAME":"Intuit Inc","POSTAL_CODE":"94043","SECTOR":"TECH","SHARES":259073000,"SIMILARS_GROUP":"SOFTWARE","USD_CAP":67770905121.24634},{"ADDRESS":"5 Hanover Quay, Grand Canal Dock","CITY":"Dublin","COMPANY_XRF":"15998","COMPANY_ZONE":"U","HQ_COUNTRY":"United States","HQ_COUNTRY_ISO":"US","LATITUDE":0,"LISTING_XRF":"18073","LISTING_ZONE":"U","LONGITUDE":0,"NAME":"APTIV PLC","POSTAL_CODE":"2","SECTOR":"INDUSTRY","SHARES":260035000,"SIMILARS_GROUP":"TV,HIFI","USD_CAP":23335540900.000004},{"ADDRESS":"2725 Fairfield Rd","CITY":"Kalamazoo","COMPANY_XRF":"1437","COMPANY_ZONE":"U","HQ_COUNTRY":"United States","HQ_COUNTRY_ISO":"US","LATITUDE":42.2428207,"LISTING_XRF":"1450","LISTING_ZONE":"U","LONGITUDE":-85.55533969999999,"NAME":"Stryker Corp","POSTAL_CODE":"49002","SECTOR":"HEALTH","SHARES":309311950,"SIMILARS_GROUP":"MDCL INS","USD_CAP":56344265944.73419},{"ADDRESS":"1 International Drive","CITY":"Rye Brook","COMPANY_XRF":"15938","COMPANY_ZONE":"U","HQ_COUNTRY":"United States","HQ_COUNTRY_ISO":"US","LATITUDE":41.0501239,"LISTING_XRF":"18006","LISTING_ZONE":"U","LONGITUDE":-73.6879769,"NAME":"XYLEM INC","POSTAL_CODE":"10573","SECTOR":"INDUSTRY","SHARES":179553000,"SIMILARS_GROUP":"MACHINES","USD_CAP":14990879586.43341},{"ADDRESS":"100 Abbott Park Rd","CITY":"Abbott Park","COMPANY_XRF":"50","COMPANY_ZONE":"U","HQ_COUNTRY":"United States","HQ_COUNTRY_ISO":"US","LATITUDE":42.310037,"LISTING_XRF":"51","LISTING_ZONE":"U","LONGITUDE":-87.896711,"NAME":"ABBOTT LABS","POSTAL_CODE":"60064","SECTOR":"CONSTAPL","SHARES":1756333000,"SIMILARS_GROUP":"FOOD","USD_CAP":130864375581.93207},{"ADDRESS":"942 S Shady Grove Rd","CITY":"Memphis","COMPANY_XRF":"205","COMPANY_ZONE":"U","HQ_COUNTRY":"United States","HQ_COUNTRY_ISO":"US","LATITUDE":35.10565,"LISTING_XRF":"207","LISTING_ZONE":"U","LONGITUDE":-89.8583139,"NAME":"FedEx Corp","POSTAL_CODE":"38120","SECTOR":"TRANSPRT","SHARES":240160480,"SIMILARS_GROUP":"TRUCKING","USD_CAP":47066649844.32373},{"ADDRESS":"3 Limited Pkwy","CITY":"Columbus","COMPANY_XRF":"170","COMPANY_ZONE":"U","HQ_COUNTRY":"United States","HQ_COUNTRY_ISO":"US","LATITUDE":40.0543384,"LISTING_XRF":"172","LISTING_ZONE":"U","LONGITUDE":-82.89688149999999,"NAME":"L Brands Inc","POSTAL_CODE":"43216","SECTOR":"CONSDIS","SHARES":228353750,"SIMILARS_GROUP":"RTL SPEC","USD_CAP":5676874364.376068},{"ADDRESS":"1 S Main St 15th Fl","CITY":"Salt Lake City","COMPANY_XRF":"1274","COMPANY_ZONE":"U","HQ_COUNTRY":"United States","HQ_COUNTRY_ISO":"US","LATITUDE":40.76908299999999,"LISTING_XRF":"1284","LISTING_ZONE":"U","LONGITUDE":-111.890529,"NAME":"ZIONS BANCORPORATION N A","POSTAL_CODE":"84111-1904","SECTOR":"FINANCE","SHARES":186160000,"SIMILARS_GROUP":"S&L","USD_CAP":8695533429.56543},{"ADDRESS":"420 Lexington Ave","CITY":"New York","COMPANY_XRF":"10833","COMPANY_ZONE":"U","HQ_COUNTRY":"United States","HQ_COUNTRY_ISO":"US","LATITUDE":40.7526842,"LISTING_XRF":"11740","LISTING_ZONE":"U","LONGITUDE":-73.9759022,"NAME":"SL GREEN RLTY CORP","POSTAL_CODE":"10170","SECTOR":"REALEST","SHARES":83684000,"SIMILARS_GROUP":"REIT","USD_CAP":7280508000},{"ADDRESS":"545 Washington Blvd","CITY":"Jersey City","COMPANY_XRF":"15688","COMPANY_ZONE":"U","HQ_COUNTRY":"United States","HQ_COUNTRY_ISO":"US","LATITUDE":40.7277521,"LISTING_XRF":"17726","LISTING_ZONE":"U","LONGITUDE":-74.0353074,"NAME":"Verisk Analytics Inc","POSTAL_CODE":"07310","SECTOR":"BUSINSRV","SHARES":163510000,"SIMILARS_GROUP":"INS BROK","USD_CAP":22505516300.201416},{"ADDRESS":"1200 Urban Center Dr","CITY":"Birmingham","COMPANY_XRF":"481","COMPANY_ZONE":"U","HQ_COUNTRY":"United States","HQ_COUNTRY_ISO":"US","LATITUDE":33.48225499999999,"LISTING_XRF":"484","LISTING_ZONE":"U","LONGITUDE":-86.7052808,"NAME":"Vulcan Materials Co","POSTAL_CODE":"35242","SECTOR":"ENERGY","SHARES":131831000,"SIMILARS_GROUP":"OIL RFNG","USD_CAP":16250806927.452087},{"ADDRESS":"1221 Avenue Of The Americas","CITY":"New York","COMPANY_XRF":"202","COMPANY_ZONE":"U","HQ_COUNTRY":"United States","HQ_COUNTRY_ISO":"US","LATITUDE":0,"LISTING_XRF":"204","LISTING_ZONE":"U","LONGITUDE":0,"NAME":"S&P GLOBAL INC","POSTAL_CODE":"10020","SECTOR":"CONSDIS","SHARES":248600000,"SIMILARS_GROUP":"PUBLISHI","USD_CAP":53985976910.40039},{"ADDRESS":"888 7th Ave","CITY":"New York","COMPANY_XRF":"1574","COMPANY_ZONE":"U","HQ_COUNTRY":"United States","HQ_COUNTRY_ISO":"US","LATITUDE":40.7652747,"LISTING_XRF":"1587","LISTING_ZONE":"U","LONGITUDE":-73.9807922,"NAME":"VORNADO RLTY TR","POSTAL_CODE":"10019","SECTOR":"REALEST","SHARES":173386850,"SIMILARS_GROUP":"REIT","USD_CAP":11793772954.951859},{"ADDRESS":"400 Atlantic Street","CITY":"Memphis","COMPANY_XRF":"188","COMPANY_ZONE":"U","HQ_COUNTRY":"United States","HQ_COUNTRY_ISO":"US","LATITUDE":35.1495343,"LISTING_XRF":"190","LISTING_ZONE":"U","LONGITUDE":-90.0489801,"NAME":"INTL PAPER CO","POSTAL_CODE":"06921-3512","SECTOR":"BASICIND","SHARES":400236000,"SIMILARS_GROUP":"PAPER","USD_CAP":17686428290.359497},{"ADDRESS":"10 Sylvan Way","CITY":"Florham Park","COMPANY_XRF":"16075","COMPANY_ZONE":"U","HQ_COUNTRY":"United States","HQ_COUNTRY_ISO":"US","LATITUDE":40.8470715,"LISTING_XRF":"18156","LISTING_ZONE":"U","LONGITUDE":-74.44477719999999,"NAME":"Zoetis Inc","POSTAL_CODE":"07054","SECTOR":"","SHARES":478772000,"SIMILARS_GROUP":"","USD_CAP":47934653954.98657},{"ADDRESS":"5701 S Santa Fe Dr","CITY":"Englewood","COMPANY_XRF":"9518","COMPANY_ZONE":"U","HQ_COUNTRY":"United States","HQ_COUNTRY_ISO":"US","LATITUDE":39.6120693,"LISTING_XRF":"10287","LISTING_ZONE":"U","LONGITUDE":-105.0228053,"NAME":"DISH NETWORK CORP","POSTAL_CODE":"80112","SECTOR":"CONSDIS","SHARES":229449000,"SIMILARS_GROUP":"CABLE TV","USD_CAP":7743903750},{"ADDRESS":"1 Riverside Plaza","CITY":"Columbus","COMPANY_XRF":"89","COMPANY_ZONE":"U","HQ_COUNTRY":"United States","HQ_COUNTRY_ISO":"US","LATITUDE":39.9651773,"LISTING_XRF":"90","LISTING_ZONE":"U","LONGITUDE":-83.0060034,"NAME":"American Electric Power Co Inc","POSTAL_CODE":"43215","SECTOR":"TRANSPRT","SHARES":493288000,"SIMILARS_GROUP":"SEA","USD_CAP":40908373990.53955},{"ADDRESS":"801 E 86th Ave","CITY":"Merrillville","COMPANY_XRF":"544","COMPANY_ZONE":"U","HQ_COUNTRY":"United States","HQ_COUNTRY_ISO":"US","LATITUDE":41.4614667,"LISTING_XRF":"548","LISTING_ZONE":"U","LONGITUDE":-87.325459,"NAME":"NISOURCE INC","POSTAL_CODE":"46410","SECTOR":"UTILS","SHARES":372494000,"SIMILARS_GROUP":"ELECTRIC","USD_CAP":10172810941.066742},{"ADDRESS":"1185 Ave Of The Americas","CITY":"New York","COMPANY_XRF":"206","COMPANY_ZONE":"U","HQ_COUNTRY":"United States","HQ_COUNTRY_ISO":"US","LATITUDE":0,"LISTING_XRF":"208","LISTING_ZONE":"U","LONGITUDE":0,"NAME":"HESS CORP","POSTAL_CODE":"10036","SECTOR":"ENERGY","SHARES":254548560,"SIMILARS_GROUP":"INTG OIL","USD_CAP":17278755553.6615},{"ADDRESS":"2600 ANSYS Drive","CITY":"Canonsburg","COMPANY_XRF":"9913","COMPANY_ZONE":"U","HQ_COUNTRY":"United States","HQ_COUNTRY_ISO":"US","LATITUDE":40.2718234,"LISTING_XRF":"10793","LISTING_ZONE":"U","LONGITUDE":-80.166319,"NAME":"ANSYS INC","POSTAL_CODE":"15317","SECTOR":"TECH","SHARES":83772000,"SIMILARS_GROUP":"SOFTWARE","USD_CAP":15836258317.565918},{"ADDRESS":"2000 S Colorado Blvd Tower 2 Ste 2-1000","CITY":"Denver","COMPANY_XRF":"8322","COMPANY_ZONE":"U","HQ_COUNTRY":"United States","HQ_COUNTRY_ISO":"US","LATITUDE":0,"LISTING_XRF":"8940","LISTING_ZONE":"U","LONGITUDE":0,"NAME":"APARTMENT INVT & MGMT CO","POSTAL_CODE":"80222-4360","SECTOR":"REALEST","SHARES":155436000,"SIMILARS_GROUP":"REIT","USD_CAP":7437612362.823486},{"ADDRESS":"17450 College Parkway","CITY":"Livonia","COMPANY_XRF":"240","COMPANY_ZONE":"U","HQ_COUNTRY":"United States","HQ_COUNTRY_ISO":"US","LATITUDE":42.4154801,"LISTING_XRF":"242","LISTING_ZONE":"U","LONGITUDE":-83.42602149999999,"NAME":"MASCO CORP","POSTAL_CODE":"48152","SECTOR":"BASICIND","SHARES":294493000,"SIMILARS_GROUP":"BLDG MAT","USD_CAP":11691372324.680328},{"ADDRESS":"1 Technology Way","CITY":"Norwood","COMPANY_XRF":"599","COMPANY_ZONE":"U","HQ_COUNTRY":"United States","HQ_COUNTRY_ISO":"US","LATITUDE":42.2104866,"LISTING_XRF":"605","LISTING_ZONE":"U","LONGITUDE":-71.18062359999999,"NAME":"ANALOG DEVICES INC","POSTAL_CODE":"02062","SECTOR":"TECH","SHARES":368314000,"SIMILARS_GROUP":"SEMICOND","USD_CAP":41844153764.801025},{"ADDRESS":"850 Dixie Highway","CITY":"Louisville","COMPANY_XRF":"534","COMPANY_ZONE":"U","HQ_COUNTRY":"United States","HQ_COUNTRY_ISO":"US","LATITUDE":38.2446583,"LISTING_XRF":"538","LISTING_ZONE":"U","LONGITUDE":-85.78532460000001,"NAME":"Brown-Forman Corp","POSTAL_CODE":"40210","SECTOR":"CONSTAPL","SHARES":166292460,"SIMILARS_GROUP":"LIQUOR","USD_CAP":8810174454.677353},{"ADDRESS":"1 Adp Blvd","CITY":"Roseland","COMPANY_XRF":"269","COMPANY_ZONE":"U","HQ_COUNTRY":"United States","HQ_COUNTRY_ISO":"US","LATITUDE":40.8155809,"LISTING_XRF":"271","LISTING_ZONE":"U","LONGITUDE":-74.31007,"NAME":"AUTOMATIC DATA PROCESSING IN","POSTAL_CODE":"07068","SECTOR":"TECH","SHARES":435630000,"SIMILARS_GROUP":"SOFTWARE","USD_CAP":70532854895.3247},{"ADDRESS":"110 North Carpenter Street","CITY":"Chicago","COMPANY_XRF":"68","COMPANY_ZONE":"U","HQ_COUNTRY":"United States","HQ_COUNTRY_ISO":"US","LATITUDE":41.8835103,"LISTING_XRF":"69","LISTING_ZONE":"U","LONGITUDE":-87.6534669,"NAME":"Mcdonald's Corp","POSTAL_CODE":"60523","SECTOR":"CONSDIS","SHARES":765317000,"SIMILARS_GROUP":"EATS","USD_CAP":148410272640},{"ADDRESS":"1901 Chouteau Ave","CITY":"Saint Louis","COMPANY_XRF":"270","COMPANY_ZONE":"U","HQ_COUNTRY":"United States","HQ_COUNTRY_ISO":"US","LATITUDE":38.6224443,"LISTING_XRF":"272","LISTING_ZONE":"U","LONGITUDE":-90.2095588,"NAME":"Ameren Corporation","POSTAL_CODE":"63103","SECTOR":"UTILS","SHARES":244639000,"SIMILARS_GROUP":"ELECTRIC","USD_CAP":17251941458.763123},{"ADDRESS":"1600 Amphitheatre Parkway","CITY":"Mountain View","COMPANY_XRF":"14292","COMPANY_ZONE":"U","HQ_COUNTRY":"United States","HQ_COUNTRY_ISO":"US","LATITUDE":37.4219999,"LISTING_XRF":"15885","LISTING_ZONE":"U","LONGITUDE":-122.0840575,"NAME":"Alphabet Inc","POSTAL_CODE":"94043","SECTOR":"TELECOMM","SHARES":299360000,"SIMILARS_GROUP":"INET.SP","USD_CAP":375325593600},{"ADDRESS":"358 S Main St","CITY":"Burlington","COMPANY_XRF":"4047","COMPANY_ZONE":"U","HQ_COUNTRY":"United States","HQ_COUNTRY_ISO":"US","LATITUDE":36.0917949,"LISTING_XRF":"4198","LISTING_ZONE":"U","LONGITUDE":-79.43918,"NAME":"Laboratory Corp of America Holdings","POSTAL_CODE":"27215","SECTOR":"HEALTH","SHARES":98600000,"SIMILARS_GROUP":"HLTHCARE","USD_CAP":14223050000},{"ADDRESS":"1000 East Main Street","CITY":"Charlotte","COMPANY_XRF":"145","COMPANY_ZONE":"U","HQ_COUNTRY":"United States","HQ_COUNTRY_ISO":"US","LATITUDE":35.2239772,"LISTING_XRF":"147","LISTING_ZONE":"U","LONGITUDE":-80.8485487,"NAME":"DUKE ENERGY CORP NEW","POSTAL_CODE":"28202","SECTOR":"UTILS","SHARES":727011000,"SIMILARS_GROUP":"ELECTRIC","USD_CAP":64507688470.52765},{"ADDRESS":"300 Park Ave","CITY":"New York","COMPANY_XRF":"207","COMPANY_ZONE":"U","HQ_COUNTRY":"United States","HQ_COUNTRY_ISO":"US","LATITUDE":40.7570209,"LISTING_XRF":"209","LISTING_ZONE":"U","LONGITUDE":-73.97466949999999,"NAME":"COLGATE-PALMOLIVE CO","POSTAL_CODE":"10022","SECTOR":"CONSTAPL","SHARES":861676000,"SIMILARS_GROUP":"FOOD","USD_CAP":59972648285.18677},{"ADDRESS":"880 Carillon Parkway","CITY":"St Petersburg","COMPANY_XRF":"2718","COMPANY_ZONE":"U","HQ_COUNTRY":"United States","HQ_COUNTRY_ISO":"US","LATITUDE":27.8902935,"LISTING_XRF":"2743","LISTING_ZONE":"U","LONGITUDE":-82.6718784,"NAME":"RAYMOND JAMES FINANCIAL INC","POSTAL_CODE":"33716","SECTOR":"FINANCE","SHARES":126934200,"SIMILARS_GROUP":"CREDIT","USD_CAP":11242562055.262756},{"ADDRESS":"10 Longs Peak Dr","CITY":"Broomfield","COMPANY_XRF":"662","COMPANY_ZONE":"U","HQ_COUNTRY":"United States","HQ_COUNTRY_ISO":"US","LATITUDE":39.9117581,"LISTING_XRF":"669","LISTING_ZONE":"U","LONGITUDE":-105.0997533,"NAME":"Ball Corp","POSTAL_CODE":"80021","SECTOR":"BASICIND","SHARES":334338000,"SIMILARS_GROUP":"METAL PR","USD_CAP":19628983673.90442},{"ADDRESS":"1601 Willow Road","CITY":"Menlo Park","COMPANY_XRF":"15986","COMPANY_ZONE":"U","HQ_COUNTRY":"United States","HQ_COUNTRY_ISO":"US","LATITUDE":37.4833355,"LISTING_XRF":"18061","LISTING_ZONE":"U","LONGITUDE":-122.1494256,"NAME":"Facebook Inc","POSTAL_CODE":"94025","SECTOR":"TELECOMM","SHARES":2385534000,"SIMILARS_GROUP":"INET.SP","USD_CAP":432831294784.0576},{"ADDRESS":"1111 Louisiana St","CITY":"Houston","COMPANY_XRF":"178","COMPANY_ZONE":"U","HQ_COUNTRY":"United States","HQ_COUNTRY_ISO":"US","LATITUDE":29.7571031,"LISTING_XRF":"180","LISTING_ZONE":"U","LONGITUDE":-95.36790440000001,"NAME":"CENTERPOINT ENERGY INC","POSTAL_CODE":"77002","SECTOR":"ENERGY","SHARES":501191000,"SIMILARS_GROUP":"OIL&GAS","USD_CAP":15276301450.572968},{"ADDRESS":"1 Kellogg Sq","CITY":"Battle Creek","COMPANY_XRF":"143","COMPANY_ZONE":"U","HQ_COUNTRY":"United States","HQ_COUNTRY_ISO":"US","LATITUDE":42.3164375,"LISTING_XRF":"145","LISTING_ZONE":"U","LONGITUDE":-85.1841706,"NAME":"KELLOGG CO","POSTAL_CODE":"49016","SECTOR":"CONSTAPL","SHARES":251043350,"SIMILARS_GROUP":"FOOD","USD_CAP":14650890059.2247},{"ADDRESS":"2211 H.H. Dow Way","CITY":"Midland","COMPANY_XRF":"17023","COMPANY_ZONE":"U","HQ_COUNTRY":"United States","HQ_COUNTRY_ISO":"US","LATITUDE":0,"LISTING_XRF":"19225","LISTING_ZONE":"U","LONGITUDE":0,"NAME":"DOW INC","POSTAL_CODE":"48674","SECTOR":"","SHARES":751587333,"SIMILARS_GROUP":"","USD_CAP":43509390248.6375},{"ADDRESS":"9900 Bren Rd E","CITY":"Minnetonka","COMPANY_XRF":"2283","COMPANY_ZONE":"U","HQ_COUNTRY":"United States","HQ_COUNTRY_ISO":"US","LATITUDE":44.8973859,"LISTING_XRF":"2302","LISTING_ZONE":"U","LONGITUDE":-93.4032532,"NAME":"UNITEDHEALTH GROUP INC","POSTAL_CODE":"55343","SECTOR":"CONSTAPL","SHARES":959539000,"SIMILARS_GROUP":"DRUGSTOR","USD_CAP":217920902875.65613},{"ADDRESS":"1601 Lbj Fwy","CITY":"Bedminster","COMPANY_XRF":"14407","COMPANY_ZONE":"U","HQ_COUNTRY":"United States","HQ_COUNTRY_ISO":"US","LATITUDE":0,"LISTING_XRF":"16039","LISTING_ZONE":"U","LONGITUDE":0,"NAME":"Celanese Corp","POSTAL_CODE":"07921-1537","SECTOR":"BASICIND","SHARES":128100000,"SIMILARS_GROUP":"CHEMICAL","USD_CAP":13382607156.37207},{"ADDRESS":"770 Cochituate Rd","CITY":"Framingham","COMPANY_XRF":"365","COMPANY_ZONE":"U","HQ_COUNTRY":"United States","HQ_COUNTRY_ISO":"US","LATITUDE":42.310488,"LISTING_XRF":"368","LISTING_ZONE":"U","LONGITUDE":-71.38194949999999,"NAME":"Tjx Cos Inc","POSTAL_CODE":"01701","SECTOR":"CONSDIS","SHARES":1237528000,"SIMILARS_GROUP":"RTL WEAR","USD_CAP":67333898291.16821},{"ADDRESS":"3 Lakes Dr","CITY":"Deerfield","COMPANY_XRF":"13546","COMPANY_ZONE":"U","HQ_COUNTRY":"United States","HQ_COUNTRY_ISO":"US","LATITUDE":42.162847,"LISTING_XRF":"14605","LISTING_ZONE":"U","LONGITUDE":-87.87924799999999,"NAME":"Mondelez International Inc","POSTAL_CODE":"60015","SECTOR":"CONSTAPL","SHARES":1444169000,"SIMILARS_GROUP":"FOOD","USD_CAP":72468400860.7254},{"ADDRESS":"270 Park Ave","CITY":"New York","COMPANY_XRF":"253","COMPANY_ZONE":"U","HQ_COUNTRY":"United States","HQ_COUNTRY_ISO":"US","LATITUDE":0,"LISTING_XRF":"255","LISTING_ZONE":"U","LONGITUDE":0,"NAME":"JPMorgan Chase & Co","POSTAL_CODE":"10017","SECTOR":"FINANCE","SHARES":3274242000,"SIMILARS_GROUP":"BANKS","USD_CAP":371953886203.9032},{"ADDRESS":"130 Waverly St","CITY":"Boston","COMPANY_XRF":"5107","COMPANY_ZONE":"U","HQ_COUNTRY":"United States","HQ_COUNTRY_ISO":"US","LATITUDE":42.3533985,"LISTING_XRF":"7031","LISTING_ZONE":"U","LONGITUDE":-71.04638240000001,"NAME":"Vertex Pharmaceuticals Inc","POSTAL_CODE":"02139-4242","SECTOR":"HEALTH","SHARES":255657000,"SIMILARS_GROUP":"BIOTECH","USD_CAP":43083318732.284546},{"ADDRESS":"200 Fifth Avenue","CITY":"New York","COMPANY_XRF":"3935","COMPANY_ZONE":"U","HQ_COUNTRY":"United States","HQ_COUNTRY_ISO":"US","LATITUDE":0,"LISTING_XRF":"4081","LISTING_ZONE":"U","LONGITUDE":0,"NAME":"TIFFANY & CO","POSTAL_CODE":"10010","SECTOR":"CONSDIS","SHARES":108488330,"SIMILARS_GROUP":"RTL SPEC","USD_CAP":11469386380.032043},{"ADDRESS":"250 Campus Drive","CITY":"Bedford","COMPANY_XRF":"5582","COMPANY_ZONE":"U","HQ_COUNTRY":"United States","HQ_COUNTRY_ISO":"US","LATITUDE":42.5099023,"LISTING_XRF":"5815","LISTING_ZONE":"U","LONGITUDE":-71.2427452,"NAME":"Hologic Inc","POSTAL_CODE":"01730","SECTOR":"HEALTH","SHARES":267791000,"SIMILARS_GROUP":"MDCL INS","USD_CAP":11515013000},{"ADDRESS":"100 N Tryon St Bank of America Corp Center","CITY":"Charlotte","COMPANY_XRF":"387","COMPANY_ZONE":"U","HQ_COUNTRY":"United States","HQ_COUNTRY_ISO":"US","LATITUDE":35.2274061,"LISTING_XRF":"390","LISTING_ZONE":"U","LONGITUDE":-80.8421864,"NAME":"BANK OF AMERICA CORP","POSTAL_CODE":"28255","SECTOR":"FINANCE","SHARES":8982646800,"SIMILARS_GROUP":"BANKS","USD_CAP":269928529486.78436},{"ADDRESS":"1095 Avenue Of The Americas","CITY":"New York","COMPANY_XRF":"30","COMPANY_ZONE":"U","HQ_COUNTRY":"United States","HQ_COUNTRY_ISO":"US","LATITUDE":40.6895119,"LISTING_XRF":"31","LISTING_ZONE":"U","LONGITUDE":-73.9807077,"NAME":"Verizon Communications Inc","POSTAL_CODE":"10007","SECTOR":"TELECOMM","SHARES":4132015000,"SIMILARS_GROUP":"PHONE","USD_CAP":241185711136.53183},{"ADDRESS":"108 Wilmot Road","CITY":"Deerfield","COMPANY_XRF":"317","COMPANY_ZONE":"U","HQ_COUNTRY":"United States","HQ_COUNTRY_ISO":"US","LATITUDE":42.1555553,"LISTING_XRF":"319","LISTING_ZONE":"U","LONGITUDE":-87.86876099999999,"NAME":"WALGREENS BOOTS AL","POSTAL_CODE":"60015","SECTOR":"CONSTAPL","SHARES":801928250,"SIMILARS_GROUP":"DRUGSTOR","USD_CAP":43384318325},{"ADDRESS":"221 W Philadelphia St","CITY":"York","COMPANY_XRF":"4964","COMPANY_ZONE":"U","HQ_COUNTRY":"United States","HQ_COUNTRY_ISO":"US","LATITUDE":39.9624421,"LISTING_XRF":"5117","LISTING_ZONE":"U","LONGITUDE":-76.7342834,"NAME":"DENTSPLY SIRONA INC","POSTAL_CODE":"17401","SECTOR":"INDUSTRY","SHARES":222548000,"SIMILARS_GROUP":"INSTRMNT","USD_CAP":10971616230.20935},{"ADDRESS":"123 N Wacker Dr","CITY":"Chicago","COMPANY_XRF":"318","COMPANY_ZONE":"U","HQ_COUNTRY":"United States","HQ_COUNTRY_ISO":"US","LATITUDE":41.8853531,"LISTING_XRF":"320","LISTING_ZONE":"U","LONGITUDE":-87.621323,"NAME":"AON PLC","POSTAL_CODE":"60601","SECTOR":"TECH","SHARES":239999000,"SIMILARS_GROUP":"SOFTWARE","USD_CAP":41973424963.516235},{"ADDRESS":"101 Ash St","CITY":"San Diego","COMPANY_XRF":"11190","COMPANY_ZONE":"U","HQ_COUNTRY":"United States","HQ_COUNTRY_ISO":"US","LATITUDE":32.71003,"LISTING_XRF":"12098","LISTING_ZONE":"U","LONGITUDE":-117.157731,"NAME":"Sempra Energy","POSTAL_CODE":"92101","SECTOR":"UTILS","SHARES":274039000,"SIMILARS_GROUP":"ELECTRIC","USD_CAP":34359009067.329407},{"ADDRESS":"101 Columbia Rd","CITY":"Morris Plains","COMPANY_XRF":"115","COMPANY_ZONE":"U","HQ_COUNTRY":"United States","HQ_COUNTRY_ISO":"US","LATITUDE":40.8358456,"LISTING_XRF":"116","LISTING_ZONE":"U","LONGITUDE":-74.47710409999999,"NAME":"HONEYWELL INTL INC","POSTAL_CODE":"07950","SECTOR":"BASICIND","SHARES":729086000,"SIMILARS_GROUP":"ORGANICS","USD_CAP":122661432644.98901},{"ADDRESS":"8000 W Florissant Ave","CITY":"Saint Louis","COMPANY_XRF":"69","COMPANY_ZONE":"U","HQ_COUNTRY":"United States","HQ_COUNTRY_ISO":"US","LATITUDE":38.7315866,"LISTING_XRF":"70","LISTING_ZONE":"U","LONGITUDE":-90.2790342,"NAME":"EMERSON ELECTRIC CO","POSTAL_CODE":"63136","SECTOR":"INDUSTRY","SHARES":614620000,"SIMILARS_GROUP":"MACHINES","USD_CAP":44701314663.238525},{"ADDRESS":"345 Park Ave","CITY":"San Jose","COMPANY_XRF":"3941","COMPANY_ZONE":"U","HQ_COUNTRY":"United States","HQ_COUNTRY_ISO":"US","LATITUDE":37.3306249,"LISTING_XRF":"4088","LISTING_ZONE":"U","LONGITUDE":-121.8936297,"NAME":"ADOBE INC","POSTAL_CODE":"95110","SECTOR":"TECH","SHARES":487726000,"SIMILARS_GROUP":"SOFTWARE","USD_CAP":132763890292.41943},{"ADDRESS":"1 Post Oak Cir Ste 100","CITY":"Houston","COMPANY_XRF":"1284","COMPANY_ZONE":"U","HQ_COUNTRY":"United States","HQ_COUNTRY_ISO":"US","LATITUDE":29.744689,"LISTING_XRF":"1294","LISTING_ZONE":"U","LONGITUDE":-95.4616265,"NAME":"APACHE CORP","POSTAL_CODE":"77024-7001","SECTOR":"ENERGY","SHARES":375406000,"SIMILARS_GROUP":"OIL&GAS","USD_CAP":13923808597.28241},{"ADDRESS":"1600 Seventh Avenue, Suite 2600","CITY":"Seattle","COMPANY_XRF":"519","COMPANY_ZONE":"U","HQ_COUNTRY":"United States","HQ_COUNTRY_ISO":"US","LATITUDE":47.614061,"LISTING_XRF":"522","LISTING_ZONE":"U","LONGITUDE":-122.3354501,"NAME":"Nordstrom Inc","POSTAL_CODE":"98101","SECTOR":"CONSDIS","SHARES":107168000.00000001,"SIMILARS_GROUP":"RTL DEPT","USD_CAP":4517131363.525392},{"ADDRESS":"1 Coca Cola Plz","CITY":"Atlanta","COMPANY_XRF":"27","COMPANY_ZONE":"U","HQ_COUNTRY":"United States","HQ_COUNTRY_ISO":"US","LATITUDE":33.7704878,"LISTING_XRF":"28","LISTING_ZONE":"U","LONGITUDE":-84.39732670000001,"NAME":"Coca-Cola Co\/The","POSTAL_CODE":"30313","SECTOR":"CONSTAPL","SHARES":3847806000,"SIMILARS_GROUP":"BEVERAGE","USD_CAP":182386010271.286},{"ADDRESS":"500 West Texas Avenue, Suite 1200","CITY":"Midland","COMPANY_XRF":"16101","COMPANY_ZONE":"U","HQ_COUNTRY":"United States","HQ_COUNTRY_ISO":"US","LATITUDE":31.9987351,"LISTING_XRF":"18182","LISTING_ZONE":"U","LONGITUDE":-102.0803001,"NAME":"Diamondback Energy Inc","POSTAL_CODE":"79701","SECTOR":"ENERGY","SHARES":154519080,"SIMILARS_GROUP":"OIL&GAS","USD_CAP":17182521224.44519},{"ADDRESS":"38 Fountain Square Plaza","CITY":"Cincinnati","COMPANY_XRF":"3652","COMPANY_ZONE":"U","HQ_COUNTRY":"United States","HQ_COUNTRY_ISO":"US","LATITUDE":39.1014231,"LISTING_XRF":"3674","LISTING_ZONE":"U","LONGITUDE":-84.5117041,"NAME":"Fifth Third Bancorp","POSTAL_CODE":"45263","SECTOR":"FINANCE","SHARES":769753550,"SIMILARS_GROUP":"BANKS","USD_CAP":21214407426.907253},{"ADDRESS":"51 Lime St","CITY":"London","COMPANY_XRF":"13918","COMPANY_ZONE":"U","HQ_COUNTRY":"United States","HQ_COUNTRY_ISO":"US","LATITUDE":51.512803,"LISTING_XRF":"15411","LISTING_ZONE":"U","LONGITUDE":0,"NAME":"WILLIS TOWERS WATSON PUB LTD","POSTAL_CODE":"EC3M 7DQ","SECTOR":"BUSINSRV","SHARES":129102000,"SIMILARS_GROUP":"INS BROK","USD_CAP":22884619810.821533},{"ADDRESS":"414 Nicollet Mall","CITY":"Minneapolis","COMPANY_XRF":"337","COMPANY_ZONE":"U","HQ_COUNTRY":"United States","HQ_COUNTRY_ISO":"US","LATITUDE":44.97957539999999,"LISTING_XRF":"340","LISTING_ZONE":"U","LONGITUDE":-93.2705091,"NAME":"XCEL ENERGY INC","POSTAL_CODE":"55401","SECTOR":"UTILS","SHARES":514211000,"SIMILARS_GROUP":"ELECTRIC","USD_CAP":28168477952.301025},{"ADDRESS":"1 Conagra Dr","CITY":"Chicago","COMPANY_XRF":"400","COMPANY_ZONE":"U","HQ_COUNTRY":"United States","HQ_COUNTRY_ISO":"US","LATITUDE":41.8885198,"LISTING_XRF":"403","LISTING_ZONE":"U","LONGITUDE":-87.63544809999999,"NAME":"CONAGRA BRANDS INC","POSTAL_CODE":"60654","SECTOR":"CONSTAPL","SHARES":485612000,"SIMILARS_GROUP":"PRP FOOD","USD_CAP":14995698152.45819},{"ADDRESS":"1 Discovery Pl","CITY":"Englewood","COMPANY_XRF":"14767","COMPANY_ZONE":"U","HQ_COUNTRY":"United States","HQ_COUNTRY_ISO":"US","LATITUDE":38.994912,"LISTING_XRF":"16426","LISTING_ZONE":"U","LONGITUDE":-77.031488,"NAME":"DISCOVERY INC","POSTAL_CODE":"20910","SECTOR":"CONSDIS","SHARES":157023000,"SIMILARS_GROUP":"CABLE TV","USD_CAP":4572509891.778946},{"ADDRESS":"7201 Hamilton Blvd","CITY":"Allentown","COMPANY_XRF":"299","COMPANY_ZONE":"U","HQ_COUNTRY":"United States","HQ_COUNTRY_ISO":"US","LATITUDE":0,"LISTING_XRF":"301","LISTING_ZONE":"U","LONGITUDE":0,"NAME":"AIR PRODS & CHEMS INC","POSTAL_CODE":"18195","SECTOR":"BASICIND","SHARES":219631000,"SIMILARS_GROUP":"INDSTRL","USD_CAP":43183846147.58301},{"ADDRESS":"153 E 53rd St Fl 57","CITY":"Houston","COMPANY_XRF":"15","COMPANY_ZONE":"U","HQ_COUNTRY":"United States","HQ_COUNTRY_ISO":"US","LATITUDE":0,"LISTING_XRF":"16","LISTING_ZONE":"U","LONGITUDE":0,"NAME":"SCHLUMBERGER","POSTAL_CODE":"10022-4624","SECTOR":"ENERGY","SHARES":1385973000,"SIMILARS_GROUP":"OIL DRIL","USD_CAP":63546859935.173035},{"ADDRESS":"4333 Amon Carter Blvd","CITY":"Fort Worth","COMPANY_XRF":"16214","COMPANY_ZONE":"U","HQ_COUNTRY":"United States","HQ_COUNTRY_ISO":"US","LATITUDE":32.8280655,"LISTING_XRF":"18302","LISTING_ZONE":"U","LONGITUDE":-97.05071389999999,"NAME":"AMERICAN AIRLINES","POSTAL_CODE":"76155","SECTOR":"","SHARES":399659840,"SIMILARS_GROUP":"","USD_CAP":13380611260.250244},{"ADDRESS":"663 Highway 60, P.O. Box 807","CITY":"Monett","COMPANY_XRF":"5941","COMPANY_ZONE":"U","HQ_COUNTRY":"United States","HQ_COUNTRY_ISO":"US","LATITUDE":0,"LISTING_XRF":"7158","LISTING_ZONE":"U","LONGITUDE":0,"NAME":"Jack Henry & Associates Inc","POSTAL_CODE":"65708","SECTOR":"TECH","SHARES":77177000,"SIMILARS_GROUP":"SOFTWARE","USD_CAP":11152076500},{"ADDRESS":"231 W Michigan St","CITY":"Milwaukee","COMPANY_XRF":"411","COMPANY_ZONE":"U","HQ_COUNTRY":"United States","HQ_COUNTRY_ISO":"US","LATITUDE":43.0370226,"LISTING_XRF":"414","LISTING_ZONE":"U","LONGITUDE":-87.9138533,"NAME":"WEC ENERGY GROUP","POSTAL_CODE":"53201","SECTOR":"UTILS","SHARES":315455000,"SIMILARS_GROUP":"ELECTRIC","USD_CAP":24094452033.576965},{"ADDRESS":"2775 Sanders Rd","CITY":"Northbrook","COMPANY_XRF":"5894","COMPANY_ZONE":"U","HQ_COUNTRY":"United States","HQ_COUNTRY_ISO":"US","LATITUDE":42.10097680000001,"LISTING_XRF":"6703","LISTING_ZONE":"U","LONGITUDE":-87.8707659,"NAME":"Allstate Corp","POSTAL_CODE":"60062","SECTOR":"FINANCE","SHARES":331963000,"SIMILARS_GROUP":"INS MISC","USD_CAP":32223648308.692932},{"ADDRESS":"105 Corporate Center Blvd","CITY":"Greensboro","COMPANY_XRF":"415","COMPANY_ZONE":"U","HQ_COUNTRY":"United States","HQ_COUNTRY_ISO":"US","LATITUDE":36.122155,"LISTING_XRF":"418","LISTING_ZONE":"U","LONGITUDE":-79.798901,"NAME":"VF Corp","POSTAL_CODE":"27408","SECTOR":"CONSDIS","SHARES":324396100,"SIMILARS_GROUP":"TEXTILES","USD_CAP":30768969590.010834},{"ADDRESS":"1000 E Hanes Mill Rd","CITY":"Winston Salem","COMPANY_XRF":"14993","COMPANY_ZONE":"U","HQ_COUNTRY":"United States","HQ_COUNTRY_ISO":"US","LATITUDE":36.1889711,"LISTING_XRF":"16792","LISTING_ZONE":"U","LONGITUDE":-80.26391389999999,"NAME":"Hanesbrands Inc","POSTAL_CODE":"27105","SECTOR":"CONSDIS","SHARES":361424000,"SIMILARS_GROUP":"TEXTILES","USD_CAP":6733328816.680908},{"ADDRESS":"3 Commercial Pl","CITY":"Norfolk","COMPANY_XRF":"92","COMPANY_ZONE":"U","HQ_COUNTRY":"United States","HQ_COUNTRY_ISO":"US","LATITUDE":36.8454996,"LISTING_XRF":"93","LISTING_ZONE":"U","LONGITUDE":-76.2880966,"NAME":"NORFOLK SOUTHERN CORP","POSTAL_CODE":"23510","SECTOR":"TRANSPRT","SHARES":267455000,"SIMILARS_GROUP":"RAILROAD","USD_CAP":53889509419.174194},{"ADDRESS":"1932 Wynnton Rd","CITY":"Columbus","COMPANY_XRF":"671","COMPANY_ZONE":"U","HQ_COUNTRY":"United States","HQ_COUNTRY_ISO":"US","LATITUDE":32.4670476,"LISTING_XRF":"678","LISTING_ZONE":"U","LONGITUDE":-84.96389479999999,"NAME":"AFLAC INC","POSTAL_CODE":"31999","SECTOR":"FINANCE","SHARES":750332000,"SIMILARS_GROUP":"INS MISC","USD_CAP":36436122950.424194},{"ADDRESS":"1 Williams Center","CITY":"Tulsa","COMPANY_XRF":"458","COMPANY_ZONE":"U","HQ_COUNTRY":"United States","HQ_COUNTRY_ISO":"US","LATITUDE":36.155117,"LISTING_XRF":"461","LISTING_ZONE":"U","LONGITUDE":-95.9906814,"NAME":"Williams Cos Inc\/The","POSTAL_CODE":"74172","SECTOR":"ENERGY","SHARES":1210981000,"SIMILARS_GROUP":"OIL RFNG","USD_CAP":34827813837.171555},{"ADDRESS":"175 East Houston ","CITY":"Dallas","COMPANY_XRF":"38","COMPANY_ZONE":"U","HQ_COUNTRY":"United States","HQ_COUNTRY_ISO":"US","LATITUDE":0,"LISTING_XRF":"39","LISTING_ZONE":"U","LONGITUDE":0,"NAME":"AT&T Inc.","POSTAL_CODE":"75202","SECTOR":"TELECOMM","SHARES":7284590000,"SIMILARS_GROUP":"PHONE","USD_CAP":233689647200},{"ADDRESS":"6800 N Dale Mabry Hwy Ste 268","CITY":"Tampa","COMPANY_XRF":"14405","COMPANY_ZONE":"U","HQ_COUNTRY":"United States","HQ_COUNTRY_ISO":"US","LATITUDE":0,"LISTING_XRF":"16037","LISTING_ZONE":"U","LONGITUDE":0,"NAME":"WellCare Health Plans Inc","POSTAL_CODE":"33614-3999","SECTOR":"FINANCE","SHARES":49992000,"SIMILARS_GROUP":"INS MISC","USD_CAP":12684970354.614258},{"ADDRESS":"1 Valero Pl","CITY":"San Antonio","COMPANY_XRF":"1069","COMPANY_ZONE":"U","HQ_COUNTRY":"United States","HQ_COUNTRY_ISO":"US","LATITUDE":0,"LISTING_XRF":"1078","LISTING_ZONE":"U","LONGITUDE":0,"NAME":"VALERO ENERGY CORP NEW","POSTAL_CODE":"78212-3106","SECTOR":"ENERGY","SHARES":417614000,"SIMILARS_GROUP":"OIL RFNG","USD_CAP":38065516737.22839},{"ADDRESS":"1 Amgen Center Dr","CITY":"Thousand Oaks","COMPANY_XRF":"2080","COMPANY_ZONE":"U","HQ_COUNTRY":"United States","HQ_COUNTRY_ISO":"US","LATITUDE":34.192136,"LISTING_XRF":"2097","LISTING_ZONE":"U","LONGITUDE":-118.919477,"NAME":"Amgen Inc","POSTAL_CODE":"91320","SECTOR":"HEALTH","SHARES":622278000,"SIMILARS_GROUP":"BIOTECH","USD_CAP":109744948459.80835},{"ADDRESS":"1015 3rd Ave 12th Fl","CITY":"Seattle","COMPANY_XRF":"2930","COMPANY_ZONE":"U","HQ_COUNTRY":"United States","HQ_COUNTRY_ISO":"US","LATITUDE":47.60583800000001,"LISTING_XRF":"2956","LISTING_ZONE":"U","LONGITUDE":-122.334683,"NAME":"Expeditors International of Washington Inc","POSTAL_CODE":"98104","SECTOR":"TRANSPRT","SHARES":171670000,"SIMILARS_GROUP":"FORWARDR","USD_CAP":13726733042.83142},{"ADDRESS":"2 Pierce Pl","CITY":"Itasca","COMPANY_XRF":"1473","COMPANY_ZONE":"U","HQ_COUNTRY":"United States","HQ_COUNTRY_ISO":"US","LATITUDE":0,"LISTING_XRF":"1486","LISTING_ZONE":"U","LONGITUDE":0,"NAME":"Arthur J Gallagher & Co","POSTAL_CODE":"60008","SECTOR":"BUSINSRV","SHARES":184060000,"SIMILARS_GROUP":"INS BROK","USD_CAP":14757930800.000002},{"ADDRESS":"45 William St","CITY":"Waltham","COMPANY_XRF":"432","COMPANY_ZONE":"U","HQ_COUNTRY":"United States","HQ_COUNTRY_ISO":"US","LATITUDE":42.404359,"LISTING_XRF":"435","LISTING_ZONE":"U","LONGITUDE":-71.27364279999999,"NAME":"PERKINELMER INC","POSTAL_CODE":"02181-4004","SECTOR":"INDUSTRY","SHARES":110800000,"SIMILARS_GROUP":"INSTRMNT","USD_CAP":10472815628.051758},{"ADDRESS":"2941 Fairview Park Dr Ste 100","CITY":"Falls Church","COMPANY_XRF":"153","COMPANY_ZONE":"U","HQ_COUNTRY":"United States","HQ_COUNTRY_ISO":"US","LATITUDE":38.8683985,"LISTING_XRF":"155","LISTING_ZONE":"U","LONGITUDE":-77.2133362,"NAME":"General Dynamics Corp","POSTAL_CODE":"22042","SECTOR":"TECH","SHARES":270941840,"SIMILARS_GROUP":"ETRON SY","USD_CAP":47964833604.46045},{"ADDRESS":"100 Grainger Parkway","CITY":"Lake Forest","COMPANY_XRF":"473","COMPANY_ZONE":"U","HQ_COUNTRY":"United States","HQ_COUNTRY_ISO":"US","LATITUDE":42.2367488,"LISTING_XRF":"476","LISTING_ZONE":"U","LONGITUDE":-87.91273919999999,"NAME":"Grainger (w.w.) Inc","POSTAL_CODE":"60045","SECTOR":"BUSINSRV","SHARES":45099990,"SIMILARS_GROUP":"WHLSE TR","USD_CAP":13133567702.524109},{"ADDRESS":"6035 Parkland Blvd","CITY":"Cleveland","COMPANY_XRF":"496","COMPANY_ZONE":"U","HQ_COUNTRY":"United States","HQ_COUNTRY_ISO":"US","LATITUDE":41.5065902,"LISTING_XRF":"499","LISTING_ZONE":"U","LONGITUDE":-81.4611707,"NAME":"Parker Hannifin Corp","POSTAL_CODE":"44124","SECTOR":"BASICIND","SHARES":129365000,"SIMILARS_GROUP":"METAL PR","USD_CAP":24570293502.50244},{"ADDRESS":"20511 Lake Forest Dr","CITY":"Irvine","COMPANY_XRF":"1180","COMPANY_ZONE":"U","HQ_COUNTRY":"United States","HQ_COUNTRY_ISO":"US","LATITUDE":33.6644404,"LISTING_XRF":"1190","LISTING_ZONE":"U","LONGITUDE":-117.6667466,"NAME":"WESTERN DIGITAL CORP","POSTAL_CODE":"92612","SECTOR":"TECH","SHARES":290851000,"SIMILARS_GROUP":"PERIPHER","USD_CAP":15767032443.717957},{"ADDRESS":"1 Idexx Dr","CITY":"Westbrook","COMPANY_XRF":"107","COMPANY_ZONE":"U","HQ_COUNTRY":"United States","HQ_COUNTRY_ISO":"US","LATITUDE":43.6616946,"LISTING_XRF":"6737","LISTING_ZONE":"U","LONGITUDE":-70.3735961,"NAME":"Idexx Laboratories Inc","POSTAL_CODE":"04092","SECTOR":"HEALTH","SHARES":86007000,"SIMILARS_GROUP":"MDCL INS","USD_CAP":19058290815.03296},{"ADDRESS":"1000 Stanley Dr","CITY":"New Britain","COMPANY_XRF":"557","COMPANY_ZONE":"U","HQ_COUNTRY":"United States","HQ_COUNTRY_ISO":"US","LATITUDE":0,"LISTING_XRF":"562","LISTING_ZONE":"U","LONGITUDE":0,"NAME":"Stanley Black & Decker Inc","POSTAL_CODE":"06053","SECTOR":"BASICIND","SHARES":151357000,"SIMILARS_GROUP":"METAL PR","USD_CAP":22011847401.428223},{"ADDRESS":"777 Long Ridge Road","CITY":"Stamford","COMPANY_XRF":"16455","COMPANY_ZONE":"U","HQ_COUNTRY":"United States","HQ_COUNTRY_ISO":"US","LATITUDE":41.097221,"LISTING_XRF":"18569","LISTING_ZONE":"U","LONGITUDE":-73.561771,"NAME":"Synchrony Financial","POSTAL_CODE":"06902","SECTOR":"","SHARES":653073040,"SIMILARS_GROUP":"","USD_CAP":21910599993.744812},{"ADDRESS":"6200 S Gilmore Rd","CITY":"Fairfield","COMPANY_XRF":"603","COMPANY_ZONE":"U","HQ_COUNTRY":"United States","HQ_COUNTRY_ISO":"US","LATITUDE":39.307675,"LISTING_XRF":"609","LISTING_ZONE":"U","LONGITUDE":-84.5205319,"NAME":"Cincinnati Financial","POSTAL_CODE":"45014","SECTOR":"FINANCE","SHARES":151532340,"SIMILARS_GROUP":"COMMCRED","USD_CAP":13027235454.776001},{"ADDRESS":"1 Comcast Ctr","CITY":"Philadelphia","COMPANY_XRF":"970","COMPANY_ZONE":"U","HQ_COUNTRY":"United States","HQ_COUNTRY_ISO":"US","LATITUDE":39.9549688,"LISTING_XRF":"979","LISTING_ZONE":"U","LONGITUDE":-75.16845099999999,"NAME":"Comcast Corp","POSTAL_CODE":"19102-2100","SECTOR":"CONSDIS","SHARES":4516518000,"SIMILARS_GROUP":"CABLE TV","USD_CAP":189693756000},{"ADDRESS":"110 West 44th Street","CITY":"New York","COMPANY_XRF":"11095","COMPANY_ZONE":"U","HQ_COUNTRY":"United States","HQ_COUNTRY_ISO":"US","LATITUDE":40.7563495,"LISTING_XRF":"12004","LISTING_ZONE":"U","LONGITUDE":-73.98385640000001,"NAME":"TAKE TWO INTERACTIVE SOFTWR INC","POSTAL_CODE":"10012","SECTOR":"TECH","SHARES":113162000,"SIMILARS_GROUP":"SOFTWARE","USD_CAP":10401850832.79419},{"ADDRESS":"1390 Enclave Parkway","CITY":"Houston","COMPANY_XRF":"540","COMPANY_ZONE":"U","HQ_COUNTRY":"United States","HQ_COUNTRY_ISO":"US","LATITUDE":29.7591048,"LISTING_XRF":"544","LISTING_ZONE":"U","LONGITUDE":-95.6197026,"NAME":"Sysco Corp","POSTAL_CODE":"77077","SECTOR":"BUSINSRV","SHARES":472385960,"SIMILARS_GROUP":"WHLSE FD","USD_CAP":33341001921.764526},{"ADDRESS":"100 Bloomfield Hills Parkway, Suite 300","CITY":"Atlanta","COMPANY_XRF":"894","COMPANY_ZONE":"U","HQ_COUNTRY":"United States","HQ_COUNTRY_ISO":"US","LATITUDE":0,"LISTING_XRF":"902","LISTING_ZONE":"U","LONGITUDE":0,"NAME":"PULTE GROUP INC","POSTAL_CODE":"30326","SECTOR":"REALEST","SHARES":254970640,"SIMILARS_GROUP":"HOMEBLDG","USD_CAP":7705212565.725555},{"ADDRESS":"4902 N Biltmore Ln","CITY":"Madison","COMPANY_XRF":"845","COMPANY_ZONE":"U","HQ_COUNTRY":"United States","HQ_COUNTRY_ISO":"US","LATITUDE":43.1507311,"LISTING_XRF":"853","LISTING_ZONE":"U","LONGITUDE":-89.29607089999999,"NAME":"Alliant Energy Corp","POSTAL_CODE":"53718","SECTOR":"TRANSPRT","SHARES":236074000,"SIMILARS_GROUP":"RAILROAD","USD_CAP":10845239235.801697},{"ADDRESS":"500 Jackson St Box 3005","CITY":"Columbus","COMPANY_XRF":"609","COMPANY_ZONE":"U","HQ_COUNTRY":"United States","HQ_COUNTRY_ISO":"US","LATITUDE":39.2048964,"LISTING_XRF":"615","LISTING_ZONE":"U","LONGITUDE":-85.92376449999999,"NAME":"CUMMINS INC","POSTAL_CODE":"47201","SECTOR":"INDUSTRY","SHARES":144751880,"SIMILARS_GROUP":"ENGINES","USD_CAP":24023022976.644897},{"ADDRESS":"1225 17th St","CITY":"Denver","COMPANY_XRF":"612","COMPANY_ZONE":"U","HQ_COUNTRY":"United States","HQ_COUNTRY_ISO":"US","LATITUDE":39.7476733,"LISTING_XRF":"618","LISTING_ZONE":"U","LONGITUDE":-104.9898183,"NAME":"Molson Coors Brewing Co","POSTAL_CODE":"80202","SECTOR":"CONSTAPL","SHARES":187656500,"SIMILARS_GROUP":"BEER","USD_CAP":11477071511.36589},{"ADDRESS":"1 New Orchard Rd","CITY":"Armonk","COMPANY_XRF":"1","COMPANY_ZONE":"U","HQ_COUNTRY":"United States","HQ_COUNTRY_ISO":"US","LATITUDE":41.1082453,"LISTING_XRF":"1","LISTING_ZONE":"U","LONGITUDE":-73.72040319999999,"NAME":"INTERNATIONAL BUSINESS MACHS","POSTAL_CODE":"10504","SECTOR":"TECH","SHARES":889866000,"SIMILARS_GROUP":"COMPUTER","USD_CAP":123593488196.8689},{"ADDRESS":"1 Wall Street","CITY":"New York","COMPANY_XRF":"526","COMPANY_ZONE":"U","HQ_COUNTRY":"United States","HQ_COUNTRY_ISO":"US","LATITUDE":40.7142643,"LISTING_XRF":"529","LISTING_ZONE":"U","LONGITUDE":-74.0115478,"NAME":"Bank of New York Mellon Corp\/The","POSTAL_CODE":"10286","SECTOR":"FINANCE","SHARES":878454640,"SIMILARS_GROUP":"BANKS","USD_CAP":42332727895.226135},{"ADDRESS":"1 Energy Plaza Dr","CITY":"Dearborn","COMPANY_XRF":"649","COMPANY_ZONE":"U","HQ_COUNTRY":"United States","HQ_COUNTRY_ISO":"US","LATITUDE":0,"LISTING_XRF":"656","LISTING_ZONE":"U","LONGITUDE":0,"NAME":"CMS ENERGY CORP","POSTAL_CODE":"48126-2719","SECTOR":"UTILS","SHARES":283400000,"SIMILARS_GROUP":"ELECTRIC","USD_CAP":15178904389.190674},{"ADDRESS":"751 Broad St","CITY":"Newark","COMPANY_XRF":"13742","COMPANY_ZONE":"U","HQ_COUNTRY":"United States","HQ_COUNTRY_ISO":"US","LATITUDE":40.7393508,"LISTING_XRF":"15178","LISTING_ZONE":"U","LONGITUDE":-74.1710909,"NAME":"Prudential Financial Inc","POSTAL_CODE":"07102","SECTOR":"FINANCE","SHARES":409000000,"SIMILARS_GROUP":"INVSTMAN","USD_CAP":42315139625.54932},{"ADDRESS":"100 N Riverside","CITY":"Chicago","COMPANY_XRF":"46","COMPANY_ZONE":"U","HQ_COUNTRY":"United States","HQ_COUNTRY_ISO":"US","LATITUDE":41.88329410000001,"LISTING_XRF":"47","LISTING_ZONE":"U","LONGITUDE":-87.6386314,"NAME":"Boeing Co\/The","POSTAL_CODE":"60606","SECTOR":"TECH","SHARES":525436050,"SIMILARS_GROUP":"ETRON SY","USD_CAP":197127849933.9157},{"ADDRESS":"110 SE 6th St 28th FL","CITY":"Fort Lauderdale","COMPANY_XRF":"11557","COMPANY_ZONE":"U","HQ_COUNTRY":"United States","HQ_COUNTRY_ISO":"US","LATITUDE":0,"LISTING_XRF":"12591","LISTING_ZONE":"U","LONGITUDE":0,"NAME":"Republic Services Inc","POSTAL_CODE":"33301-5000","SECTOR":"UTILS","SHARES":215482720,"SIMILARS_GROUP":"WASTE","USD_CAP":17008051155.360107},{"ADDRESS":"100 Glenborough Dr Ste 100","CITY":"Houston","COMPANY_XRF":"694","COMPANY_ZONE":"U","HQ_COUNTRY":"United States","HQ_COUNTRY_ISO":"US","LATITUDE":29.9946086,"LISTING_XRF":"701","LISTING_ZONE":"U","LONGITUDE":-95.58080269999999,"NAME":"Noble Energy Inc","POSTAL_CODE":"77067-3616","SECTOR":"ENERGY","SHARES":483584000,"SIMILARS_GROUP":"OIL&GAS","USD_CAP":13482321514.160156},{"ADDRESS":"2655 Seely Ave Bldg 5","CITY":"San Jose","COMPANY_XRF":"3944","COMPANY_ZONE":"U","HQ_COUNTRY":"United States","HQ_COUNTRY_ISO":"US","LATITUDE":37.395149,"LISTING_XRF":"4091","LISTING_ZONE":"U","LONGITUDE":-121.9200212,"NAME":"Cadence Design Systems Inc","POSTAL_CODE":"95134","SECTOR":"TECH","SHARES":280385000,"SIMILARS_GROUP":"SOFTWARE","USD_CAP":18003520850.000004},{"ADDRESS":"20 Lower Hatch Street","CITY":"Dublin","COMPANY_XRF":"742","COMPANY_ZONE":"U","HQ_COUNTRY":"United States","HQ_COUNTRY_ISO":"US","LATITUDE":53.3338709,"LISTING_XRF":"749","LISTING_ZONE":"U","LONGITUDE":-6.2571205,"NAME":"MEDTRONIC PLC","POSTAL_CODE":"2","SECTOR":"HEALTH","SHARES":1341151000,"SIMILARS_GROUP":"MDCL INS","USD_CAP":112857858696.43402},{"ADDRESS":"114 W 11th St","CITY":"Kansas City","COMPANY_XRF":"746","COMPANY_ZONE":"U","HQ_COUNTRY":"United States","HQ_COUNTRY_ISO":"US","LATITUDE":39.1010994,"LISTING_XRF":"753","LISTING_ZONE":"U","LONGITUDE":-94.58509459999999,"NAME":"Kansas City Southern","POSTAL_CODE":"64105","SECTOR":"TRANSPRT","SHARES":100942000,"SIMILARS_GROUP":"RAILROAD","USD_CAP":12521855408.050537},{"ADDRESS":"1 PPG  Pl","CITY":"Pittsburgh","COMPANY_XRF":"155","COMPANY_ZONE":"U","HQ_COUNTRY":"United States","HQ_COUNTRY_ISO":"US","LATITUDE":40.4401115,"LISTING_XRF":"157","LISTING_ZONE":"U","LONGITUDE":-80.00376709999999,"NAME":"PPG Industries Inc","POSTAL_CODE":"15272","SECTOR":"BASICIND","SHARES":235899000,"SIMILARS_GROUP":"GLASS","USD_CAP":27656798256.06537},{"ADDRESS":"1551 Wewatta Street","CITY":"Denver","COMPANY_XRF":"9677","COMPANY_ZONE":"U","HQ_COUNTRY":"United States","HQ_COUNTRY_ISO":"US","LATITUDE":39.7536296,"LISTING_XRF":"10535","LISTING_ZONE":"U","LONGITUDE":-105.0041203,"NAME":"DAVITA INC","POSTAL_CODE":"80202","SECTOR":"CONSTAPL","SHARES":126464000,"SIMILARS_GROUP":"DRUGSTOR","USD_CAP":6462310207.03125},{"ADDRESS":"1915 Rexford Rd","CITY":"Charlotte","COMPANY_XRF":"669","COMPANY_ZONE":"U","HQ_COUNTRY":"United States","HQ_COUNTRY_ISO":"US","LATITUDE":35.1588511,"LISTING_XRF":"676","LISTING_ZONE":"U","LONGITUDE":-80.8347671,"NAME":"Nucor Corp","POSTAL_CODE":"28211","SECTOR":"BASICIND","SHARES":305382000,"SIMILARS_GROUP":"STEEL PR","USD_CAP":17400666220.207214},{"ADDRESS":"333 Continental Blvd","CITY":"El Segundo","COMPANY_XRF":"761","COMPANY_ZONE":"U","HQ_COUNTRY":"United States","HQ_COUNTRY_ISO":"US","LATITUDE":33.920575,"LISTING_XRF":"768","LISTING_ZONE":"U","LONGITUDE":-118.3914183,"NAME":"Mattel Inc","POSTAL_CODE":"90245","SECTOR":"CONSDIS","SHARES":345396000,"SIMILARS_GROUP":"TOYS","USD_CAP":4065311078.109741},{"ADDRESS":"100 First Stamford Place","CITY":"Greenwich","COMPANY_XRF":"10795","COMPANY_ZONE":"U","HQ_COUNTRY":"United States","HQ_COUNTRY_ISO":"US","LATITUDE":41.0443102,"LISTING_XRF":"11702","LISTING_ZONE":"U","LONGITUDE":-73.5486083,"NAME":"UNITED RENTALS INC","POSTAL_CODE":"06830","SECTOR":"BUSINSRV","SHARES":79591000,"SIMILARS_GROUP":"EQP LEAS","USD_CAP":10781397394.363403},{"ADDRESS":"1 Hormel Pl","CITY":"Austin","COMPANY_XRF":"957","COMPANY_ZONE":"U","HQ_COUNTRY":"United States","HQ_COUNTRY_ISO":"US","LATITUDE":43.6823403,"LISTING_XRF":"966","LISTING_ZONE":"U","LONGITUDE":-92.9687031,"NAME":"Hormel Foods Corp","POSTAL_CODE":"55912","SECTOR":"CONSTAPL","SHARES":272643960,"SIMILARS_GROUP":"FOOD","USD_CAP":11022995386.004333},{"ADDRESS":"1600 1st Ave","CITY":"Columbus","COMPANY_XRF":"1453","COMPANY_ZONE":"U","HQ_COUNTRY":"United States","HQ_COUNTRY_ISO":"US","LATITUDE":0,"LISTING_XRF":"1466","LISTING_ZONE":"U","LONGITUDE":0,"NAME":"TOTAL SYSTEM SVCS","POSTAL_CODE":"31901","SECTOR":"BUSINSRV","SHARES":162762720,"SIMILARS_GROUP":"SERVICES","USD_CAP":16399972014.898682},{"ADDRESS":"1100 Cassatt Road","CITY":"Berwyn","COMPANY_XRF":"765","COMPANY_ZONE":"U","HQ_COUNTRY":"United States","HQ_COUNTRY_ISO":"US","LATITUDE":0,"LISTING_XRF":"772","LISTING_ZONE":"U","LONGITUDE":0,"NAME":"Ametek Inc","POSTAL_CODE":"19301-1314","SECTOR":"INDUSTRY","SHARES":227132000,"SIMILARS_GROUP":"ELCT MCH","USD_CAP":19674174463.83667},{"ADDRESS":"1090 Kifer Rd","CITY":"Sunnyvale","COMPANY_XRF":"15700","COMPANY_ZONE":"U","HQ_COUNTRY":"United States","HQ_COUNTRY_ISO":"US","LATITUDE":37.3750188,"LISTING_XRF":"17739","LISTING_ZONE":"U","LONGITUDE":-122.0107919,"NAME":"Fortinet Inc","POSTAL_CODE":"94086","SECTOR":"TECH","SHARES":145038900,"SIMILARS_GROUP":"PERIPHER","USD_CAP":13281212028.73764},{"ADDRESS":"1 Ecolab Place","CITY":"Saint Paul","COMPANY_XRF":"836","COMPANY_ZONE":"U","HQ_COUNTRY":"United States","HQ_COUNTRY_ISO":"US","LATITUDE":44.946551,"LISTING_XRF":"844","LISTING_ZONE":"U","LONGITUDE":-93.0977331,"NAME":"Ecolab Inc","POSTAL_CODE":"55102","SECTOR":"ENERGY","SHARES":253310640,"SIMILARS_GROUP":"OIL SRVC","USD_CAP":46322915499.93164},{"ADDRESS":"1111 Superior Ave E","CITY":"Cleveland","COMPANY_XRF":"280","COMPANY_ZONE":"U","HQ_COUNTRY":"United States","HQ_COUNTRY_ISO":"US","LATITUDE":41.5035271,"LISTING_XRF":"282","LISTING_ZONE":"U","LONGITUDE":-81.6869547,"NAME":"Eaton Corp Plc","POSTAL_CODE":"2","SECTOR":"INDUSTRY","SHARES":423600000,"SIMILARS_GROUP":"MACHINES","USD_CAP":35980585034.17969},{"ADDRESS":"1001 19th St N","CITY":"Arlington","COMPANY_XRF":"2816","COMPANY_ZONE":"U","HQ_COUNTRY":"United States","HQ_COUNTRY_ISO":"US","LATITUDE":0,"LISTING_XRF":"6875","LISTING_ZONE":"U","LONGITUDE":0,"NAME":"AES Corp","POSTAL_CODE":"22203","SECTOR":"UTILS","SHARES":662297000,"SIMILARS_GROUP":"ELECTRIC","USD_CAP":11716034283.704758},{"ADDRESS":"1437 S Boulder Ave","CITY":"Tulsa","COMPANY_XRF":"804","COMPANY_ZONE":"U","HQ_COUNTRY":"United States","HQ_COUNTRY_ISO":"US","LATITUDE":0,"LISTING_XRF":"811","LISTING_ZONE":"U","LONGITUDE":0,"NAME":"Helmerich & Payne Inc","POSTAL_CODE":"74114","SECTOR":"ENERGY","SHARES":109405000,"SIMILARS_GROUP":"OIL DRIL","USD_CAP":7057716783.714294},{"ADDRESS":"5959 Las Colinas Blvd","CITY":"Irving","COMPANY_XRF":"2","COMPANY_ZONE":"U","HQ_COUNTRY":"United States","HQ_COUNTRY_ISO":"US","LATITUDE":32.8898386,"LISTING_XRF":"2","LISTING_ZONE":"U","LONGITUDE":-96.950199,"NAME":"EXXON MOBIL CORP","POSTAL_CODE":"75039","SECTOR":"ENERGY","SHARES":4237000000,"SIMILARS_GROUP":"INTG OIL","USD_CAP":351247306465.1489},{"ADDRESS":"50 S La Salle St","CITY":"Chicago","COMPANY_XRF":"991","COMPANY_ZONE":"U","HQ_COUNTRY":"United States","HQ_COUNTRY_ISO":"US","LATITUDE":41.8811501,"LISTING_XRF":"1000","LISTING_ZONE":"U","LONGITUDE":-87.6330595,"NAME":"NORTHERN TR CORP","POSTAL_CODE":"60603","SECTOR":"FINANCE","SHARES":218412000,"SIMILARS_GROUP":"BANKS","USD_CAP":20065511039.886475},{"ADDRESS":"1 Boston Scientific Pl","CITY":"Marlborough","COMPANY_XRF":"2970","COMPANY_ZONE":"U","HQ_COUNTRY":"United States","HQ_COUNTRY_ISO":"US","LATITUDE":42.3611457,"LISTING_XRF":"6877","LISTING_ZONE":"U","LONGITUDE":-71.5615488,"NAME":"Boston Scientific Corp","POSTAL_CODE":"01752","SECTOR":"HEALTH","SHARES":1385962000,"SIMILARS_GROUP":"MDCL INS","USD_CAP":48411653082.962036},{"ADDRESS":"8000 S Federal Way","CITY":"Boise","COMPANY_XRF":"835","COMPANY_ZONE":"U","HQ_COUNTRY":"United States","HQ_COUNTRY_ISO":"US","LATITUDE":43.5308775,"LISTING_XRF":"843","LISTING_ZONE":"U","LONGITUDE":-116.1493734,"NAME":"Micron Technology Inc","POSTAL_CODE":"83707","SECTOR":"TECH","SHARES":1121047000,"SIMILARS_GROUP":"SEMICOND","USD_CAP":48653441510.58197},{"ADDRESS":"233 S Patterson","CITY":"Springfield","COMPANY_XRF":"7719","COMPANY_ZONE":"U","HQ_COUNTRY":"United States","HQ_COUNTRY_ISO":"US","LATITUDE":37.2098409,"LISTING_XRF":"8348","LISTING_ZONE":"U","LONGITUDE":-93.2496142,"NAME":"O'Reilly Automotive Inc","POSTAL_CODE":"65802","SECTOR":"CONSDIS","SHARES":78376000,"SIMILARS_GROUP":"RTL SPEC","USD_CAP":30826064368.652344},{"ADDRESS":"1900 5th Ave N","CITY":"Birmingham","COMPANY_XRF":"865","COMPANY_ZONE":"U","HQ_COUNTRY":"United States","HQ_COUNTRY_ISO":"US","LATITUDE":33.5180599,"LISTING_XRF":"873","LISTING_ZONE":"U","LONGITUDE":-86.8090118,"NAME":"REGIONS FINL CORP NEW","POSTAL_CODE":"35203","SECTOR":"FINANCE","SHARES":1017719000,"SIMILARS_GROUP":"BANKS","USD_CAP":15510037327.062607},{"ADDRESS":"141 Needham Street","CITY":"Needham","COMPANY_XRF":"15958","COMPANY_ZONE":"U","HQ_COUNTRY":"United States","HQ_COUNTRY_ISO":"US","LATITUDE":0,"LISTING_XRF":"18026","LISTING_ZONE":"U","LONGITUDE":0,"NAME":"TripAdvisor Inc","POSTAL_CODE":"02464","SECTOR":"TECH","SHARES":102775520,"SIMILARS_GROUP":"SOFTWARE","USD_CAP":5329938529.929199},{"ADDRESS":"2455 Paces Ferry Rd SE","CITY":"Atlanta","COMPANY_XRF":"877","COMPANY_ZONE":"U","HQ_COUNTRY":"United States","HQ_COUNTRY_ISO":"US","LATITUDE":33.8654896,"LISTING_XRF":"885","LISTING_ZONE":"U","LONGITUDE":-84.4814083,"NAME":"HOME DEPOT INC","POSTAL_CODE":"30339","SECTOR":"CONSDIS","SHARES":1129528000,"SIMILARS_GROUP":"RTL DOIT","USD_CAP":231304742461.18164},{"ADDRESS":"1 Amd Pl","CITY":" Santa Clara","COMPANY_XRF":"305","COMPANY_ZONE":"U","HQ_COUNTRY":"United States","HQ_COUNTRY_ISO":"US","LATITUDE":37.3829254,"LISTING_XRF":"307","LISTING_ZONE":"U","LONGITUDE":-121.9703842,"NAME":"Advanced Micro Devices Inc","POSTAL_CODE":"94085-3905","SECTOR":"TECH","SHARES":881013740,"SIMILARS_GROUP":"SEMICOND","USD_CAP":24826967462.064056},{"ADDRESS":"2 International Pl","CITY":"Boston","COMPANY_XRF":"10785","COMPANY_ZONE":"U","HQ_COUNTRY":"United States","HQ_COUNTRY_ISO":"US","LATITUDE":42.5629835,"LISTING_XRF":"11692","LISTING_ZONE":"U","LONGITUDE":-70.8259602,"NAME":"AFFILIATED MANAGERS GROUP IN","POSTAL_CODE":"01965","SECTOR":"FINANCE","SHARES":52049000,"SIMILARS_GROUP":"INVSTMAN","USD_CAP":5899754070.579529},{"ADDRESS":"1 Campbell Pl","CITY":"Camden","COMPANY_XRF":"22","COMPANY_ZONE":"U","HQ_COUNTRY":"United States","HQ_COUNTRY_ISO":"US","LATITUDE":39.9390315,"LISTING_XRF":"23","LISTING_ZONE":"U","LONGITUDE":-75.1080212,"NAME":"CAMPBELL SOUP CO","POSTAL_CODE":"08103","SECTOR":"CONSTAPL","SHARES":192658560,"SIMILARS_GROUP":"FOOD","USD_CAP":7575334520.405273},{"ADDRESS":"1 Franklin Pkwy","CITY":"San Mateo","COMPANY_XRF":"1225","COMPANY_ZONE":"U","HQ_COUNTRY":"United States","HQ_COUNTRY_ISO":"US","LATITUDE":37.5437749,"LISTING_XRF":"1235","LISTING_ZONE":"U","LONGITUDE":-122.2942274,"NAME":"Franklin Resources Inc","POSTAL_CODE":"94403","SECTOR":"FINANCE","SHARES":295515800,"SIMILARS_GROUP":"INVSTMAN","USD_CAP":10354873902.552795},{"ADDRESS":"200 Riverfront Blvd","CITY":"Charlotte","COMPANY_XRF":"1281","COMPANY_ZONE":"U","HQ_COUNTRY":"United States","HQ_COUNTRY_ISO":"US","LATITUDE":40.9019702,"LISTING_XRF":"1291","LISTING_ZONE":"U","LONGITUDE":-74.0935322,"NAME":"SEALED AIR CORP NEW","POSTAL_CODE":"07407","SECTOR":"BASICIND","SHARES":155633000,"SIMILARS_GROUP":"PAPRPROD","USD_CAP":7115540949.981689},{"ADDRESS":"1 Riverfront Plz","CITY":"Corning","COMPANY_XRF":"252","COMPANY_ZONE":"U","HQ_COUNTRY":"United States","HQ_COUNTRY_ISO":"US","LATITUDE":42.1453767,"LISTING_XRF":"254","LISTING_ZONE":"U","LONGITUDE":-77.0558823,"NAME":"CORNING INC","POSTAL_CODE":"14831","SECTOR":"BASICIND","SHARES":786761000,"SIMILARS_GROUP":"GLASS","USD_CAP":27025239149.497986},{"ADDRESS":"100 W 5th St","CITY":"Tulsa","COMPANY_XRF":"917","COMPANY_ZONE":"U","HQ_COUNTRY":"United States","HQ_COUNTRY_ISO":"US","LATITUDE":36.1506247,"LISTING_XRF":"926","LISTING_ZONE":"U","LONGITUDE":-95.9917964,"NAME":"Oneok Inc","POSTAL_CODE":"74103","SECTOR":"UTILS","SHARES":411611000,"SIMILARS_GROUP":"GAS TRDI","USD_CAP":28783957355.61371},{"ADDRESS":"5757 N Green Bay Ave","CITY":"Cork","COMPANY_XRF":"923","COMPANY_ZONE":"U","HQ_COUNTRY":"United States","HQ_COUNTRY_ISO":"US","LATITUDE":51.8976407,"LISTING_XRF":"932","LISTING_ZONE":"U","LONGITUDE":-8.464104599999999,"NAME":"Johnson Controls International PLC","POSTAL_CODE":"53201","SECTOR":"INDUSTRY","SHARES":912713000,"SIMILARS_GROUP":"ALARMS","USD_CAP":33450931450},{"ADDRESS":"1717 Main St","CITY":"Dallas","COMPANY_XRF":"927","COMPANY_ZONE":"U","HQ_COUNTRY":"United States","HQ_COUNTRY_ISO":"US","LATITUDE":32.7815695,"LISTING_XRF":"936","LISTING_ZONE":"U","LONGITUDE":-96.79645479999999,"NAME":"COMERICA INC","POSTAL_CODE":"48226","SECTOR":"FINANCE","SHARES":159001000,"SIMILARS_GROUP":"BANKS","USD_CAP":12451367921.813965},{"ADDRESS":"200 Powell Pl","CITY":"Brentwood","COMPANY_XRF":"8326","COMPANY_ZONE":"U","HQ_COUNTRY":"United States","HQ_COUNTRY_ISO":"US","LATITUDE":0,"LISTING_XRF":"8944","LISTING_ZONE":"U","LONGITUDE":0,"NAME":"Tractor Supply Co","POSTAL_CODE":"37027","SECTOR":"CONSDIS","SHARES":121280000,"SIMILARS_GROUP":"RTL DOIT","USD_CAP":12325686066.894531},{"ADDRESS":"11995 El Camino Real","CITY":"Escondido","COMPANY_XRF":"8214","COMPANY_ZONE":"U","HQ_COUNTRY":"United States","HQ_COUNTRY_ISO":"US","LATITUDE":32.9375231,"LISTING_XRF":"8832","LISTING_ZONE":"U","LONGITUDE":-117.2367751,"NAME":"Realty Income Corp.","POSTAL_CODE":"92025","SECTOR":"REALEST","SHARES":303792000,"SIMILARS_GROUP":"REIT","USD_CAP":20624438694.58008},{"ADDRESS":"150 N Radnor Chester Rd Ste A305","CITY":"Philadelphia","COMPANY_XRF":"292","COMPANY_ZONE":"U","HQ_COUNTRY":"United States","HQ_COUNTRY_ISO":"US","LATITUDE":40.043008,"LISTING_XRF":"294","LISTING_ZONE":"U","LONGITUDE":-75.3656481,"NAME":"Lincoln National Corp","POSTAL_CODE":"19087","SECTOR":"FINANCE","SHARES":204294000,"SIMILARS_GROUP":"INS MISC","USD_CAP":13426201929.382324},{"ADDRESS":"650 Madison Ave","CITY":"New York","COMPANY_XRF":"11320","COMPANY_ZONE":"U","HQ_COUNTRY":"United States","HQ_COUNTRY_ISO":"US","LATITUDE":40.76308280000001,"LISTING_XRF":"12282","LISTING_ZONE":"U","LONGITUDE":-73.9713783,"NAME":"Ralph Lauren Corp","POSTAL_CODE":"10022","SECTOR":"CONSDIS","SHARES":52741000,"SIMILARS_GROUP":"APPAREL","USD_CAP":6895885750},{"ADDRESS":"777 E Wisconsin Ave","CITY":"Milwaukee","COMPANY_XRF":"1000","COMPANY_ZONE":"U","HQ_COUNTRY":"United States","HQ_COUNTRY_ISO":"US","LATITUDE":43.0382719,"LISTING_XRF":"1009","LISTING_ZONE":"U","LONGITUDE":-87.901871,"NAME":"US Bancorp","POSTAL_CODE":"53202","SECTOR":"FINANCE","SHARES":1504584680,"SIMILARS_GROUP":"BANKS","USD_CAP":77034736763.90701},{"ADDRESS":"150 Industrial Rd","CITY":"San Carlos","COMPANY_XRF":"8433","COMPANY_ZONE":"U","HQ_COUNTRY":"United States","HQ_COUNTRY_ISO":"US","LATITUDE":0,"LISTING_XRF":"9053","LISTING_ZONE":"U","LONGITUDE":0,"NAME":"Nektar Therapeutics","POSTAL_CODE":"94070-2396","SECTOR":"HEALTH","SHARES":174104000,"SIMILARS_GROUP":"DRUGS","USD_CAP":5397224000},{"ADDRESS":"1 Hartford Plz","CITY":"Hartford","COMPANY_XRF":"8968","COMPANY_ZONE":"U","HQ_COUNTRY":"United States","HQ_COUNTRY_ISO":"US","LATITUDE":0,"LISTING_XRF":"9590","LISTING_ZONE":"U","LONGITUDE":0,"NAME":"HARTFORD FINL SVCS GROUP INC","POSTAL_CODE":"06115","SECTOR":"REALEST","SHARES":359470000,"SIMILARS_GROUP":"INVEST","USD_CAP":18293428080.596924},{"ADDRESS":"1 Enterprise","CITY":"Aliso Viejo","COMPANY_XRF":"13273","COMPANY_ZONE":"U","HQ_COUNTRY":"United States","HQ_COUNTRY_ISO":"US","LATITUDE":33.584245,"LISTING_XRF":"14282","LISTING_ZONE":"U","LONGITUDE":-117.723593,"NAME":"FLUOR CORP","POSTAL_CODE":"75039","SECTOR":"INDUSTRY","SHARES":139578000,"SIMILARS_GROUP":"CONSTRUC","USD_CAP":5771550087.020874},{"ADDRESS":"1 Technology Dr","CITY":"Milpitas","COMPANY_XRF":"1006","COMPANY_ZONE":"U","HQ_COUNTRY":"United States","HQ_COUNTRY_ISO":"US","LATITUDE":37.4207877,"LISTING_XRF":"1015","LISTING_ZONE":"U","LONGITUDE":-121.924156,"NAME":"KLA-TENCOR CORP","POSTAL_CODE":"95035","SECTOR":"TECH","SHARES":165202000,"SIMILARS_GROUP":"SEMIMACH","USD_CAP":20331410089.58435},{"ADDRESS":"127 Public Sq","CITY":"Cleveland","COMPANY_XRF":"909","COMPANY_ZONE":"U","HQ_COUNTRY":"United States","HQ_COUNTRY_ISO":"US","LATITUDE":41.5005356,"LISTING_XRF":"918","LISTING_ZONE":"U","LONGITUDE":-81.6941557,"NAME":"KEYCORP NEW","POSTAL_CODE":"44114","SECTOR":"FINANCE","SHARES":1008788000,"SIMILARS_GROUP":"BANKS","USD_CAP":17139307889.10675},{"ADDRESS":"615 J.B. Hunt Corporate Dr","CITY":"Lowell","COMPANY_XRF":"1121","COMPANY_ZONE":"U","HQ_COUNTRY":"United States","HQ_COUNTRY_ISO":"US","LATITUDE":36.2447313,"LISTING_XRF":"1130","LISTING_ZONE":"U","LONGITUDE":-94.1494438,"NAME":"JB Hunt Transport Services Inc","POSTAL_CODE":"72745","SECTOR":"TRANSPRT","SHARES":86991200,"SIMILARS_GROUP":"TRUCKING","USD_CAP":8579072382.928467},{"ADDRESS":"207 High Point Dr Bldg 100","CITY":"Fairport","COMPANY_XRF":"2300","COMPANY_ZONE":"U","HQ_COUNTRY":"United States","HQ_COUNTRY_ISO":"US","LATITUDE":0,"LISTING_XRF":"3947","LISTING_ZONE":"U","LONGITUDE":0,"NAME":"CONSTELLATION BRANDS INC","POSTAL_CODE":"14450-4222","SECTOR":"CONSTAPL","SHARES":166548000,"SIMILARS_GROUP":"LIQUOR","USD_CAP":34218953198.181152},{"ADDRESS":"2170 Piedmont Rd NE","CITY":"Atlanta","COMPANY_XRF":"1153","COMPANY_ZONE":"U","HQ_COUNTRY":"United States","HQ_COUNTRY_ISO":"US","LATITUDE":33.815897,"LISTING_XRF":"1162","LISTING_ZONE":"U","LONGITUDE":-84.36697989999999,"NAME":"ROLLINS INC","POSTAL_CODE":"30324","SECTOR":"BUSINSRV","SHARES":147389850,"SIMILARS_GROUP":"SERVICES","USD_CAP":6404089094.949532},{"ADDRESS":"1626 E Jefferson St","CITY":"Rockville","COMPANY_XRF":"1456","COMPANY_ZONE":"U","HQ_COUNTRY":"United States","HQ_COUNTRY_ISO":"US","LATITUDE":39.0613177,"LISTING_XRF":"1469","LISTING_ZONE":"U","LONGITUDE":-77.1268867,"NAME":"Federal Realty Investment Trus","POSTAL_CODE":"20852","SECTOR":"REALEST","SHARES":74366000,"SIMILARS_GROUP":"REIT","USD_CAP":9637089667.663574},{"ADDRESS":"20 N Broadway","CITY":"Oklahoma City","COMPANY_XRF":"4624","COMPANY_ZONE":"U","HQ_COUNTRY":"United States","HQ_COUNTRY_ISO":"US","LATITUDE":0,"LISTING_XRF":"4775","LISTING_ZONE":"U","LONGITUDE":0,"NAME":"Devon Energy Corp New","POSTAL_CODE":"73102","SECTOR":"ENERGY","SHARES":438300000,"SIMILARS_GROUP":"OIL&GAS","USD_CAP":15410627933.120728},{"ADDRESS":"367 S Gulph Rd","CITY":"King Of Prussia","COMPANY_XRF":"1182","COMPANY_ZONE":"U","HQ_COUNTRY":"United States","HQ_COUNTRY_ISO":"US","LATITUDE":40.078207,"LISTING_XRF":"1192","LISTING_ZONE":"U","LONGITUDE":-75.36959,"NAME":"Universal Health Ser","POSTAL_CODE":"19406","SECTOR":"HEALTH","SHARES":83527000,"SIMILARS_GROUP":"HOSPITAL","USD_CAP":10265468427.452087},{"ADDRESS":"3 Lincoln Centre, Ste 1800, 5430 LBJ Freeway","CITY":"Dallas","COMPANY_XRF":"3546","COMPANY_ZONE":"U","HQ_COUNTRY":"United States","HQ_COUNTRY_ISO":"US","LATITUDE":32.9224922,"LISTING_XRF":"3571","LISTING_ZONE":"U","LONGITUDE":-96.81753929999999,"NAME":"ATMOS ENERGY CORP","POSTAL_CODE":"75240","SECTOR":"UTILS","SHARES":116889000,"SIMILARS_GROUP":"GAS TRNS","USD_CAP":11580193194.328308},{"ADDRESS":"150 Broadway","CITY":"Cambridge","COMPANY_XRF":"12256","COMPANY_ZONE":"U","HQ_COUNTRY":"United States","HQ_COUNTRY_ISO":"US","LATITUDE":42.3644243,"LISTING_XRF":"13451","LISTING_ZONE":"U","LONGITUDE":-71.08905039999999,"NAME":"Akamai Technologies Inc","POSTAL_CODE":"02139-1955","SECTOR":"TECH","SHARES":163212000,"SIMILARS_GROUP":"SOFTWARE","USD_CAP":12516728678.466797},{"ADDRESS":"3050 Bowers Ave","CITY":"Santa Clara","COMPANY_XRF":"1434","COMPANY_ZONE":"U","HQ_COUNTRY":"United States","HQ_COUNTRY_ISO":"US","LATITUDE":37.3776247,"LISTING_XRF":"1447","LISTING_ZONE":"U","LONGITUDE":-121.9787818,"NAME":"Applied Materials Inc","POSTAL_CODE":"95052","SECTOR":"TECH","SHARES":949393000,"SIMILARS_GROUP":"SEMIMACH","USD_CAP":41573920339.19525},{"ADDRESS":"1 M And T Plz","CITY":"Buffalo","COMPANY_XRF":"1522","COMPANY_ZONE":"U","HQ_COUNTRY":"United States","HQ_COUNTRY_ISO":"US","LATITUDE":0,"LISTING_XRF":"1535","LISTING_ZONE":"U","LONGITUDE":0,"NAME":"M & T BK CORP","POSTAL_CODE":"14203","SECTOR":"FINANCE","SHARES":138526000,"SIMILARS_GROUP":"BANKS","USD_CAP":23063194500.946045},{"ADDRESS":"2795 E Cottonwood Pkwy","CITY":"Salt Lake City","COMPANY_XRF":"14301","COMPANY_ZONE":"U","HQ_COUNTRY":"United States","HQ_COUNTRY_ISO":"US","LATITUDE":0,"LISTING_XRF":"15910","LISTING_ZONE":"U","LONGITUDE":0,"NAME":"Extra Space Storage Inc","POSTAL_CODE":"84121","SECTOR":"REALEST","SHARES":127299000,"SIMILARS_GROUP":"REIT","USD_CAP":12633152488.059998},{"ADDRESS":"200 Madison Ave","CITY":"New York","COMPANY_XRF":"1540","COMPANY_ZONE":"U","HQ_COUNTRY":"United States","HQ_COUNTRY_ISO":"US","LATITUDE":40.7489466,"LISTING_XRF":"1553","LISTING_ZONE":"U","LONGITUDE":-73.9826768,"NAME":"PVH Corp","POSTAL_CODE":"10016","SECTOR":"CONSDIS","SHARES":75735000,"SIMILARS_GROUP":"APPAREL","USD_CAP":9915982995.300293},{"ADDRESS":"700 Northwest 107th Avenue","CITY":"Miami","COMPANY_XRF":"1767","COMPANY_ZONE":"U","HQ_COUNTRY":"United States","HQ_COUNTRY_ISO":"US","LATITUDE":25.7769431,"LISTING_XRF":"1782","LISTING_ZONE":"U","LONGITUDE":-80.37039759999999,"NAME":"Lennar Corporation","POSTAL_CODE":"33172","SECTOR":"REALEST","SHARES":285951000,"SIMILARS_GROUP":"HOMEBLDG","USD_CAP":14895187633.63266},{"ADDRESS":"135 Duryea Rd","CITY":"Melville","COMPANY_XRF":"9379","COMPANY_ZONE":"U","HQ_COUNTRY":"United States","HQ_COUNTRY_ISO":"US","LATITUDE":40.768707,"LISTING_XRF":"10126","LISTING_ZONE":"U","LONGITUDE":-73.41564129999999,"NAME":"HENRY SCHEIN INC","POSTAL_CODE":"11747","SECTOR":"HEALTH","SHARES":151404000,"SIMILARS_GROUP":"MDCL INS","USD_CAP":9296205831.02417},{"ADDRESS":"1 Post St","CITY":"San Francisco","COMPANY_XRF":"536","COMPANY_ZONE":"U","HQ_COUNTRY":"United States","HQ_COUNTRY_ISO":"US","LATITUDE":37.7886826,"LISTING_XRF":"540","LISTING_ZONE":"U","LONGITUDE":-122.4024594,"NAME":"McKesson Corporation","POSTAL_CODE":"94104","SECTOR":"BUSINSRV","SHARES":191825000,"SIMILARS_GROUP":"WHLSE DR","USD_CAP":21574557984.161377},{"ADDRESS":"469 N Harrison St","CITY":"Ewing","COMPANY_XRF":"1388","COMPANY_ZONE":"U","HQ_COUNTRY":"United States","HQ_COUNTRY_ISO":"US","LATITUDE":0,"LISTING_XRF":"1400","LISTING_ZONE":"U","LONGITUDE":0,"NAME":"CHURCH & DWIGHT INC","POSTAL_CODE":"08540-3510","SECTOR":"BASICIND","SHARES":245901000,"SIMILARS_GROUP":"INDSTRL","USD_CAP":18135198750},{"ADDRESS":"20 Sylvan Rd","CITY":"Woburn","COMPANY_XRF":"2006","COMPANY_ZONE":"U","HQ_COUNTRY":"United States","HQ_COUNTRY_ISO":"US","LATITUDE":42.499489,"LISTING_XRF":"2022","LISTING_ZONE":"U","LONGITUDE":-71.164715,"NAME":"SKYWORKS SOLUTIONS INC","POSTAL_CODE":"01801","SECTOR":"TECH","SHARES":174065000,"SIMILARS_GROUP":"SEMICOND","USD_CAP":15364716965.675354},{"ADDRESS":"Block D, Iveagh Court, Harcourt Road","CITY":"Dublin","COMPANY_XRF":"16234","COMPANY_ZONE":"U","HQ_COUNTRY":"Ireland","HQ_COUNTRY_ISO":"IE","LATITUDE":53.1423672,"LISTING_XRF":"18326","LISTING_ZONE":"U","LONGITUDE":-7.692053599999999,"NAME":"Allegion PLC","POSTAL_CODE":"1","SECTOR":"","SHARES":94458000,"SIMILARS_GROUP":"","USD_CAP":8875273593.521118},{"ADDRESS":"222 Las Colinas Blvd W Ste 1500","CITY":"Irving","COMPANY_XRF":"2063","COMPANY_ZONE":"U","HQ_COUNTRY":"United States","HQ_COUNTRY_ISO":"US","LATITUDE":0,"LISTING_XRF":"2080","LISTING_ZONE":"U","LONGITUDE":0,"NAME":"FLOWSERVE CORP","POSTAL_CODE":"75039","SECTOR":"BASICIND","SHARES":130983000,"SIMILARS_GROUP":"METAL PR","USD_CAP":6532122070.095062},{"ADDRESS":"1745 Shea Center Dr Ste 200","CITY":"Denver","COMPANY_XRF":"2378","COMPANY_ZONE":"U","HQ_COUNTRY":"United States","HQ_COUNTRY_ISO":"US","LATITUDE":0,"LISTING_XRF":"2399","LISTING_ZONE":"U","LONGITUDE":0,"NAME":"UDR INC","POSTAL_CODE":"23219-3816","SECTOR":"REALEST","SHARES":275611000,"SIMILARS_GROUP":"REIT","USD_CAP":11991834147.396088},{"ADDRESS":"14185 Dallas Parkway, Suite 300","CITY":"Benicia","COMPANY_XRF":"8271","COMPANY_ZONE":"U","HQ_COUNTRY":"United States","HQ_COUNTRY_ISO":"US","LATITUDE":32.9390472,"LISTING_XRF":"8889","LISTING_ZONE":"U","LONGITUDE":-96.82273160000001,"NAME":"Copart Inc","POSTAL_CODE":"75254","SECTOR":"BUSINSRV","SHARES":200821280,"SIMILARS_GROUP":"WHLSE TR","USD_CAP":13051374558.199463},{"ADDRESS":"100 2nd Ave S Ste 1100S","CITY":"Alpharetta","COMPANY_XRF":"13529","COMPANY_ZONE":"U","HQ_COUNTRY":"United States","HQ_COUNTRY_ISO":"US","LATITUDE":0,"LISTING_XRF":"14586","LISTING_ZONE":"U","LONGITUDE":0,"NAME":"Fidelity National Information Services Inc","POSTAL_CODE":"30004-2271","SECTOR":"TECH","SHARES":322921000,"SIMILARS_GROUP":"SOFTWARE","USD_CAP":36234965114.356995},{"ADDRESS":"1111 S Arroyo Pkwy","CITY":"Dallas","COMPANY_XRF":"3038","COMPANY_ZONE":"U","HQ_COUNTRY":"United States","HQ_COUNTRY_ISO":"US","LATITUDE":32.7846746,"LISTING_XRF":"3064","LISTING_ZONE":"U","LONGITUDE":-96.7968554,"NAME":"Jacobs Engineering Group Inc","POSTAL_CODE":"75201","SECTOR":"INDUSTRY","SHARES":117194280,"SIMILARS_GROUP":"CONSTRUC","USD_CAP":9220845986.164856},{"ADDRESS":"3135 Easton Tpke","CITY":"Boston","COMPANY_XRF":"3","COMPANY_ZONE":"U","HQ_COUNTRY":"United States","HQ_COUNTRY_ISO":"US","LATITUDE":42.351941,"LISTING_XRF":"3","LISTING_ZONE":"U","LONGITUDE":-71.04784699999999,"NAME":"GENERAL ELECTRIC CO","POSTAL_CODE":"02210","SECTOR":"INDUSTRY","SHARES":8705080000,"SIMILARS_GROUP":"CNST MCH","USD_CAP":81131342943.42041},{"ADDRESS":"12061 Bluemont Way","CITY":"Dulles","COMPANY_XRF":"11303","COMPANY_ZONE":"U","HQ_COUNTRY":"United States","HQ_COUNTRY_ISO":"US","LATITUDE":38.9569186,"LISTING_XRF":"12251","LISTING_ZONE":"U","LONGITUDE":-77.3620895,"NAME":"VeriSign Inc","POSTAL_CODE":"20166","SECTOR":"TECH","SHARES":105349200,"SIMILARS_GROUP":"SOFTWARE","USD_CAP":19704513660.699463},{"ADDRESS":"500 W Main St","CITY":"Louisville","COMPANY_XRF":"5669","COMPANY_ZONE":"U","HQ_COUNTRY":"United States","HQ_COUNTRY_ISO":"US","LATITUDE":38.2558737,"LISTING_XRF":"3396","LISTING_ZONE":"U","LONGITUDE":-85.7585738,"NAME":"HUMANA INC","POSTAL_CODE":"40202","SECTOR":"FINANCE","SHARES":135567000,"SIMILARS_GROUP":"INS HLTH","USD_CAP":32888555027.435303},{"ADDRESS":"1 H& R Block Way","CITY":"Kansas City","COMPANY_XRF":"638","COMPANY_ZONE":"U","HQ_COUNTRY":"United States","HQ_COUNTRY_ISO":"US","LATITUDE":0,"LISTING_XRF":"645","LISTING_ZONE":"U","LONGITUDE":0,"NAME":"Block H & R Inc","POSTAL_CODE":"64105","SECTOR":"BUSINSRV","SHARES":205528000,"SIMILARS_GROUP":"SERVICES","USD_CAP":5489652691.833496},{"ADDRESS":"17 Duffy Pl","CITY":"Edmonton","COMPANY_XRF":"8447","COMPANY_ZONE":"U","HQ_COUNTRY":"United States","HQ_COUNTRY_ISO":"US","LATITUDE":0,"LISTING_XRF":"9067","LISTING_ZONE":"U","LONGITUDE":0,"NAME":"Regency Centers","POSTAL_CODE":"A1B 4L1","SECTOR":"REALEST","SHARES":167506000,"SIMILARS_GROUP":"REIT","USD_CAP":10827587737.762451},{"ADDRESS":"45 Reid St Wessex House 2nd Fl","CITY":"Hamilton","COMPANY_XRF":"9443","COMPANY_ZONE":"U","HQ_COUNTRY":"United States","HQ_COUNTRY_ISO":"US","LATITUDE":0,"LISTING_XRF":"10199","LISTING_ZONE":"U","LONGITUDE":0,"NAME":"Everest Re Group Ltd","POSTAL_CODE":"HM 12","SECTOR":"FINANCE","SHARES":40675000,"SIMILARS_GROUP":"INS MISC","USD_CAP":9294644026.565552},{"ADDRESS":"7 W 7th St","CITY":"Cincinnati","COMPANY_XRF":"177","COMPANY_ZONE":"U","HQ_COUNTRY":"United States","HQ_COUNTRY_ISO":"US","LATITUDE":39.103259,"LISTING_XRF":"179","LISTING_ZONE":"U","LONGITUDE":-84.51413099999999,"NAME":"MACYS INC","POSTAL_CODE":"45202","SECTOR":"CONSDIS","SHARES":307500000,"SIMILARS_GROUP":"RTL DEPT","USD_CAP":7481474976.539612},{"ADDRESS":"100 CenturyLink Drive","CITY":"Monroe","COMPANY_XRF":"1817","COMPANY_ZONE":"U","HQ_COUNTRY":"United States","HQ_COUNTRY_ISO":"US","LATITUDE":32.5891034,"LISTING_XRF":"1832","LISTING_ZONE":"U","LONGITUDE":-92.06644059999999,"NAME":"CenturyLink Inc","POSTAL_CODE":"71203","SECTOR":"TELECOMM","SHARES":950979920,"SIMILARS_GROUP":"PHONE","USD_CAP":11297641558.431015},{"ADDRESS":"303 Peachtree St NE","CITY":"Atlanta","COMPANY_XRF":"3463","COMPANY_ZONE":"U","HQ_COUNTRY":"United States","HQ_COUNTRY_ISO":"US","LATITUDE":33.7626503,"LISTING_XRF":"3488","LISTING_ZONE":"U","LONGITUDE":-84.3866807,"NAME":"SunTrust Banks Inc","POSTAL_CODE":"30308","SECTOR":"FINANCE","SHARES":443255000,"SIMILARS_GROUP":"BANKS","USD_CAP":28080203573.646545},{"ADDRESS":"11270 W Park Pl","CITY":"Milwaukee","COMPANY_XRF":"1880","COMPANY_ZONE":"U","HQ_COUNTRY":"United States","HQ_COUNTRY_ISO":"US","LATITUDE":43.1514819,"LISTING_XRF":"1896","LISTING_ZONE":"U","LONGITUDE":-88.0516268,"NAME":"AO Smith Corp","POSTAL_CODE":"53224","SECTOR":"CONSDIS","SHARES":141803000,"SIMILARS_GROUP":"DURABLES","USD_CAP":7953730291.637421},{"ADDRESS":"101 Prospect Ave NW","CITY":"Cleveland","COMPANY_XRF":"513","COMPANY_ZONE":"U","HQ_COUNTRY":"United States","HQ_COUNTRY_ISO":"US","LATITUDE":41.4973117,"LISTING_XRF":"516","LISTING_ZONE":"U","LONGITUDE":-81.6924784,"NAME":"Sherwin-Williams Company","POSTAL_CODE":"44115","SECTOR":"BASICIND","SHARES":81591840,"SIMILARS_GROUP":"CHEMICAL","USD_CAP":36870537772.79297},{"ADDRESS":"1200 Enclave Pkwy","CITY":"Houston","COMPANY_XRF":"5454","COMPANY_ZONE":"U","HQ_COUNTRY":"United States","HQ_COUNTRY_ISO":"US","LATITUDE":0,"LISTING_XRF":"5682","LISTING_ZONE":"U","LONGITUDE":0,"NAME":"CABOT OIL & GAS CORP","POSTAL_CODE":"77024","SECTOR":"ENERGY","SHARES":423367000,"SIMILARS_GROUP":"OIL&GAS","USD_CAP":11079514422.300339},{"ADDRESS":"400 E Van Buren St Ste 700","CITY":"Phoenix","COMPANY_XRF":"275","COMPANY_ZONE":"U","HQ_COUNTRY":"United States","HQ_COUNTRY_ISO":"US","LATITUDE":33.4524787,"LISTING_XRF":"277","LISTING_ZONE":"U","LONGITUDE":-112.0677898,"NAME":"Pinnacle West Capital Corp","POSTAL_CODE":"85004","SECTOR":"UTILS","SHARES":112147000,"SIMILARS_GROUP":"ELECTRIC","USD_CAP":10494716465.34729},{"ADDRESS":"2244 Walnut Grove Ave","CITY":"Rosemead","COMPANY_XRF":"77","COMPANY_ZONE":"U","HQ_COUNTRY":"United States","HQ_COUNTRY_ISO":"US","LATITUDE":34.0540475,"LISTING_XRF":"78","LISTING_ZONE":"U","LONGITUDE":-118.0806461,"NAME":"EDISON INTERNATIONAL","POSTAL_CODE":"91770","SECTOR":"UTILS","SHARES":325811000,"SIMILARS_GROUP":"ELECTRIC","USD_CAP":20532609369.14444},{"ADDRESS":"2025 Hamilton Avenue","CITY":"San Jose","COMPANY_XRF":"11467","COMPANY_ZONE":"U","HQ_COUNTRY":"United States","HQ_COUNTRY_ISO":"US","LATITUDE":37.295469,"LISTING_XRF":"12454","LISTING_ZONE":"U","LONGITUDE":-121.9275096,"NAME":"EBAY INC","POSTAL_CODE":"95125","SECTOR":"TELECOMM","SHARES":859987200,"SIMILARS_GROUP":"COMM MIS","USD_CAP":31088538592.23633},{"ADDRESS":"6300 Wilson Mills Rd","CITY":"Cleveland","COMPANY_XRF":"3473","COMPANY_ZONE":"U","HQ_COUNTRY":"United States","HQ_COUNTRY_ISO":"US","LATITUDE":41.534716,"LISTING_XRF":"3498","LISTING_ZONE":"U","LONGITUDE":-81.45079129999999,"NAME":"PROGRESSIVE CORP\/THE","POSTAL_CODE":"44143","SECTOR":"FINANCE","SHARES":583896000,"SIMILARS_GROUP":"INS MISC","USD_CAP":43535284334.47266},{"ADDRESS":"550 W Texas Ave Ste 1300","CITY":"Midland","COMPANY_XRF":"15341","COMPANY_ZONE":"U","HQ_COUNTRY":"United States","HQ_COUNTRY_ISO":"US","LATITUDE":31.9998809,"LISTING_XRF":"17313","LISTING_ZONE":"U","LONGITUDE":-102.0809697,"NAME":"Concho Resources Inc\/Midland TX","POSTAL_CODE":"79701","SECTOR":"ENERGY","SHARES":200594000,"SIMILARS_GROUP":"OIL&GAS","USD_CAP":24119422131.484985},{"ADDRESS":"19300 International Blvd","CITY":"Seatac","COMPANY_XRF":"3505","COMPANY_ZONE":"U","HQ_COUNTRY":"United States","HQ_COUNTRY_ISO":"US","LATITUDE":47.4289077,"LISTING_XRF":"3530","LISTING_ZONE":"U","LONGITUDE":-122.2941643,"NAME":"Alaska Air Group Inc","POSTAL_CODE":"98188","SECTOR":"TRANSPRT","SHARES":123116000,"SIMILARS_GROUP":"AIRLINES","USD_CAP":7423894706.069946},{"ADDRESS":"850 Main St","CITY":"Bridgeport","COMPANY_XRF":"7438","COMPANY_ZONE":"U","HQ_COUNTRY":"United States","HQ_COUNTRY_ISO":"US","LATITUDE":41.1764117,"LISTING_XRF":"8017","LISTING_ZONE":"U","LONGITUDE":-73.1879076,"NAME":"People's United Financial Inc","POSTAL_CODE":"06604","SECTOR":"FINANCE","SHARES":393197310,"SIMILARS_GROUP":"S&L","USD_CAP":6542802998.411407},{"ADDRESS":"1680 Capital One Dr","CITY":"Falls Church","COMPANY_XRF":"8022","COMPANY_ZONE":"U","HQ_COUNTRY":"United States","HQ_COUNTRY_ISO":"US","LATITUDE":38.9242,"LISTING_XRF":"8615","LISTING_ZONE":"U","LONGITUDE":-77.213291,"NAME":"CAPITAL ONE FINL CORP","POSTAL_CODE":"22042-4525","SECTOR":"FINANCE","SHARES":467881000,"SIMILARS_GROUP":"S&L","USD_CAP":40991054410},{"ADDRESS":"249 5th Ave, 1 PNC Plz","CITY":"Pittsburgh","COMPANY_XRF":"364","COMPANY_ZONE":"U","HQ_COUNTRY":"United States","HQ_COUNTRY_ISO":"US","LATITUDE":40.441313,"LISTING_XRF":"367","LISTING_ZONE":"U","LONGITUDE":-80.00048,"NAME":"PNC FINL SVCS GROUP INC","POSTAL_CODE":"15222","SECTOR":"FINANCE","SHARES":453613000,"SIMILARS_GROUP":"BANKS","USD_CAP":60734244293.1366},{"ADDRESS":"7075 Flying Cloud Dr","CITY":"Eden Prairie","COMPANY_XRF":"3531","COMPANY_ZONE":"U","HQ_COUNTRY":"United States","HQ_COUNTRY_ISO":"US","LATITUDE":0,"LISTING_XRF":"3556","LISTING_ZONE":"U","LONGITUDE":0,"NAME":"BEST BUY CO INC","POSTAL_CODE":"55344-3538","SECTOR":"CONSDIS","SHARES":234118740,"SIMILARS_GROUP":"RTL SPEC","USD_CAP":16997020166.763153},{"ADDRESS":"135 N Los Robles Ave Ste 250","CITY":"Pasadena","COMPANY_XRF":"10815","COMPANY_ZONE":"U","HQ_COUNTRY":"United States","HQ_COUNTRY_ISO":"US","LATITUDE":34.1460637,"LISTING_XRF":"11722","LISTING_ZONE":"U","LONGITUDE":-118.1419889,"NAME":"Alexandria Real Estate Equities Inc","POSTAL_CODE":"91101","SECTOR":"REALEST","SHARES":112728000,"SIMILARS_GROUP":"REIT","USD_CAP":15501226660.766602},{"ADDRESS":"111 Pine St","CITY":"San Francisco","COMPANY_XRF":"15928","COMPANY_ZONE":"U","HQ_COUNTRY":"United States","HQ_COUNTRY_ISO":"US","LATITUDE":37.7921178,"LISTING_XRF":"17996","LISTING_ZONE":"U","LONGITUDE":-122.3989272,"NAME":"FIRST REP BK SAN FRANCISCO C","POSTAL_CODE":"94111","SECTOR":"FINANCE","SHARES":164781000,"SIMILARS_GROUP":"BANKS","USD_CAP":17109211531.723022},{"ADDRESS":"1 Seagate Ste 1500","CITY":"Toledo","COMPANY_XRF":"3536","COMPANY_ZONE":"U","HQ_COUNTRY":"United States","HQ_COUNTRY_ISO":"US","LATITUDE":41.6567005,"LISTING_XRF":"3561","LISTING_ZONE":"U","LONGITUDE":-83.6455105,"NAME":"WELLTOWER INC","POSTAL_CODE":"43604-1541","SECTOR":"REALEST","SHARES":386361000,"SIMILARS_GROUP":"REIT","USD_CAP":27725266185.35614},{"ADDRESS":"1300 Morris Dr Ste 100","CITY":"Chesterbrook","COMPANY_XRF":"9037","COMPANY_ZONE":"U","HQ_COUNTRY":"United States","HQ_COUNTRY_ISO":"US","LATITUDE":40.0686079,"LISTING_XRF":"9767","LISTING_ZONE":"U","LONGITUDE":-75.4683046,"NAME":"AmerisourceBergen Corp","POSTAL_CODE":"19087","SECTOR":"BUSINSRV","SHARES":156206600,"SIMILARS_GROUP":"WHLSE DR","USD_CAP":11100040614.63623},{"ADDRESS":"2560 Orchard Parkway","CITY":"San Jose","COMPANY_XRF":"13355","COMPANY_ZONE":"U","HQ_COUNTRY":"United States","HQ_COUNTRY_ISO":"US","LATITUDE":37.3903189,"LISTING_XRF":"14383","LISTING_ZONE":"U","LONGITUDE":-121.9354487,"NAME":"ALIGN TECHNOLOGY INC","POSTAL_CODE":"95050-2903","SECTOR":"HEALTH","SHARES":72785440,"SIMILARS_GROUP":"MDCL INS","USD_CAP":21153632782.597656},{"ADDRESS":"1201 Lake Robbins Dr","CITY":"Houston","COMPANY_XRF":"3645","COMPANY_ZONE":"U","HQ_COUNTRY":"United States","HQ_COUNTRY_ISO":"US","LATITUDE":30.1606971,"LISTING_XRF":"3667","LISTING_ZONE":"U","LONGITUDE":-95.4538201,"NAME":"Anadarko Petroleum Corp","POSTAL_CODE":"77060-2141","SECTOR":"ENERGY","SHARES":499576000,"SIMILARS_GROUP":"OIL&GAS","USD_CAP":32002837340.33203},{"ADDRESS":"200 S Michigan Ave","CITY":"Auburn Hills","COMPANY_XRF":"8166","COMPANY_ZONE":"U","HQ_COUNTRY":"United States","HQ_COUNTRY_ISO":"US","LATITUDE":42.6970837,"LISTING_XRF":"8784","LISTING_ZONE":"U","LONGITUDE":-83.25358229999999,"NAME":"BorgWarner Inc","POSTAL_CODE":"48326","SECTOR":"CONSDIS","SHARES":207701000,"SIMILARS_GROUP":"AUTOPART","USD_CAP":9078610519.844055},{"ADDRESS":"100 Crescent Court, Suite 1600","CITY":"Dallas","COMPANY_XRF":"2420","COMPANY_ZONE":"U","HQ_COUNTRY":"United States","HQ_COUNTRY_ISO":"US","LATITUDE":0,"LISTING_XRF":"3725","LISTING_ZONE":"U","LONGITUDE":0,"NAME":"HollyFrontier Corp","POSTAL_CODE":"75201","SECTOR":"ENERGY","SHARES":157104720,"SIMILARS_GROUP":"OIL RFNG","USD_CAP":7674565332.277222},{"ADDRESS":"4650 Cushing Parkway","CITY":"Fremont","COMPANY_XRF":"2151","COMPANY_ZONE":"U","HQ_COUNTRY":"United States","HQ_COUNTRY_ISO":"US","LATITUDE":37.4886066,"LISTING_XRF":"2168","LISTING_ZONE":"U","LONGITUDE":-121.957034,"NAME":"Lam Research Corp","POSTAL_CODE":"94538","SECTOR":"TECH","SHARES":152593000,"SIMILARS_GROUP":"SEMIMACH","USD_CAP":29789205646.270752},{"ADDRESS":"3700 W Juneau Ave","CITY":"Milwaukee","COMPANY_XRF":"3753","COMPANY_ZONE":"U","HQ_COUNTRY":"United States","HQ_COUNTRY_ISO":"US","LATITUDE":43.0460968,"LISTING_XRF":"3771","LISTING_ZONE":"U","LONGITUDE":-87.9599862,"NAME":"Harley-Davidson Inc","POSTAL_CODE":"53208","SECTOR":"CONSDIS","SHARES":159544000,"SIMILARS_GROUP":"REC VHCL","USD_CAP":6337087874.755859},{"ADDRESS":"2710 Wycliff Rd","CITY":"Raleigh","COMPANY_XRF":"8151","COMPANY_ZONE":"U","HQ_COUNTRY":"United States","HQ_COUNTRY_ISO":"US","LATITUDE":35.8199736,"LISTING_XRF":"8769","LISTING_ZONE":"U","LONGITUDE":-78.6901743,"NAME":"Martin Marietta Materials Inc","POSTAL_CODE":"27607","SECTOR":"BASICIND","SHARES":62431000,"SIMILARS_GROUP":"AGGRGATE","USD_CAP":13244736268.951416},{"ADDRESS":"500 Oracle Parkway","CITY":"Redwood City","COMPANY_XRF":"3936","COMPANY_ZONE":"U","HQ_COUNTRY":"United States","HQ_COUNTRY_ISO":"US","LATITUDE":37.528581,"LISTING_XRF":"4082","LISTING_ZONE":"U","LONGITUDE":-122.2646347,"NAME":"ORACLE CORP","POSTAL_CODE":"94065","SECTOR":"TECH","SHARES":2548132490,"SIMILARS_GROUP":"SOFTWARE","USD_CAP":139178993882.10086},{"ADDRESS":"1360 Post Oak Blvd Ste 2100","CITY":"Houston","COMPANY_XRF":"11905","COMPANY_ZONE":"U","HQ_COUNTRY":"United States","HQ_COUNTRY_ISO":"US","LATITUDE":29.73715069999999,"LISTING_XRF":"12993","LISTING_ZONE":"U","LONGITUDE":-95.4612324,"NAME":"Quanta Services Inc","POSTAL_CODE":"77056","SECTOR":"INDUSTRY","SHARES":141356000,"SIMILARS_GROUP":"CNST SPC","USD_CAP":5628795876.861572},{"ADDRESS":"2 N 9th St","CITY":"Allentown","COMPANY_XRF":"262","COMPANY_ZONE":"U","HQ_COUNTRY":"United States","HQ_COUNTRY_ISO":"US","LATITUDE":40.6014505,"LISTING_XRF":"264","LISTING_ZONE":"U","LONGITUDE":-75.4758514,"NAME":"PPL Corporation","POSTAL_CODE":"18101","SECTOR":"UTILS","SHARES":720937000,"SIMILARS_GROUP":"ELECTRIC","USD_CAP":22233697190.006256},{"ADDRESS":"111 McInnis Parkway","CITY":"San Rafael","COMPANY_XRF":"3940","COMPANY_ZONE":"U","HQ_COUNTRY":"United States","HQ_COUNTRY_ISO":"US","LATITUDE":38.0054203,"LISTING_XRF":"4087","LISTING_ZONE":"U","LONGITUDE":-122.5306773,"NAME":"Autodesk Inc","POSTAL_CODE":"94903","SECTOR":"TECH","SHARES":219009000,"SIMILARS_GROUP":"SOFTWARE","USD_CAP":37702398013.27515},{"ADDRESS":"1 Fountain Sq","CITY":"Chattanooga","COMPANY_XRF":"3643","COMPANY_ZONE":"U","HQ_COUNTRY":"United States","HQ_COUNTRY_ISO":"US","LATITUDE":35.0504326,"LISTING_XRF":"3665","LISTING_ZONE":"U","LONGITUDE":-85.3073211,"NAME":"UNUM GROUP","POSTAL_CODE":"37402","SECTOR":"FINANCE","SHARES":214626000,"SIMILARS_GROUP":"INS MISC","USD_CAP":7803801490.997314},{"ADDRESS":"200 W 2nd St","CITY":"Winston Salem","COMPANY_XRF":"160","COMPANY_ZONE":"U","HQ_COUNTRY":"United States","HQ_COUNTRY_ISO":"US","LATITUDE":0,"LISTING_XRF":"6751","LISTING_ZONE":"U","LONGITUDE":0,"NAME":"BB&T CORP","POSTAL_CODE":"27101","SECTOR":"REALEST","SHARES":763655000,"SIMILARS_GROUP":"INVEST","USD_CAP":37602373481.76956},{"ADDRESS":"7665 Corporate Center Drive","CITY":"Miami","COMPANY_XRF":"16079","COMPANY_ZONE":"U","HQ_COUNTRY":"United States","HQ_COUNTRY_ISO":"US","LATITUDE":25.7916996,"LISTING_XRF":"18160","LISTING_ZONE":"U","LONGITUDE":-80.3203532,"NAME":"NORWEGIAN CRUISE LINE HOLDINGS LTD","POSTAL_CODE":"33126","SECTOR":"","SHARES":217651000,"SIMILARS_GROUP":"","USD_CAP":12319046267.89093},{"ADDRESS":"209 Redwood Shores Parkway","CITY":"Redwood City","COMPANY_XRF":"5183","COMPANY_ZONE":"U","HQ_COUNTRY":"United States","HQ_COUNTRY_ISO":"US","LATITUDE":37.5232794,"LISTING_XRF":"5396","LISTING_ZONE":"U","LONGITUDE":-122.2541438,"NAME":"ELECTRONIC ARTS INC","POSTAL_CODE":"94065","SECTOR":"TECH","SHARES":299596000,"SIMILARS_GROUP":"SOFTWARE","USD_CAP":27718620914.276123},{"ADDRESS":"100 E Pratt St","CITY":"Baltimore","COMPANY_XRF":"4117","COMPANY_ZONE":"U","HQ_COUNTRY":"United States","HQ_COUNTRY_ISO":"US","LATITUDE":39.2869256,"LISTING_XRF":"4268","LISTING_ZONE":"U","LONGITUDE":-76.6127939,"NAME":"PRICE T ROWE GROUP","POSTAL_CODE":"21202","SECTOR":"FINANCE","SHARES":236264000,"SIMILARS_GROUP":"INVSTMAN","USD_CAP":25159752855.285645},{"ADDRESS":"120 Kearny St","CITY":"San Francisco","COMPANY_XRF":"4181","COMPANY_ZONE":"U","HQ_COUNTRY":"United States","HQ_COUNTRY_ISO":"US","LATITUDE":37.789048,"LISTING_XRF":"4332","LISTING_ZONE":"U","LONGITUDE":-122.404004,"NAME":"Charles Schwab Corp\/The","POSTAL_CODE":"94105","SECTOR":"FINANCE","SHARES":1186275660,"SIMILARS_GROUP":"SECURITI","USD_CAP":53916229652.0565},{"ADDRESS":"1000 Lowe&#8217;s Boulevard","CITY":"Mooresville","COMPANY_XRF":"497","COMPANY_ZONE":"U","HQ_COUNTRY":"United States","HQ_COUNTRY_ISO":"US","LATITUDE":0,"LISTING_XRF":"500","LISTING_ZONE":"U","LONGITUDE":0,"NAME":"Lowe's Cos Inc","POSTAL_CODE":"28117","SECTOR":"CONSDIS","SHARES":801000000,"SIMILARS_GROUP":"RTL DOIT","USD_CAP":90857430244.4458},{"ADDRESS":"255 Fiserv Dr","CITY":"Brookfield","COMPANY_XRF":"4200","COMPANY_ZONE":"U","HQ_COUNTRY":"United States","HQ_COUNTRY_ISO":"US","LATITUDE":43.0338095,"LISTING_XRF":"4351","LISTING_ZONE":"U","LONGITUDE":-88.14094380000002,"NAME":"Fiserv Inc","POSTAL_CODE":"53045","SECTOR":"TECH","SHARES":391587000,"SIMILARS_GROUP":"SOFTWARE","USD_CAP":33570754824.531555},{"ADDRESS":"1501 Page Mill Road","CITY":"Palo Alto","COMPANY_XRF":"23","COMPANY_ZONE":"U","HQ_COUNTRY":"United States","HQ_COUNTRY_ISO":"US","LATITUDE":37.4117131,"LISTING_XRF":"24","LISTING_ZONE":"U","LONGITUDE":-122.1488808,"NAME":"HP INC","POSTAL_CODE":"94304","SECTOR":"TECH","SHARES":1533502000,"SIMILARS_GROUP":"COMPUTER","USD_CAP":30486019760.000004},{"ADDRESS":"111 Huntington Ave","CITY":"Boston","COMPANY_XRF":"10742","COMPANY_ZONE":"U","HQ_COUNTRY":"United States","HQ_COUNTRY_ISO":"US","LATITUDE":42.3470711,"LISTING_XRF":"11582","LISTING_ZONE":"U","LONGITUDE":-71.08359209999999,"NAME":"BOSTON PROPERTIES INC","POSTAL_CODE":"02199","SECTOR":"REALEST","SHARES":154509000,"SIMILARS_GROUP":"REIT","USD_CAP":20325659421.524048},{"ADDRESS":"1025 W NASA Blvd","CITY":"Melbourne","COMPANY_XRF":"417","COMPANY_ZONE":"U","HQ_COUNTRY":"United States","HQ_COUNTRY_ISO":"US","LATITUDE":28.0907203,"LISTING_XRF":"420","LISTING_ZONE":"U","LONGITUDE":-80.6384575,"NAME":"Harris Corp","POSTAL_CODE":"32919","SECTOR":"INDUSTRY","SHARES":117961000,"SIMILARS_GROUP":"SENSGUID","USD_CAP":19447050531.99768},{"ADDRESS":"155 Harlem Avenue","CITY":"Glenview","COMPANY_XRF":"548","COMPANY_ZONE":"U","HQ_COUNTRY":"United States","HQ_COUNTRY_ISO":"US","LATITUDE":42.058813,"LISTING_XRF":"553","LISTING_ZONE":"U","LONGITUDE":-87.805853,"NAME":"Illinois Tool Works Inc","POSTAL_CODE":"60025","SECTOR":"BASICIND","SHARES":301859360,"SIMILARS_GROUP":"CHEMICAL","USD_CAP":47449273535.36133},{"ADDRESS":"3600 Las Vegas Blvd S","CITY":"Las Vegas","COMPANY_XRF":"4139","COMPANY_ZONE":"U","HQ_COUNTRY":"United States","HQ_COUNTRY_ISO":"US","LATITUDE":36.1122857,"LISTING_XRF":"4290","LISTING_ZONE":"U","LONGITUDE":-115.176598,"NAME":"MGM RESORTS INTERNATIONAL","POSTAL_CODE":"89109","SECTOR":"BUSINSRV","SHARES":510071150,"SIMILARS_GROUP":"RESORTS","USD_CAP":13873935669.153404},{"ADDRESS":"1000 Darden Center Drive","CITY":"Orlando","COMPANY_XRF":"7866","COMPANY_ZONE":"U","HQ_COUNTRY":"United States","HQ_COUNTRY_ISO":"US","LATITUDE":28.4180207,"LISTING_XRF":"8671","LISTING_ZONE":"U","LONGITUDE":-81.42484429999999,"NAME":"DARDEN RESTAURANTS INC","POSTAL_CODE":"32809-4634","SECTOR":"CONSDIS","SHARES":123509000,"SIMILARS_GROUP":"EATS","USD_CAP":14428321342.308044},{"ADDRESS":"123 S Front St","CITY":"Memphis","COMPANY_XRF":"7442","COMPANY_ZONE":"U","HQ_COUNTRY":"United States","HQ_COUNTRY_ISO":"US","LATITUDE":35.1420009,"LISTING_XRF":"6866","LISTING_ZONE":"U","LONGITUDE":-90.0561333,"NAME":"AUTOZONE INC","POSTAL_CODE":"38103","SECTOR":"CONSDIS","SHARES":24958000,"SIMILARS_GROUP":"RTL SPEC","USD_CAP":25836520381.347656},{"ADDRESS":"1515 Broadway","CITY":"New York","COMPANY_XRF":"587","COMPANY_ZONE":"U","HQ_COUNTRY":"United States","HQ_COUNTRY_ISO":"US","LATITUDE":40.7611804,"LISTING_XRF":"5228","LISTING_ZONE":"U","LONGITUDE":-73.97881939999999,"NAME":"CBS CORP NEW","POSTAL_CODE":"10019","SECTOR":"CONSDIS","SHARES":347676000,"SIMILARS_GROUP":"CABLE TV","USD_CAP":17769720572.20459},{"ADDRESS":"12405 Powerscourt Dr","CITY":"Saint Louis","COMPANY_XRF":"15120","COMPANY_ZONE":"U","HQ_COUNTRY":"United States","HQ_COUNTRY_ISO":"US","LATITUDE":0,"LISTING_XRF":"16996","LISTING_ZONE":"U","LONGITUDE":0,"NAME":"Charter Communications, Inc.","POSTAL_CODE":"06901","SECTOR":"CONSDIS","SHARES":173522580,"SIMILARS_GROUP":"CABLE TV","USD_CAP":62129757650.80444},{"ADDRESS":"1 Baxter Pkwy","CITY":"Deerfield","COMPANY_XRF":"239","COMPANY_ZONE":"U","HQ_COUNTRY":"United States","HQ_COUNTRY_ISO":"US","LATITUDE":42.1593374,"LISTING_XRF":"241","LISTING_ZONE":"U","LONGITUDE":-87.87932819999999,"NAME":"BAXTER INTERNATIONAL INC","POSTAL_CODE":"60015","SECTOR":"HEALTH","SHARES":476660340,"SIMILARS_GROUP":"MDCL INS","USD_CAP":35868690585},{"ADDRESS":"420 Montgomery St","CITY":"San Francisco","COMPANY_XRF":"546","COMPANY_ZONE":"U","HQ_COUNTRY":"United States","HQ_COUNTRY_ISO":"US","LATITUDE":0,"LISTING_XRF":"551","LISTING_ZONE":"U","LONGITUDE":0,"NAME":"WELLS FARGO & CO NEW","POSTAL_CODE":"94104","SECTOR":"FINANCE","SHARES":4094479800,"SIMILARS_GROUP":"BANKS","USD_CAP":193505108475.5516},{"ADDRESS":"280 Park Ave","CITY":"Downers Grove","COMPANY_XRF":"371","COMPANY_ZONE":"U","HQ_COUNTRY":"United States","HQ_COUNTRY_ISO":"US","LATITUDE":41.8332067,"LISTING_XRF":"374","LISTING_ZONE":"U","LONGITUDE":-88.0075585,"NAME":"DOVER CORP","POSTAL_CODE":"10017-1215","SECTOR":"INDUSTRY","SHARES":144941000,"SIMILARS_GROUP":"MACHINES","USD_CAP":13965065128.837585},{"ADDRESS":"777 Old Saw Mill River Rd","CITY":"Tarrytown","COMPANY_XRF":"5462","COMPANY_ZONE":"U","HQ_COUNTRY":"United States","HQ_COUNTRY_ISO":"US","LATITUDE":41.0767773,"LISTING_XRF":"7085","LISTING_ZONE":"U","LONGITUDE":-73.8263889,"NAME":"Regeneron Pharmaceuticals Inc","POSTAL_CODE":"10591","SECTOR":"HEALTH","SHARES":78377180,"SIMILARS_GROUP":"BIOTECH","USD_CAP":26180329339.72473},{"ADDRESS":"270 Peachtree St NW","CITY":"Atlanta","COMPANY_XRF":"72","COMPANY_ZONE":"U","HQ_COUNTRY":"United States","HQ_COUNTRY_ISO":"US","LATITUDE":0,"LISTING_XRF":"73","LISTING_ZONE":"U","LONGITUDE":0,"NAME":"Southern Co.","POSTAL_CODE":"30303-1205","SECTOR":"UTILS","SHARES":1034564000,"SIMILARS_GROUP":"ELECTRIC","USD_CAP":53724908835.72388},{"ADDRESS":"1200 12th Ave S Ste 1200","CITY":"Seattle","COMPANY_XRF":"10738","COMPANY_ZONE":"U","HQ_COUNTRY":"United States","HQ_COUNTRY_ISO":"US","LATITUDE":0,"LISTING_XRF":"11576","LISTING_ZONE":"U","LONGITUDE":0,"NAME":"Amazon.com Inc","POSTAL_CODE":"98109","SECTOR":"CONSDIS","SHARES":412610520,"SIMILARS_GROUP":"RTL.INET","USD_CAP":778723984677.5977},{"ADDRESS":"100 Bellevue Pkwy","CITY":"New York","COMPANY_XRF":"12568","COMPANY_ZONE":"U","HQ_COUNTRY":"United States","HQ_COUNTRY_ISO":"US","LATITUDE":40.7590777,"LISTING_XRF":"13768","LISTING_ZONE":"U","LONGITUDE":-73.9736148,"NAME":"Blackrock Inc","POSTAL_CODE":"10022","SECTOR":"FINANCE","SHARES":121684640,"SIMILARS_GROUP":"INVSTMAN","USD_CAP":56464105315.93262},{"ADDRESS":"5205 N O Connor Blvd Ste 1400","CITY":"Irving","COMPANY_XRF":"4433","COMPANY_ZONE":"U","HQ_COUNTRY":"United States","HQ_COUNTRY_ISO":"US","LATITUDE":32.8705881,"LISTING_XRF":"4584","LISTING_ZONE":"U","LONGITUDE":-96.9397359,"NAME":"Pioneer Natural Resources Co","POSTAL_CODE":"75039","SECTOR":"ENERGY","SHARES":168370000,"SIMILARS_GROUP":"OIL&GAS","USD_CAP":29614599197.235107},{"ADDRESS":"500 S Buena Vista St","CITY":"Burbank","COMPANY_XRF":"169","COMPANY_ZONE":"U","HQ_COUNTRY":"United States","HQ_COUNTRY_ISO":"US","LATITUDE":34.156207,"LISTING_XRF":"171","LISTING_ZONE":"U","LONGITUDE":-118.325189,"NAME":"Walt Disney Co\/The","POSTAL_CODE":"91521","SECTOR":"INDUSTRY","SHARES":1746257373.01,"SIMILARS_GROUP":"CONSTRUC","USD_CAP":229947158087.9858},{"ADDRESS":"999 Lake Dr","CITY":"Issaquah","COMPANY_XRF":"451","COMPANY_ZONE":"U","HQ_COUNTRY":"United States","HQ_COUNTRY_ISO":"US","LATITUDE":47.5486092,"LISTING_XRF":"6803","LISTING_ZONE":"U","LONGITUDE":-122.0506496,"NAME":"Costco Wholesale Corp","POSTAL_CODE":"98027","SECTOR":"CONSDIS","SHARES":440490000,"SIMILARS_GROUP":"RTL DISC","USD_CAP":107224074993.43872},{"ADDRESS":"5453 Great America Parkway","CITY":"Santa Clara","COMPANY_XRF":"16398","COMPANY_ZONE":"U","HQ_COUNTRY":"United States","HQ_COUNTRY_ISO":"US","LATITUDE":37.4118781,"LISTING_XRF":"18497","LISTING_ZONE":"U","LONGITUDE":-121.9760388,"NAME":"Arista Networks Inc","POSTAL_CODE":"95054","SECTOR":"","SHARES":52254389.99999999,"SIMILARS_GROUP":"","USD_CAP":17118538482.935484},{"ADDRESS":"1 Becton Dr","CITY":"Franklin Lakes","COMPANY_XRF":"420","COMPANY_ZONE":"U","HQ_COUNTRY":"United States","HQ_COUNTRY_ISO":"US","LATITUDE":0,"LISTING_XRF":"423","LISTING_ZONE":"U","LONGITUDE":0,"NAME":"BECTON DICKINSON & CO","POSTAL_CODE":"07417","SECTOR":"HEALTH","SHARES":269063000,"SIMILARS_GROUP":"MDCL INS","USD_CAP":60549935713.54675},{"ADDRESS":"600 E 96th St Ste 100","CITY":"Indianapolis","COMPANY_XRF":"4465","COMPANY_ZONE":"U","HQ_COUNTRY":"United States","HQ_COUNTRY_ISO":"US","LATITUDE":39.9289431,"LISTING_XRF":"4616","LISTING_ZONE":"U","LONGITUDE":-86.1469824,"NAME":"DUKE REALTY CORP","POSTAL_CODE":"46240","SECTOR":"REALEST","SHARES":359244000,"SIMILARS_GROUP":"REIT","USD_CAP":10680323955.551147},{"ADDRESS":"1700 Lincoln St","CITY":"Denver","COMPANY_XRF":"368","COMPANY_ZONE":"U","HQ_COUNTRY":"United States","HQ_COUNTRY_ISO":"US","LATITUDE":0,"LISTING_XRF":"371","LISTING_ZONE":"U","LONGITUDE":0,"NAME":"NEWMONT GOLDCORP CORPORATION","POSTAL_CODE":"80111","SECTOR":"BASICIND","SHARES":817210168,"SIMILARS_GROUP":"COPPER","USD_CAP":26600190344.91812},{"ADDRESS":"3100 Hansen Way","CITY":"Palo Alto","COMPANY_XRF":"554","COMPANY_ZONE":"U","HQ_COUNTRY":"United States","HQ_COUNTRY_ISO":"US","LATITUDE":37.4159317,"LISTING_XRF":"559","LISTING_ZONE":"U","LONGITUDE":-122.1431202,"NAME":"Varian Medical Systems Inc","POSTAL_CODE":"94304","SECTOR":"HEALTH","SHARES":90778000,"SIMILARS_GROUP":"MDCL INS","USD_CAP":11843805770.812988},{"ADDRESS":"521 W 57th St","CITY":"New York","COMPANY_XRF":"433","COMPANY_ZONE":"U","HQ_COUNTRY":"United States","HQ_COUNTRY_ISO":"US","LATITUDE":0,"LISTING_XRF":"436","LISTING_ZONE":"U","LONGITUDE":0,"NAME":"INTERNATIONAL FLAVORS&FRAGRA","POSTAL_CODE":"10019","SECTOR":"CONSTAPL","SHARES":101301350,"SIMILARS_GROUP":"BEVERAGE","USD_CAP":13701007587.5},{"ADDRESS":"2 N Riverside Plz","CITY":"Chicago","COMPANY_XRF":"8145","COMPANY_ZONE":"U","HQ_COUNTRY":"United States","HQ_COUNTRY_ISO":"US","LATITUDE":41.8825622,"LISTING_XRF":"8763","LISTING_ZONE":"U","LONGITUDE":-87.6391332,"NAME":"Equity Residential","POSTAL_CODE":"60606","SECTOR":"REALEST","SHARES":369934000,"SIMILARS_GROUP":"REIT","USD_CAP":27438004102.630615},{"ADDRESS":"1000 Abernathy Road NE","CITY":"Atlanta","COMPANY_XRF":"16434","COMPANY_ZONE":"U","HQ_COUNTRY":"United States","HQ_COUNTRY_ISO":"US","LATITUDE":33.9343834,"LISTING_XRF":"18545","LISTING_ZONE":"U","LONGITUDE":-84.3544514,"NAME":"WestRock Co","POSTAL_CODE":"23219","SECTOR":"","SHARES":255373000,"SIMILARS_GROUP":"","USD_CAP":9142353205.165863},{"ADDRESS":"2800 Rock Creek Pkwy ","CITY":"Kansas City","COMPANY_XRF":"4493","COMPANY_ZONE":"U","HQ_COUNTRY":"United States","HQ_COUNTRY_ISO":"US","LATITUDE":39.149929,"LISTING_XRF":"4644","LISTING_ZONE":"U","LONGITUDE":-94.5458166,"NAME":"Cerner Corp","POSTAL_CODE":"64117","SECTOR":"TECH","SHARES":324361000,"SIMILARS_GROUP":"SOFTWARE","USD_CAP":20327703276.07727},{"ADDRESS":"345 Park Ave","CITY":"New York","COMPANY_XRF":"37","COMPANY_ZONE":"U","HQ_COUNTRY":"United States","HQ_COUNTRY_ISO":"US","LATITUDE":40.7580858,"LISTING_XRF":"38","LISTING_ZONE":"U","LONGITUDE":-73.9728271,"NAME":"BRISTOL-MYERS SQUIBB CO","POSTAL_CODE":"10016","SECTOR":"HEALTH","SHARES":1632676000,"SIMILARS_GROUP":"DRUGS","USD_CAP":73862264980.39246},{"ADDRESS":"1111 Bagby St Lbby 2","CITY":"Houston","COMPANY_XRF":"5058","COMPANY_ZONE":"U","HQ_COUNTRY":"United States","HQ_COUNTRY_ISO":"US","LATITUDE":29.7587886,"LISTING_XRF":"5271","LISTING_ZONE":"U","LONGITUDE":-95.37080189999999,"NAME":"EOG RES INC","POSTAL_CODE":"77002","SECTOR":"ENERGY","SHARES":580053000,"SIMILARS_GROUP":"OIL&GAS","USD_CAP":62106274532.98187},{"ADDRESS":"1 Microsoft Way","CITY":"Redmond","COMPANY_XRF":"3937","COMPANY_ZONE":"U","HQ_COUNTRY":"United States","HQ_COUNTRY_ISO":"US","LATITUDE":47.6393782,"LISTING_XRF":"4083","LISTING_ZONE":"U","LONGITUDE":-122.1282593,"NAME":"MICROSOFT CORP","POSTAL_CODE":"98052","SECTOR":"TECH","SHARES":7672213000,"SIMILARS_GROUP":"SOFTWARE","USD_CAP":949513097269.6152},{"ADDRESS":"2100 Logic Dr","CITY":"San Jose","COMPANY_XRF":"5436","COMPANY_ZONE":"U","HQ_COUNTRY":"United States","HQ_COUNTRY_ISO":"US","LATITUDE":37.2529087,"LISTING_XRF":"5664","LISTING_ZONE":"U","LONGITUDE":-121.9363016,"NAME":"Xilinx Inc","POSTAL_CODE":"95124","SECTOR":"TECH","SHARES":253164000,"SIMILARS_GROUP":"SEMICOND","USD_CAP":34035368778.07617},{"ADDRESS":"1211 Avenue of the Americas","CITY":"New York","COMPANY_XRF":"17024","COMPANY_ZONE":"U","HQ_COUNTRY":"United States","HQ_COUNTRY_ISO":"US","LATITUDE":40.7586113,"LISTING_XRF":"19226","LISTING_ZONE":"U","LONGITUDE":-73.9822089,"NAME":"FOX CORP","POSTAL_CODE":"10036","SECTOR":"","SHARES":352803000,"SIMILARS_GROUP":"","USD_CAP":13300673369.167328},{"ADDRESS":"1001 Fannin St Ste 4000","CITY":"Houston","COMPANY_XRF":"5622","COMPANY_ZONE":"U","HQ_COUNTRY":"United States","HQ_COUNTRY_ISO":"US","LATITUDE":29.7561602,"LISTING_XRF":"5855","LISTING_ZONE":"U","LONGITUDE":-95.36488179999999,"NAME":"WASTE MANAGEMENT INC DEL","POSTAL_CODE":"77002","SECTOR":"UTILS","SHARES":389877600,"SIMILARS_GROUP":"ELECTRIC","USD_CAP":41229556200},{"ADDRESS":"11 Times Square, 32nd Floor","CITY":"Menlo Park","COMPANY_XRF":"9870","COMPANY_ZONE":"U","HQ_COUNTRY":"United States","HQ_COUNTRY_ISO":"US","LATITUDE":0,"LISTING_XRF":"10750","LISTING_ZONE":"U","LONGITUDE":0,"NAME":"E*Trade Financial Corp","POSTAL_CODE":"10020","SECTOR":"FINANCE","SHARES":246312000,"SIMILARS_GROUP":"SECURITI","USD_CAP":12416587882.415771},{"ADDRESS":"1 American Rd","CITY":"Dearborn","COMPANY_XRF":"34","COMPANY_ZONE":"U","HQ_COUNTRY":"United States","HQ_COUNTRY_ISO":"US","LATITUDE":42.3146278,"LISTING_XRF":"35","LISTING_ZONE":"U","LONGITUDE":-83.2110616,"NAME":"FORD MOTOR CO","POSTAL_CODE":"48126","SECTOR":"CONSDIS","SHARES":3907700000,"SIMILARS_GROUP":"AUTOS","USD_CAP":37123150000},{"ADDRESS":"358 Hall Ave","CITY":"Wallingford","COMPANY_XRF":"5688","COMPANY_ZONE":"U","HQ_COUNTRY":"United States","HQ_COUNTRY_ISO":"US","LATITUDE":41.460139,"LISTING_XRF":"5923","LISTING_ZONE":"U","LONGITUDE":-72.833322,"NAME":"AMPHENOL CORP NEW","POSTAL_CODE":"06492","SECTOR":"BASICIND","SHARES":298087000,"SIMILARS_GROUP":"NFMTL PR","USD_CAP":30974221261.627197},{"ADDRESS":"160 S Industrial Blvd","CITY":"Calhoun","COMPANY_XRF":"5794","COMPANY_ZONE":"U","HQ_COUNTRY":"United States","HQ_COUNTRY_ISO":"US","LATITUDE":34.4723374,"LISTING_XRF":"6588","LISTING_ZONE":"U","LONGITUDE":-84.93782499999999,"NAME":"MOHAWK INDUSTRIES INC","POSTAL_CODE":"30701","SECTOR":"BASICIND","SHARES":61463500,"SIMILARS_GROUP":"CNST MAT","USD_CAP":8076303524.856567},{"ADDRESS":"690 East Middlefield Road","CITY":"Mountain View","COMPANY_XRF":"5856","COMPANY_ZONE":"U","HQ_COUNTRY":"United States","HQ_COUNTRY_ISO":"US","LATITUDE":37.3944965,"LISTING_XRF":"6652","LISTING_ZONE":"U","LONGITUDE":-122.0503914,"NAME":"SYNOPSYS INC","POSTAL_CODE":"94043","SECTOR":"TECH","SHARES":149676000,"SIMILARS_GROUP":"SOFTWARE","USD_CAP":17510594920.25757},{"ADDRESS":"1920 Main Street, Suite 1200","CITY":"Irvine","COMPANY_XRF":"3675","COMPANY_ZONE":"U","HQ_COUNTRY":"United States","HQ_COUNTRY_ISO":"US","LATITUDE":33.6841413,"LISTING_XRF":"3696","LISTING_ZONE":"U","LONGITUDE":-117.8526429,"NAME":"HCP INC","POSTAL_CODE":"90806","SECTOR":"REALEST","SHARES":477772000,"SIMILARS_GROUP":"REIT","USD_CAP":13984386658.706665},{"ADDRESS":"1 Monster Way","CITY":"Corona","COMPANY_XRF":"7406","COMPANY_ZONE":"U","HQ_COUNTRY":"United States","HQ_COUNTRY_ISO":"US","LATITUDE":33.8866423,"LISTING_XRF":"8045","LISTING_ZONE":"U","LONGITUDE":-117.5132044,"NAME":"MONSTER BEVERAGE CORP NEW","POSTAL_CODE":"92879","SECTOR":"CONSTAPL","SHARES":391066560,"SIMILARS_GROUP":"BEVERAGE","USD_CAP":21496929280.57617},{"ADDRESS":"55 Glenlake Parkway NE","CITY":"Atlanta","COMPANY_XRF":"12102","COMPANY_ZONE":"U","HQ_COUNTRY":"United States","HQ_COUNTRY_ISO":"US","LATITUDE":33.9431979,"LISTING_XRF":"13258","LISTING_ZONE":"U","LONGITUDE":-84.3602082,"NAME":"United Parcel Service Inc","POSTAL_CODE":"30328","SECTOR":"TRANSPRT","SHARES":695989000,"SIMILARS_GROUP":"TRUCKING","USD_CAP":79078272091.59088},{"ADDRESS":"17 Woodbourne Ave","CITY":"Hamilton","COMPANY_XRF":"8052","COMPANY_ZONE":"U","HQ_COUNTRY":"United States","HQ_COUNTRY_ISO":"US","LATITUDE":32.2921836,"LISTING_XRF":"8617","LISTING_ZONE":"U","LONGITUDE":-64.7888282,"NAME":"Chubb Ltd","POSTAL_CODE":"8001","SECTOR":"FINANCE","SHARES":458381000,"SIMILARS_GROUP":"INS MISC","USD_CAP":63274910162.490845},{"ADDRESS":"3333 New Hyde Park Rd","CITY":"New Hyde Park","COMPANY_XRF":"7444","COMPANY_ZONE":"U","HQ_COUNTRY":"United States","HQ_COUNTRY_ISO":"US","LATITUDE":40.7668361,"LISTING_XRF":"8078","LISTING_ZONE":"U","LONGITUDE":-73.6927633,"NAME":"KIMCO RLTY CORP","POSTAL_CODE":"11042","SECTOR":"REALEST","SHARES":421391000,"SIMILARS_GROUP":"REIT","USD_CAP":7197358247.850418},{"ADDRESS":"6801 Rockledge Dr","CITY":"Bethesda","COMPANY_XRF":"8019","COMPANY_ZONE":"U","HQ_COUNTRY":"United States","HQ_COUNTRY_ISO":"US","LATITUDE":39.0309432,"LISTING_XRF":"8609","LISTING_ZONE":"U","LONGITUDE":-77.1390122,"NAME":"Lockheed Martin Corp","POSTAL_CODE":"20817","SECTOR":"INDUSTRY","SHARES":245829810,"SIMILARS_GROUP":"AIRCFT G","USD_CAP":77500308301.28174},{"ADDRESS":"6584 Poplar Ave Ste 300","CITY":"Germantown","COMPANY_XRF":"8036","COMPANY_ZONE":"U","HQ_COUNTRY":"United States","HQ_COUNTRY_ISO":"US","LATITUDE":0,"LISTING_XRF":"8631","LISTING_ZONE":"U","LONGITUDE":0,"NAME":"MID AMER APT CMNTYS INC","POSTAL_CODE":"38138","SECTOR":"REALEST","SHARES":113888000,"SIMILARS_GROUP":"REIT","USD_CAP":11977600751.464844},{"ADDRESS":"201 Isabella St","CITY":"New York","COMPANY_XRF":"166","COMPANY_ZONE":"U","HQ_COUNTRY":"United States","HQ_COUNTRY_ISO":"US","LATITUDE":0,"LISTING_XRF":"168","LISTING_ZONE":"U","LONGITUDE":0,"NAME":"ARCONIC INC","POSTAL_CODE":"10022","SECTOR":"BASICIND","SHARES":403243870,"SIMILARS_GROUP":"ALUMINUM","USD_CAP":8177785960.485592},{"ADDRESS":"2100 Riveredge Parkway, Suite 500","CITY":"Atlanta","COMPANY_XRF":"14855","COMPANY_ZONE":"U","HQ_COUNTRY":"United States","HQ_COUNTRY_ISO":"US","LATITUDE":0,"LISTING_XRF":"16632","LISTING_ZONE":"U","LONGITUDE":0,"NAME":"INTERCONTINENTALEXCHANGE GROUP","POSTAL_CODE":"30328","SECTOR":"FINANCE","SHARES":568498000,"SIMILARS_GROUP":"TRADING","USD_CAP":45764089000},{"ADDRESS":" 103 S Church St  5th Fl Harbour Pl","CITY":"Camana Bay","COMPANY_XRF":"13493","COMPANY_ZONE":"U","HQ_COUNTRY":"United States","HQ_COUNTRY_ISO":"US","LATITUDE":0,"LISTING_XRF":"14545","LISTING_ZONE":"U","LONGITUDE":0,"NAME":"GARMIN LTD","POSTAL_CODE":"8200","SECTOR":"INDUSTRY","SHARES":121255040,"SIMILARS_GROUP":"SENSGUID","USD_CAP":10436421255.795898},{"ADDRESS":"1400 Douglas St","CITY":"Omaha","COMPANY_XRF":"66","COMPANY_ZONE":"U","HQ_COUNTRY":"United States","HQ_COUNTRY_ISO":"US","LATITUDE":41.25918780000001,"LISTING_XRF":"67","LISTING_ZONE":"U","LONGITUDE":-95.93513659999999,"NAME":"UNION PACIFIC CORP","POSTAL_CODE":"68179","SECTOR":"TRANSPRT","SHARES":722878000,"SIMILARS_GROUP":"RAILROAD","USD_CAP":128469879042.41943},{"ADDRESS":"1 Malcolm Ave","CITY":"Lyndhurst","COMPANY_XRF":"9842","COMPANY_ZONE":"U","HQ_COUNTRY":"United States","HQ_COUNTRY_ISO":"US","LATITUDE":0,"LISTING_XRF":"10722","LISTING_ZONE":"U","LONGITUDE":0,"NAME":"Quest Diagnostics Inc\/DE","POSTAL_CODE":"07071-3683","SECTOR":"HEALTH","SHARES":134262000,"SIMILARS_GROUP":"HLTHCARE","USD_CAP":11436437200.97351},{"ADDRESS":"1400 Fountaingrove Parkway","CITY":"Santa Rosa","COMPANY_XRF":"16323","COMPANY_ZONE":"U","HQ_COUNTRY":"United States","HQ_COUNTRY_ISO":"US","LATITUDE":38.4819412,"LISTING_XRF":"18418","LISTING_ZONE":"U","LONGITUDE":-122.7112425,"NAME":"Keysight Technologies Inc","POSTAL_CODE":"95403","SECTOR":"","SHARES":187746000,"SIMILARS_GROUP":"","USD_CAP":17007909452.453613},{"ADDRESS":"2355 W Chandler Blvd","CITY":"Chandler","COMPANY_XRF":"8138","COMPANY_ZONE":"U","HQ_COUNTRY":"United States","HQ_COUNTRY_ISO":"US","LATITUDE":33.3043905,"LISTING_XRF":"8756","LISTING_ZONE":"U","LONGITUDE":-111.8821676,"NAME":"Microchip Technology Inc","POSTAL_CODE":"85224","SECTOR":"TECH","SHARES":236969000,"SIMILARS_GROUP":"SEMICOND","USD_CAP":23128174038.414},{"ADDRESS":"17021 Aldine Westfield Road","CITY":"Houston","COMPANY_XRF":"3632","COMPANY_ZONE":"U","HQ_COUNTRY":"United States","HQ_COUNTRY_ISO":"US","LATITUDE":29.9666422,"LISTING_XRF":"3656","LISTING_ZONE":"U","LONGITUDE":-95.3650794,"NAME":"Baker Hughes a GE Co","POSTAL_CODE":"77019","SECTOR":"ENERGY","SHARES":513389000,"SIMILARS_GROUP":"OIL MACH","USD_CAP":13656147595.842361},{"ADDRESS":"1 Federal St Bldg 111-4","CITY":"Boston","COMPANY_XRF":"283","COMPANY_ZONE":"U","HQ_COUNTRY":"United States","HQ_COUNTRY_ISO":"US","LATITUDE":0,"LISTING_XRF":"285","LISTING_ZONE":"U","LONGITUDE":0,"NAME":"Eversource Energy","POSTAL_CODE":"01089-1204","SECTOR":"UTILS","SHARES":316981000,"SIMILARS_GROUP":"ELECTRIC","USD_CAP":22185499512.85553},{"ADDRESS":"2635 East Millbrook Road","CITY":"Raleigh","COMPANY_XRF":"13699","COMPANY_ZONE":"U","HQ_COUNTRY":"United States","HQ_COUNTRY_ISO":"US","LATITUDE":35.8489485,"LISTING_XRF":"15132","LISTING_ZONE":"U","LONGITUDE":-78.5923079,"NAME":"ADVANCE AUTO PARTS INC","POSTAL_CODE":"24012","SECTOR":"BUSINSRV","SHARES":71670000,"SIMILARS_GROUP":"WHLSE TR","USD_CAP":12189633731.23169},{"ADDRESS":"401 Wilshire Blvd # 700","CITY":"Santa Monica","COMPANY_XRF":"8255","COMPANY_ZONE":"U","HQ_COUNTRY":"United States","HQ_COUNTRY_ISO":"US","LATITUDE":0,"LISTING_XRF":"8873","LISTING_ZONE":"U","LONGITUDE":0,"NAME":"MACERICH CO","POSTAL_CODE":"90401","SECTOR":"REALEST","SHARES":105870750,"SIMILARS_GROUP":"REIT","USD_CAP":4271884600.954056},{"ADDRESS":"1250 24th St NW Ste 800","CITY":"Washington","COMPANY_XRF":"1999","COMPANY_ZONE":"U","HQ_COUNTRY":"United States","HQ_COUNTRY_ISO":"US","LATITUDE":0,"LISTING_XRF":"2015","LISTING_ZONE":"U","LONGITUDE":0,"NAME":"Danaher Corp","POSTAL_CODE":"20006-1813","SECTOR":"INDUSTRY","SHARES":628298000,"SIMILARS_GROUP":"INSTRMNT","USD_CAP":79712168985.672},{"ADDRESS":"2401 Utah Ave S","CITY":"Seattle","COMPANY_XRF":"5849","COMPANY_ZONE":"U","HQ_COUNTRY":"United States","HQ_COUNTRY_ISO":"US","LATITUDE":47.58075789999999,"LISTING_XRF":"6645","LISTING_ZONE":"U","LONGITUDE":-122.3353638,"NAME":"STARBUCKS CORP","POSTAL_CODE":"98134","SECTOR":"CONSDIS","SHARES":1243600000,"SIMILARS_GROUP":"EATS","USD_CAP":93767441897.58301},{"ADDRESS":"133 Boston Post Road","CITY":"Cambridge","COMPANY_XRF":"6805","COMPANY_ZONE":"U","HQ_COUNTRY":"United States","HQ_COUNTRY_ISO":"US","LATITUDE":42.3662897,"LISTING_XRF":"7442","LISTING_ZONE":"U","LONGITUDE":-71.0857637,"NAME":"BIOGEN INC","POSTAL_CODE":"02142","SECTOR":"HEALTH","SHARES":196709000,"SIMILARS_GROUP":"BIOTECH","USD_CAP":45008985809.75342},{"ADDRESS":"1 Tower Sq","CITY":"Hartford","COMPANY_XRF":"341","COMPANY_ZONE":"U","HQ_COUNTRY":"United States","HQ_COUNTRY_ISO":"US","LATITUDE":41.7644707,"LISTING_XRF":"344","LISTING_ZONE":"U","LONGITUDE":-72.6726968,"NAME":"TRAVELERS COMPANIES INC","POSTAL_CODE":"06183-0001","SECTOR":"FINANCE","SHARES":263391000,"SIMILARS_GROUP":"INS MISC","USD_CAP":35981844670.76111},{"ADDRESS":"1220 Augusta Dr Ste 500","CITY":"Houston","COMPANY_XRF":"11613","COMPANY_ZONE":"U","HQ_COUNTRY":"United States","HQ_COUNTRY_ISO":"US","LATITUDE":29.7546665,"LISTING_XRF":"12660","LISTING_ZONE":"U","LONGITUDE":-95.4831109,"NAME":"CROWN CASTLE INTL CORP NEW","POSTAL_CODE":"77057","SECTOR":"TECH","SHARES":415568000,"SIMILARS_GROUP":"ETRON SY","USD_CAP":50940326200.927734},{"ADDRESS":"115 W Washington St","CITY":"Indianapolis","COMPANY_XRF":"8134","COMPANY_ZONE":"U","HQ_COUNTRY":"United States","HQ_COUNTRY_ISO":"US","LATITUDE":39.7669989,"LISTING_XRF":"8752","LISTING_ZONE":"U","LONGITUDE":-86.1621681,"NAME":"Simon Property Group LP","POSTAL_CODE":"46204","SECTOR":"REALEST","SHARES":308962000,"SIMILARS_GROUP":"REIT","USD_CAP":53669791094.329834},{"ADDRESS":"767 5th Ave","CITY":"New York","COMPANY_XRF":"9023","COMPANY_ZONE":"U","HQ_COUNTRY":"United States","HQ_COUNTRY_ISO":"US","LATITUDE":40.7635573,"LISTING_XRF":"9752","LISTING_ZONE":"U","LONGITUDE":-73.9723018,"NAME":"Estee Lauder Cos Inc\/The","POSTAL_CODE":"10153","SECTOR":"CONSDIS","SHARES":218255000,"SIMILARS_GROUP":"COSMETIC","USD_CAP":37085889200.36316},{"ADDRESS":"500 Frank West Burr Boulevard, Glenpointe Centre West","CITY":"Teaneck","COMPANY_XRF":"11672","COMPANY_ZONE":"U","HQ_COUNTRY":"United States","HQ_COUNTRY_ISO":"US","LATITUDE":40.8729475,"LISTING_XRF":"12722","LISTING_ZONE":"U","LONGITUDE":-74.0069886,"NAME":"Cognizant Technology Solutions Corp","POSTAL_CODE":"07666","SECTOR":"TECH","SHARES":575099000,"SIMILARS_GROUP":"SOFTWARE","USD_CAP":41108078450.56915},{"ADDRESS":"1 North Field Court","CITY":"Lake Forest","COMPANY_XRF":"12894","COMPANY_ZONE":"U","HQ_COUNTRY":"United States","HQ_COUNTRY_ISO":"US","LATITUDE":42.2412537,"LISTING_XRF":"14775","LISTING_ZONE":"U","LONGITUDE":-87.88912810000001,"NAME":"PACKAGING CORP OF AMERICA","POSTAL_CODE":"60045","SECTOR":"BASICIND","SHARES":94497000,"SIMILARS_GROUP":"PAPRPROD","USD_CAP":9226687022.323608},{"ADDRESS":"2884 Sand Hill Rd","CITY":"Menlo Park","COMPANY_XRF":"1874","COMPANY_ZONE":"U","HQ_COUNTRY":"United States","HQ_COUNTRY_ISO":"US","LATITUDE":37.4219278,"LISTING_XRF":"1889","LISTING_ZONE":"U","LONGITUDE":-122.2150952,"NAME":"ROBERT HALF INTERNATIONAL INC","POSTAL_CODE":"94025","SECTOR":"BUSINSRV","SHARES":119078000,"SIMILARS_GROUP":"SERVICES","USD_CAP":8024666420},{"ADDRESS":"1001 Air Brake Avenue","CITY":"Wilmerding","COMPANY_XRF":"9176","COMPANY_ZONE":"U","HQ_COUNTRY":"United States","HQ_COUNTRY_ISO":"US","LATITUDE":40.3943886,"LISTING_XRF":"9911","LISTING_ZONE":"U","LONGITUDE":-79.8094532,"NAME":"WABTEC CORP","POSTAL_CODE":"15148","SECTOR":"INDUSTRY","SHARES":139660560,"SIMILARS_GROUP":"CNST MCH","USD_CAP":10684032840},{"ADDRESS":"1 Grand Canal Square, Docklands","CITY":"Coolock","COMPANY_XRF":"7705","COMPANY_ZONE":"U","HQ_COUNTRY":"United States","HQ_COUNTRY_ISO":"US","LATITUDE":53.40017599999999,"LISTING_XRF":"8334","LISTING_ZONE":"U","LONGITUDE":-6.2229603,"NAME":"ALLERGAN PLC","POSTAL_CODE":"07054","SECTOR":"HEALTH","SHARES":312657160,"SIMILARS_GROUP":"DRUGS","USD_CAP":43853291544.122925},{"ADDRESS":"1395 Crossman Avenue","CITY":"Sunnyvale","COMPANY_XRF":"9325","COMPANY_ZONE":"U","HQ_COUNTRY":"United States","HQ_COUNTRY_ISO":"US","LATITUDE":37.4149198,"LISTING_XRF":"10072","LISTING_ZONE":"U","LONGITUDE":-122.0095976,"NAME":"NETAPP INC","POSTAL_CODE":"94089","SECTOR":"TECH","SHARES":246975000,"SIMILARS_GROUP":"PERIPHER","USD_CAP":18942981746.292114},{"ADDRESS":"2 Folsom St","CITY":"San Francisco","COMPANY_XRF":"1270","COMPANY_ZONE":"U","HQ_COUNTRY":"United States","HQ_COUNTRY_ISO":"US","LATITUDE":37.7906888,"LISTING_XRF":"1280","LISTING_ZONE":"U","LONGITUDE":-122.391538,"NAME":"GAP INC","POSTAL_CODE":"94105","SECTOR":"CONSDIS","SHARES":213603040.00000003,"SIMILARS_GROUP":"RTL WEAR","USD_CAP":5384932442.840577},{"ADDRESS":"500 Volvo Parkway","CITY":"Chesapeake","COMPANY_XRF":"9516","COMPANY_ZONE":"U","HQ_COUNTRY":"United States","HQ_COUNTRY_ISO":"US","LATITUDE":36.7685815,"LISTING_XRF":"10285","LISTING_ZONE":"U","LONGITUDE":-76.2419894,"NAME":"Dollar Tree Inc","POSTAL_CODE":"23320","SECTOR":"CONSDIS","SHARES":237970000,"SIMILARS_GROUP":"RTL DISC","USD_CAP":25748353273.773193},{"ADDRESS":"100 East Davie Street","CITY":"Durham","COMPANY_XRF":"12168","COMPANY_ZONE":"U","HQ_COUNTRY":"United States","HQ_COUNTRY_ISO":"US","LATITUDE":35.7753217,"LISTING_XRF":"13355","LISTING_ZONE":"U","LONGITUDE":-78.63803109999999,"NAME":"Red Hat Inc","POSTAL_CODE":"27601","SECTOR":"TECH","SHARES":176760000,"SIMILARS_GROUP":"SOFTWARE","USD_CAP":32172086629.02832},{"ADDRESS":"1 Madison Ave","CITY":"New York","COMPANY_XRF":"12808","COMPANY_ZONE":"U","HQ_COUNTRY":"United States","HQ_COUNTRY_ISO":"US","LATITUDE":40.7409066,"LISTING_XRF":"14047","LISTING_ZONE":"U","LONGITUDE":-73.9869088,"NAME":"Metlife Inc","POSTAL_CODE":"10010-3681","SECTOR":"FINANCE","SHARES":957271000,"SIMILARS_GROUP":"INS MISC","USD_CAP":43278221033.592224},{"ADDRESS":"Pier 1 Bay 1 ","CITY":"San Francisco","COMPANY_XRF":"10733","COMPANY_ZONE":"U","HQ_COUNTRY":"United States","HQ_COUNTRY_ISO":"US","LATITUDE":37.7973319,"LISTING_XRF":"10952","LISTING_ZONE":"U","LONGITUDE":-122.3942501,"NAME":"PROLOGIS INC (New)","POSTAL_CODE":"94111","SECTOR":"REALEST","SHARES":630350000,"SIMILARS_GROUP":"REIT","USD_CAP":45971425692.36755},{"ADDRESS":"100 N Eastman Rd","CITY":"Kingsport","COMPANY_XRF":"380","COMPANY_ZONE":"U","HQ_COUNTRY":"United States","HQ_COUNTRY_ISO":"US","LATITUDE":36.534511,"LISTING_XRF":"6795","LISTING_ZONE":"U","LONGITUDE":-82.5507751,"NAME":"EASTMAN CHEMICAL CO","POSTAL_CODE":"37660","SECTOR":"BASICIND","SHARES":139777000,"SIMILARS_GROUP":"CHEMICAL","USD_CAP":11637833318.595886},{"ADDRESS":"1027 Newport Ave","CITY":"Pawtucket","COMPANY_XRF":"547","COMPANY_ZONE":"U","HQ_COUNTRY":"United States","HQ_COUNTRY_ISO":"US","LATITUDE":41.8836325,"LISTING_XRF":"552","LISTING_ZONE":"U","LONGITUDE":-71.3522598,"NAME":"Hasbro Inc","POSTAL_CODE":"02861","SECTOR":"CONSDIS","SHARES":115774640,"SIMILARS_GROUP":"TOYS","USD_CAP":10200903601.063232},{"ADDRESS":"10400 Fernwood Rd","CITY":"Bethesda","COMPANY_XRF":"289","COMPANY_ZONE":"U","HQ_COUNTRY":"United States","HQ_COUNTRY_ISO":"US","LATITUDE":39.024758,"LISTING_XRF":"12268","LISTING_ZONE":"U","LONGITUDE":-77.138038,"NAME":"MARRIOTT CORP","POSTAL_CODE":"20058","SECTOR":"BUSINSRV","SHARES":281925270,"SIMILARS_GROUP":"HOTELS","USD_CAP":38302367182.200005},{"ADDRESS":"10000 Richmond Ave","CITY":"Houston","COMPANY_XRF":"9824","COMPANY_ZONE":"U","HQ_COUNTRY":"United States","HQ_COUNTRY_ISO":"US","LATITUDE":29.72716939999999,"LISTING_XRF":"10704","LISTING_ZONE":"U","LONGITUDE":-95.55549219999999,"NAME":"NATIONAL OILWELL VARCO INC","POSTAL_CODE":"77036","SECTOR":"ENERGY","SHARES":383433000,"SIMILARS_GROUP":"OIL MACH","USD_CAP":10636431332.239151},{"ADDRESS":"120 Park Ave","CITY":"New York","COMPANY_XRF":"21","COMPANY_ZONE":"U","HQ_COUNTRY":"United States","HQ_COUNTRY_ISO":"US","LATITUDE":0,"LISTING_XRF":"22","LISTING_ZONE":"U","LONGITUDE":0,"NAME":"ALTRIA GROUP INC","POSTAL_CODE":"10017-5577","SECTOR":"CONSTAPL","SHARES":1874431000,"SIMILARS_GROUP":"LIQUOR","USD_CAP":102362676910},{"ADDRESS":"1440 Kiewit Plz","CITY":"Omaha","COMPANY_XRF":"200","COMPANY_ZONE":"U","HQ_COUNTRY":"United States","HQ_COUNTRY_ISO":"US","LATITUDE":41.25720279999999,"LISTING_XRF":"13989","LISTING_ZONE":"U","LONGITUDE":-95.9654637,"NAME":"BERKSHIRE HATHAWAY INC","POSTAL_CODE":"68131","SECTOR":"BASICIND","SHARES":1944554980,"SIMILARS_GROUP":"NFMTL PR","USD_CAP":407364833441.95953},{"ADDRESS":"7700 Forsyth Boulevard","CITY":"Saint Louis","COMPANY_XRF":"13790","COMPANY_ZONE":"U","HQ_COUNTRY":"United States","HQ_COUNTRY_ISO":"US","LATITUDE":38.6495116,"LISTING_XRF":"15239","LISTING_ZONE":"U","LONGITUDE":-90.3345013,"NAME":"Centene Corp Del","POSTAL_CODE":"63105","SECTOR":"FINANCE","SHARES":413170000,"SIMILARS_GROUP":"INS HLTH","USD_CAP":19865214356.536865},{"ADDRESS":"112 W 34th St","CITY":"New York","COMPANY_XRF":"347","COMPANY_ZONE":"U","HQ_COUNTRY":"United States","HQ_COUNTRY_ISO":"US","LATITUDE":40.7496971,"LISTING_XRF":"350","LISTING_ZONE":"U","LONGITUDE":-73.9889209,"NAME":"Foot Locker Inc","POSTAL_CODE":"10001","SECTOR":"CONSDIS","SHARES":112890000,"SIMILARS_GROUP":"RTL WEAR","USD_CAP":6736146093.292236},{"ADDRESS":"120 San Gabriel Dr","CITY":"San Jose","COMPANY_XRF":"4423","COMPANY_ZONE":"U","HQ_COUNTRY":"United States","HQ_COUNTRY_ISO":"US","LATITUDE":37.4056894,"LISTING_XRF":"4574","LISTING_ZONE":"U","LONGITUDE":-121.9494163,"NAME":"MAXIM INTEGRATED PRODUCTS INC","POSTAL_CODE":"94086","SECTOR":"TECH","SHARES":273398000,"SIMILARS_GROUP":"SEMICOND","USD_CAP":16160555946.868896},{"ADDRESS":"10200 South De Anza Boulevard","CITY":"Cupertino","COMPANY_XRF":"14060","COMPANY_ZONE":"U","HQ_COUNTRY":"United States","HQ_COUNTRY_ISO":"US","LATITUDE":37.3207991,"LISTING_XRF":"15594","LISTING_ZONE":"U","LONGITUDE":-122.0316071,"NAME":"SEAGATE TECHNOLOGY PLC","POSTAL_CODE":"2","SECTOR":"TECH","SHARES":256383400,"SIMILARS_GROUP":"PERIPHER","USD_CAP":12547403243.91098},{"ADDRESS":"2211 North First Street","CITY":"San Jose","COMPANY_XRF":"16447","COMPANY_ZONE":"U","HQ_COUNTRY":"United States","HQ_COUNTRY_ISO":"US","LATITUDE":37.3763719,"LISTING_XRF":"18561","LISTING_ZONE":"U","LONGITUDE":-121.9226185,"NAME":"PAYPAL HLDGS INC","POSTAL_CODE":"95131","SECTOR":"","SHARES":1173209000,"SIMILARS_GROUP":"","USD_CAP":125310450425.72021},{"ADDRESS":"6920 Seaway Blvd.","CITY":"Everett","COMPANY_XRF":"16591","COMPANY_ZONE":"U","HQ_COUNTRY":"United States","HQ_COUNTRY_ISO":"US","LATITUDE":47.934861,"LISTING_XRF":"18738","LISTING_ZONE":"U","LONGITUDE":-122.2647791,"NAME":"FORTIVE CORP","POSTAL_CODE":"98203","SECTOR":"","SHARES":294475280,"SIMILARS_GROUP":"","USD_CAP":26019835920.533447},{"ADDRESS":"1 Lincoln St","CITY":"Boston","COMPANY_XRF":"811","COMPANY_ZONE":"U","HQ_COUNTRY":"United States","HQ_COUNTRY_ISO":"US","LATITUDE":42.35272579999999,"LISTING_XRF":"818","LISTING_ZONE":"U","LONGITUDE":-71.05844429999999,"NAME":"STATE STREET CORP","POSTAL_CODE":"02110-2875","SECTOR":"FINANCE","SHARES":378660000,"SIMILARS_GROUP":"BANKS","USD_CAP":26468334577.789307},{"ADDRESS":"1355 Market Street","CITY":"San Francisco","COMPANY_XRF":"16211","COMPANY_ZONE":"U","HQ_COUNTRY":"United States","HQ_COUNTRY_ISO":"US","LATITUDE":37.7764685,"LISTING_XRF":"18298","LISTING_ZONE":"U","LONGITUDE":-122.4172004,"NAME":"Twitter Inc","POSTAL_CODE":"94103","SECTOR":"","SHARES":728483750,"SIMILARS_GROUP":"","USD_CAP":25052555717.868805},{"ADDRESS":"211 Carnegie Center","CITY":"Minneapolis","COMPANY_XRF":"15177","COMPANY_ZONE":"U","HQ_COUNTRY":"United States","HQ_COUNTRY_ISO":"US","LATITUDE":40.3193925,"LISTING_XRF":"17056","LISTING_ZONE":"U","LONGITUDE":-74.6546731,"NAME":"NRG Energy Inc","POSTAL_CODE":"08540","SECTOR":"UTILS","SHARES":280998000,"SIMILARS_GROUP":"ELECTRIC","USD_CAP":11490008048.492432},{"ADDRESS":"1 Edwards Way","CITY":"Irvine","COMPANY_XRF":"12891","COMPANY_ZONE":"U","HQ_COUNTRY":"United States","HQ_COUNTRY_ISO":"US","LATITUDE":33.6984047,"LISTING_XRF":"14772","LISTING_ZONE":"U","LONGITUDE":-117.8517225,"NAME":"Edwards Lifesciences Corp","POSTAL_CODE":"92614","SECTOR":"HEALTH","SHARES":207766000,"SIMILARS_GROUP":"MDCL INS","USD_CAP":37038445707.67212},{"ADDRESS":"200 West Street","CITY":"New York","COMPANY_XRF":"11740","COMPANY_ZONE":"U","HQ_COUNTRY":"United States","HQ_COUNTRY_ISO":"US","LATITUDE":0,"LISTING_XRF":"12825","LISTING_ZONE":"U","LONGITUDE":0,"NAME":"GOLDMAN SACHS GROUP INC","POSTAL_CODE":"10004-2456","SECTOR":"FINANCE","SHARES":342492960,"SIMILARS_GROUP":"SECURITI","USD_CAP":70074061706.41113},{"ADDRESS":"400 S LaSalle St","CITY":"Chicago","COMPANY_XRF":"15826","COMPANY_ZONE":"U","HQ_COUNTRY":"United States","HQ_COUNTRY_ISO":"US","LATITUDE":41.8764396,"LISTING_XRF":"17891","LISTING_ZONE":"U","LONGITUDE":-87.6321957,"NAME":"CBOE GLOBAL MARKETS INC","POSTAL_CODE":"60605","SECTOR":"FINANCE","SHARES":112202000,"SIMILARS_GROUP":"SECURITI","USD_CAP":11340256140},{"ADDRESS":"1 Strawberry Ln","CITY":"Orrville","COMPANY_XRF":"1216","COMPANY_ZONE":"U","HQ_COUNTRY":"United States","HQ_COUNTRY_ISO":"US","LATITUDE":40.8470663,"LISTING_XRF":"1226","LISTING_ZONE":"U","LONGITUDE":-81.7621164,"NAME":"JM Smucker Co\/The","POSTAL_CODE":"44667","SECTOR":"CONSTAPL","SHARES":113758000,"SIMILARS_GROUP":"FOOD","USD_CAP":13789744898.864746},{"ADDRESS":"10 B Glenlake Pkwy Ste 300","CITY":"Atlanta","COMPANY_XRF":"1556","COMPANY_ZONE":"U","HQ_COUNTRY":"United States","HQ_COUNTRY_ISO":"US","LATITUDE":0,"LISTING_XRF":"1569","LISTING_ZONE":"U","LONGITUDE":0,"NAME":"NEWELL BRANDS INC","POSTAL_CODE":"07030","SECTOR":"INDUSTRY","SHARES":388976000,"SIMILARS_GROUP":"MACHINES","USD_CAP":5605144100.646973},{"ADDRESS":"1166 Avenue Of The Americas","CITY":"New York","COMPANY_XRF":"191","COMPANY_ZONE":"U","HQ_COUNTRY":"United States","HQ_COUNTRY_ISO":"US","LATITUDE":0,"LISTING_XRF":"193","LISTING_ZONE":"U","LONGITUDE":0,"NAME":"Marsh & Mclennan Cos","POSTAL_CODE":"10036","SECTOR":"BUSINSRV","SHARES":505109000,"SIMILARS_GROUP":"CONSLTNG","USD_CAP":47151924379.26483},{"ADDRESS":"34 Maple St","CITY":"Milford","COMPANY_XRF":"9202","COMPANY_ZONE":"U","HQ_COUNTRY":"United States","HQ_COUNTRY_ISO":"US","LATITUDE":42.13688399999999,"LISTING_XRF":"9940","LISTING_ZONE":"U","LONGITUDE":-71.481104,"NAME":"Waters Corp","POSTAL_CODE":"01757","SECTOR":"INDUSTRY","SHARES":71512000,"SIMILARS_GROUP":"INSTRMNT","USD_CAP":17237251999.87793},{"ADDRESS":"1 Market Plz Ste 300","CITY":"San Francisco","COMPANY_XRF":"14307","COMPANY_ZONE":"U","HQ_COUNTRY":"United States","HQ_COUNTRY_ISO":"US","LATITUDE":37.79390040000001,"LISTING_XRF":"15920","LISTING_ZONE":"U","LONGITUDE":-122.3950114,"NAME":"Salesforce.com Inc","POSTAL_CODE":"94105","SECTOR":"TECH","SHARES":765000000,"SIMILARS_GROUP":"SOFTWARE","USD_CAP":121451395797.72949},{"ADDRESS":"5555 San Felipe Rd","CITY":"Houston","COMPANY_XRF":"5455","COMPANY_ZONE":"U","HQ_COUNTRY":"United States","HQ_COUNTRY_ISO":"US","LATITUDE":0,"LISTING_XRF":"5684","LISTING_ZONE":"U","LONGITUDE":0,"NAME":"MARATHON OIL CORP","POSTAL_CODE":"15219-2702","SECTOR":"ENERGY","SHARES":818504000,"SIMILARS_GROUP":"OIL&GAS","USD_CAP":15371505682.022095},{"ADDRESS":"2701 San Tomas Expressway","CITY":"Santa Clara","COMPANY_XRF":"11846","COMPANY_ZONE":"U","HQ_COUNTRY":"United States","HQ_COUNTRY_ISO":"US","LATITUDE":37.3706254,"LISTING_XRF":"12933","LISTING_ZONE":"U","LONGITUDE":-121.9671894,"NAME":"Nvidia Corp","POSTAL_CODE":"95050","SECTOR":"TECH","SHARES":606000000,"SIMILARS_GROUP":"SEMICOND","USD_CAP":114212820739.7461},{"ADDRESS":"333 Lakeside Dr","CITY":"Foster City","COMPANY_XRF":"5096","COMPANY_ZONE":"U","HQ_COUNTRY":"United States","HQ_COUNTRY_ISO":"US","LATITUDE":37.5669611,"LISTING_XRF":"7020","LISTING_ZONE":"U","LONGITUDE":-122.2816328,"NAME":"Gilead Sciences Inc","POSTAL_CODE":"94404","SECTOR":"HEALTH","SHARES":1275511000,"SIMILARS_GROUP":"BIOTECH","USD_CAP":78915864207.60727},{"ADDRESS":"1735 Market St","CITY":"Philadelphia","COMPANY_XRF":"304","COMPANY_ZONE":"U","HQ_COUNTRY":"United States","HQ_COUNTRY_ISO":"US","LATITUDE":39.9520288,"LISTING_XRF":"306","LISTING_ZONE":"U","LONGITUDE":-75.18372049999999,"NAME":"F M C CORP","POSTAL_CODE":"19103","SECTOR":"BASICIND","SHARES":134658000,"SIMILARS_GROUP":"CHEMICAL","USD_CAP":10701271424.377441},{"ADDRESS":"13810 SE Eastgate Way Ste 400","CITY":"Bellevue","COMPANY_XRF":"14798","COMPANY_ZONE":"U","HQ_COUNTRY":"United States","HQ_COUNTRY_ISO":"US","LATITUDE":0,"LISTING_XRF":"16464","LISTING_ZONE":"U","LONGITUDE":0,"NAME":"EXPEDIA GROUP INC","POSTAL_CODE":"98004","SECTOR":"CONSDIS","SHARES":116919300,"SIMILARS_GROUP":"RTL.INET","USD_CAP":14538914776.595306},{"ADDRESS":"3-M Center","CITY":"Saint Paul","COMPANY_XRF":"28","COMPANY_ZONE":"U","HQ_COUNTRY":"United States","HQ_COUNTRY_ISO":"US","LATITUDE":44.9507206,"LISTING_XRF":"29","LISTING_ZONE":"U","LONGITUDE":-92.9954105,"NAME":"3M Co","POSTAL_CODE":"55144","SECTOR":"BASICIND","SHARES":575800000,"SIMILARS_GROUP":"PAPRPROD","USD_CAP":125835328134.15527},{"ADDRESS":"1200 Main Street","CITY":"Kansas City","COMPANY_XRF":"690","COMPANY_ZONE":"U","HQ_COUNTRY":"United States","HQ_COUNTRY_ISO":"US","LATITUDE":39.0996975,"LISTING_XRF":"697","LISTING_ZONE":"U","LONGITUDE":-94.58372709999999,"NAME":"Evergy Inc","POSTAL_CODE":"64105","SECTOR":"UTILS","SHARES":254630000,"SIMILARS_GROUP":"ELECTRIC","USD_CAP":14363678261.146545},{"ADDRESS":"1900 Polaris Parkway","CITY":"Columbus","COMPANY_XRF":"11279","COMPANY_ZONE":"U","HQ_COUNTRY":"United States","HQ_COUNTRY_ISO":"US","LATITUDE":40.1438288,"LISTING_XRF":"12227","LISTING_ZONE":"U","LONGITUDE":-82.9689843,"NAME":"Mettler-Toledo International Inc","POSTAL_CODE":"43240","SECTOR":"INDUSTRY","SHARES":24795000,"SIMILARS_GROUP":"INSTRMNT","USD_CAP":18204241110.534668},{"ADDRESS":"2000 N  M-63","CITY":"Benton Harbor","COMPANY_XRF":"279","COMPANY_ZONE":"U","HQ_COUNTRY":"United States","HQ_COUNTRY_ISO":"US","LATITUDE":42.1499324,"LISTING_XRF":"281","LISTING_ZONE":"U","LONGITUDE":-86.44310109999999,"NAME":"WHIRLPOOL CORP","POSTAL_CODE":"49022","SECTOR":"CONSDIS","SHARES":63621000,"SIMILARS_GROUP":"DURABLES","USD_CAP":8866222598.831177},{"ADDRESS":"1775 Tysons Boulevard","CITY":"El Segundo","COMPANY_XRF":"16778","COMPANY_ZONE":"U","HQ_COUNTRY":"United States","HQ_COUNTRY_ISO":"US","LATITUDE":33.918642,"LISTING_XRF":"18950","LISTING_ZONE":"U","LONGITUDE":-118.3904804,"NAME":"DXC TECHNOLOGY CO","POSTAL_CODE":"22042","SECTOR":"","SHARES":268271000,"SIMILARS_GROUP":"","USD_CAP":17332989473.739624},{"ADDRESS":"1 Yishun Ave 7","CITY":"San Jose","COMPANY_XRF":"15974","COMPANY_ZONE":"U","HQ_COUNTRY":"United States","HQ_COUNTRY_ISO":"US","LATITUDE":1.440348,"LISTING_XRF":"18042","LISTING_ZONE":"U","LONGITUDE":103.840661,"NAME":"Broadcom Inc","POSTAL_CODE":"768923","SECTOR":"TECH","SHARES":396104000,"SIMILARS_GROUP":"SEMICOND","USD_CAP":124772760000},{"ADDRESS":"41 S High St ","CITY":"Columbus","COMPANY_XRF":"296","COMPANY_ZONE":"U","HQ_COUNTRY":"United States","HQ_COUNTRY_ISO":"US","LATITUDE":39.9610692,"LISTING_XRF":"298","LISTING_ZONE":"U","LONGITUDE":-83.0008326,"NAME":"HUNTINGTON BANCSHARES INC","POSTAL_CODE":"43215-3406","SECTOR":"FINANCE","SHARES":1046813000,"SIMILARS_GROUP":"S&L","USD_CAP":14278529679.394722},{"ADDRESS":"401 Elliott Ave W","CITY":"Seattle","COMPANY_XRF":"11962","COMPANY_ZONE":"U","HQ_COUNTRY":"United States","HQ_COUNTRY_ISO":"US","LATITUDE":47.6223477,"LISTING_XRF":"13067","LISTING_ZONE":"U","LONGITUDE":-122.3633,"NAME":"F5 NETWORKS INC","POSTAL_CODE":"98119","SECTOR":"TECH","SHARES":59441000,"SIMILARS_GROUP":"SOFTWARE","USD_CAP":9733463750},{"ADDRESS":"300 Renaissance Center","CITY":"Detroit","COMPANY_XRF":"15801","COMPANY_ZONE":"U","HQ_COUNTRY":"United States","HQ_COUNTRY_ISO":"US","LATITUDE":42.3295852,"LISTING_XRF":"17861","LISTING_ZONE":"U","LONGITUDE":-83.039529,"NAME":"GENERAL MTRS CO","POSTAL_CODE":"48243","SECTOR":"CONSDIS","SHARES":1310815470,"SIMILARS_GROUP":"AUTOS","USD_CAP":51777211065},{"ADDRESS":"2730 Sand Hill Rd Ste 280","CITY":"Menlo Park","COMPANY_XRF":"14347","COMPANY_ZONE":"U","HQ_COUNTRY":"United States","HQ_COUNTRY_ISO":"US","LATITUDE":0,"LISTING_XRF":"15960","LISTING_ZONE":"U","LONGITUDE":0,"NAME":"Digital Realty Trust Inc","POSTAL_CODE":"94025-7074","SECTOR":"REALEST","SHARES":207824000,"SIMILARS_GROUP":"REIT","USD_CAP":24810028549.194336},{"ADDRESS":"1341 Horton Circle","CITY":"Arlington","COMPANY_XRF":"5095","COMPANY_ZONE":"U","HQ_COUNTRY":"United States","HQ_COUNTRY_ISO":"US","LATITUDE":32.7609582,"LISTING_XRF":"7019","LISTING_ZONE":"U","LONGITUDE":-97.0907316,"NAME":"DR Horton Inc","POSTAL_CODE":"76006-6521","SECTOR":"REALEST","SHARES":339814930,"SIMILARS_GROUP":"HOMEBLDG","USD_CAP":15515949651.948357},{"ADDRESS":"1020 Hull St","CITY":"Baltimore","COMPANY_XRF":"14861","COMPANY_ZONE":"U","HQ_COUNTRY":"United States","HQ_COUNTRY_ISO":"US","LATITUDE":39.275091,"LISTING_XRF":"16638","LISTING_ZONE":"U","LONGITUDE":-76.5913832,"NAME":"Under Armour Inc","POSTAL_CODE":"21230","SECTOR":"CONSDIS","SHARES":187789000,"SIMILARS_GROUP":"APPAREL","USD_CAP":4120090760.290146},{"ADDRESS":"1 Liberty Plz","CITY":"New York","COMPANY_XRF":"14093","COMPANY_ZONE":"U","HQ_COUNTRY":"United States","HQ_COUNTRY_ISO":"US","LATITUDE":40.7097312,"LISTING_XRF":"15660","LISTING_ZONE":"U","LONGITUDE":-74.0109133,"NAME":"NASDAQ INC","POSTAL_CODE":"10006","SECTOR":"FINANCE","SHARES":115794000,"SIMILARS_GROUP":"TRADING","USD_CAP":10390196008.712769},{"ADDRESS":"1 Town Center Rd","CITY":"Boca Raton","COMPANY_XRF":"12432","COMPANY_ZONE":"U","HQ_COUNTRY":"United States","HQ_COUNTRY_ISO":"US","LATITUDE":26.419557,"LISTING_XRF":"13630","LISTING_ZONE":"U","LONGITUDE":-80.0963372,"NAME":"SBA COMMUNICATIONS CORP NEW","POSTAL_CODE":"33486-1002","SECTOR":"INDUSTRY","SHARES":112589000,"SIMILARS_GROUP":"CONSTRUC","USD_CAP":22446868380.249023},{"ADDRESS":"5445 Triangle Parkway, Suite 400","CITY":"Norcross","COMPANY_XRF":"15824","COMPANY_ZONE":"U","HQ_COUNTRY":"United States","HQ_COUNTRY_ISO":"US","LATITUDE":33.9731748,"LISTING_XRF":"17889","LISTING_ZONE":"U","LONGITUDE":-84.22420190000001,"NAME":"FleetCor Technologies Inc","POSTAL_CODE":"30092","SECTOR":"FINANCE","SHARES":85858000,"SIMILARS_GROUP":"COMMCRED","USD_CAP":21679145000},{"ADDRESS":"120 Monument Cir","CITY":"Indianapolis","COMPANY_XRF":"13807","COMPANY_ZONE":"U","HQ_COUNTRY":"United States","HQ_COUNTRY_ISO":"US","LATITUDE":39.7692172,"LISTING_XRF":"15256","LISTING_ZONE":"U","LONGITUDE":-86.1587223,"NAME":"ANTHEM INC","POSTAL_CODE":"46204","SECTOR":"FINANCE","SHARES":257012000,"SIMILARS_GROUP":"INS HLTH","USD_CAP":62710928000},{"ADDRESS":"2331 CityWest Boulevard","CITY":"Houston","COMPANY_XRF":"15984","COMPANY_ZONE":"U","HQ_COUNTRY":"United States","HQ_COUNTRY_ISO":"US","LATITUDE":29.740913,"LISTING_XRF":"18059","LISTING_ZONE":"U","LONGITUDE":-95.56090739999999,"NAME":"Phillips 66","POSTAL_CODE":"77042","SECTOR":"ENERGY","SHARES":419520000,"SIMILARS_GROUP":"OIL RFNG","USD_CAP":40752172543.94531},{"ADDRESS":"1700 Lincoln St Ste 1800","CITY":"Denver","COMPANY_XRF":"14036","COMPANY_ZONE":"U","HQ_COUNTRY":"United States","HQ_COUNTRY_ISO":"US","LATITUDE":39.743633,"LISTING_XRF":"15559","LISTING_ZONE":"U","LONGITUDE":-104.985467,"NAME":"Cimarex Energy Co","POSTAL_CODE":"80202-3433","SECTOR":"ENERGY","SHARES":101455000,"SIMILARS_GROUP":"OIL&GAS","USD_CAP":7147504440.383911},{"ADDRESS":"1441 Gardiner Lane","CITY":"Louisville","COMPANY_XRF":"10037","COMPANY_ZONE":"U","HQ_COUNTRY":"United States","HQ_COUNTRY_ISO":"US","LATITUDE":38.1979017,"LISTING_XRF":"10907","LISTING_ZONE":"U","LONGITUDE":-85.6956502,"NAME":"YUM BRANDS INC","POSTAL_CODE":"40213","SECTOR":"CONSDIS","SHARES":306414000,"SIMILARS_GROUP":"EATS","USD_CAP":31615796613.51013},{"ADDRESS":"14701 Charlson Rd","CITY":"Eden Prairie","COMPANY_XRF":"10752","COMPANY_ZONE":"U","HQ_COUNTRY":"United States","HQ_COUNTRY_ISO":"US","LATITUDE":44.820863,"LISTING_XRF":"11666","LISTING_ZONE":"U","LONGITUDE":-93.460822,"NAME":"CH ROBINSON WORLDWIDE INC","POSTAL_CODE":"55344-2178","SECTOR":"TRANSPRT","SHARES":136854000,"SIMILARS_GROUP":"FORWARDR","USD_CAP":12338757141.174316},{"ADDRESS":"10 Glenlake Parkway NE, North Tower","CITY":"Atlanta","COMPANY_XRF":"13316","COMPANY_ZONE":"U","HQ_COUNTRY":"United States","HQ_COUNTRY_ISO":"US","LATITUDE":33.9362532,"LISTING_XRF":"14338","LISTING_ZONE":"U","LONGITUDE":-84.36132289999999,"NAME":"Global Payments Inc","POSTAL_CODE":"30326","SECTOR":"TECH","SHARES":157603000,"SIMILARS_GROUP":"SOFTWARE","USD_CAP":22155830028.579712},{"ADDRESS":"17655 Waterview Pkwy","CITY":"Dallas","COMPANY_XRF":"13543","COMPANY_ZONE":"U","HQ_COUNTRY":"United States","HQ_COUNTRY_ISO":"US","LATITUDE":0,"LISTING_XRF":"14602","LISTING_ZONE":"U","LONGITUDE":0,"NAME":"Alliance Data Systems Corp","POSTAL_CODE":"75024","SECTOR":"TECH","SHARES":45578280,"SIMILARS_GROUP":"SOFTWARE","USD_CAP":7326708510},{"ADDRESS":"120 N Lasalle St Ste 3300","CITY":"Chicago","COMPANY_XRF":"14222","COMPANY_ZONE":"U","HQ_COUNTRY":"United States","HQ_COUNTRY_ISO":"US","LATITUDE":41.8822757,"LISTING_XRF":"15812","LISTING_ZONE":"U","LONGITUDE":-87.64045899999999,"NAME":"LKQ Corp","POSTAL_CODE":"60602-3544","SECTOR":"BUSINSRV","SHARES":314775000,"SIMILARS_GROUP":"WHLSE TR","USD_CAP":9635262942.123413},{"ADDRESS":"1 Salem Lake Dr","CITY":"Deerfield","COMPANY_XRF":"14899","COMPANY_ZONE":"U","HQ_COUNTRY":"United States","HQ_COUNTRY_ISO":"US","LATITUDE":0,"LISTING_XRF":"16684","LISTING_ZONE":"U","LONGITUDE":0,"NAME":"CF Industries Holdings Inc","POSTAL_CODE":"60015","SECTOR":"BASICIND","SHARES":222891000,"SIMILARS_GROUP":"INDSTRL","USD_CAP":10018950620.052338},{"ADDRESS":"1401 Wynkoop St Ste 500","CITY":"Denver","COMPANY_XRF":"14857","COMPANY_ZONE":"U","HQ_COUNTRY":"United States","HQ_COUNTRY_ISO":"US","LATITUDE":39.7504997,"LISTING_XRF":"16634","LISTING_ZONE":"U","LONGITUDE":-105.0031883,"NAME":"Chipotle Mexican Grill Inc","POSTAL_CODE":"80202","SECTOR":"CONSDIS","SHARES":24339920,"SIMILARS_GROUP":"EATS","USD_CAP":17078591250.43457},{"ADDRESS":"1981 Marcus Ave","CITY":"Jersey City","COMPANY_XRF":"15105","COMPANY_ZONE":"U","HQ_COUNTRY":"United States","HQ_COUNTRY_ISO":"US","LATITUDE":0,"LISTING_XRF":"16970","LISTING_ZONE":"U","LONGITUDE":0,"NAME":"Broadridge Financial Solutions LLC","POSTAL_CODE":"07306-4001","SECTOR":"TECH","SHARES":115681000,"SIMILARS_GROUP":"SOFTWARE","USD_CAP":13117068519.39392},{"ADDRESS":"1050 Caribbean Way","CITY":"Miami","COMPANY_XRF":"11457","COMPANY_ZONE":"U","HQ_COUNTRY":"United States","HQ_COUNTRY_ISO":"US","LATITUDE":25.7751808,"LISTING_XRF":"12444","LISTING_ZONE":"U","LONGITUDE":-80.1784845,"NAME":"ROYAL CARIBBEAN CRUISES LTD","POSTAL_CODE":"33132","SECTOR":"TRANSPRT","SHARES":171533340,"SIMILARS_GROUP":"SEA","USD_CAP":20654330097.573853},{"ADDRESS":"20330 Stevens Creek Blvd","CITY":"Cupertino","COMPANY_XRF":"5176","COMPANY_ZONE":"U","HQ_COUNTRY":"United States","HQ_COUNTRY_ISO":"US","LATITUDE":0,"LISTING_XRF":"5389","LISTING_ZONE":"U","LONGITUDE":0,"NAME":"Symantec Corp","POSTAL_CODE":"94043","SECTOR":"TECH","SHARES":639217000,"SIMILARS_GROUP":"SOFTWARE","USD_CAP":15507404566.30516},{"ADDRESS":"1801 Augustine Cut-Off","CITY":"Palo Alto","COMPANY_XRF":"8332","COMPANY_ZONE":"U","HQ_COUNTRY":"United States","HQ_COUNTRY_ISO":"US","LATITUDE":39.7625852,"LISTING_XRF":"8950","LISTING_ZONE":"U","LONGITUDE":-75.5535578,"NAME":"Incyte Corp Ltd","POSTAL_CODE":"19803","SECTOR":"HEALTH","SHARES":177659840,"SIMILARS_GROUP":"BIOTECH","USD_CAP":13086424465.009766},{"ADDRESS":"1020 Kifer Road","CITY":"Mountain View","COMPANY_XRF":"12990","COMPANY_ZONE":"U","HQ_COUNTRY":"United States","HQ_COUNTRY_ISO":"US","LATITUDE":37.372939,"LISTING_XRF":"14895","LISTING_ZONE":"U","LONGITUDE":-122.003967,"NAME":"Intuitive Surgical Inc","POSTAL_CODE":"94043-3061","SECTOR":"HEALTH","SHARES":114489000,"SIMILARS_GROUP":"MDCL INS","USD_CAP":56220968060.48584},{"ADDRESS":"80 Park Plaza","CITY":"Newark","COMPANY_XRF":"127","COMPANY_ZONE":"U","HQ_COUNTRY":"United States","HQ_COUNTRY_ISO":"US","LATITUDE":40.7370367,"LISTING_XRF":"129","LISTING_ZONE":"U","LONGITUDE":-74.1680642,"NAME":"Public Service Enterprise Group Inc","POSTAL_CODE":"07101","SECTOR":"UTILS","SHARES":505450000,"SIMILARS_GROUP":"ELECTRIC","USD_CAP":29538497305.870056},{"ADDRESS":"701 Western Ave","CITY":"Glendale","COMPANY_XRF":"1759","COMPANY_ZONE":"U","HQ_COUNTRY":"United States","HQ_COUNTRY_ISO":"US","LATITUDE":34.1663879,"LISTING_XRF":"1774","LISTING_ZONE":"U","LONGITUDE":-118.2954603,"NAME":"Public Storage","POSTAL_CODE":"91201","SECTOR":"REALEST","SHARES":150069140,"SIMILARS_GROUP":"REIT","USD_CAP":32167321074.94934},{"ADDRESS":"14040 Danielson St","CITY":"Poway","COMPANY_XRF":"9602","COMPANY_ZONE":"U","HQ_COUNTRY":"United States","HQ_COUNTRY_ISO":"US","LATITUDE":0,"LISTING_XRF":"10371","LISTING_ZONE":"U","LONGITUDE":0,"NAME":"RESMED INC","POSTAL_CODE":"92064-6857","SECTOR":"HEALTH","SHARES":143300000,"SIMILARS_GROUP":"MDCL INS","USD_CAP":14331433306.121826},{"ADDRESS":"1 Grand Canal Square","CITY":"Dublin","COMPANY_XRF":"13836","COMPANY_ZONE":"U","HQ_COUNTRY":"United States","HQ_COUNTRY_ISO":"US","LATITUDE":53.340642,"LISTING_XRF":"15294","LISTING_ZONE":"U","LONGITUDE":-6.239444,"NAME":"ACCENTURE PLC","POSTAL_CODE":"2","SECTOR":"BUSINSRV","SHARES":637449000,"SIMILARS_GROUP":"CONSLTNG","USD_CAP":113510548098.81592},{"ADDRESS":"1001 Louisiana Street, Suite 1000","CITY":"Houston","COMPANY_XRF":"15942","COMPANY_ZONE":"U","HQ_COUNTRY":"United States","HQ_COUNTRY_ISO":"US","LATITUDE":29.7580033,"LISTING_XRF":"18010","LISTING_ZONE":"U","LONGITUDE":-95.3676218,"NAME":"KINDER MORGAN INC DEL","POSTAL_CODE":"77002","SECTOR":"ENERGY","SHARES":1946744160,"SIMILARS_GROUP":"PIPELINE","USD_CAP":38993285524.8},{"ADDRESS":"4820 Emperor Blvd","CITY":"Durham","COMPANY_XRF":"16243","COMPANY_ZONE":"U","HQ_COUNTRY":"United States","HQ_COUNTRY_ISO":"US","LATITUDE":35.8807907,"LISTING_XRF":"18335","LISTING_ZONE":"U","LONGITUDE":-78.84066109999999,"NAME":"IQVIA HOLDINGS INC","POSTAL_CODE":"27703","SECTOR":"","SHARES":158239200,"SIMILARS_GROUP":"","USD_CAP":21262600531.347656},{"ADDRESS":"1200 E Algonquin Rd","CITY":"Arlington Heights","COMPANY_XRF":"14831","COMPANY_ZONE":"U","HQ_COUNTRY":"United States","HQ_COUNTRY_ISO":"US","LATITUDE":0,"LISTING_XRF":"16569","LISTING_ZONE":"U","LONGITUDE":0,"NAME":"United Continental Holdings Inc","POSTAL_CODE":"60005-4786","SECTOR":"TRANSPRT","SHARES":224051520,"SIMILARS_GROUP":"AIRLINES","USD_CAP":19617950544.19922},{"ADDRESS":"6-8 Alle De Larche","CITY":"London","COMPANY_XRF":"13547","COMPANY_ZONE":"U","HQ_COUNTRY":"United States","HQ_COUNTRY_ISO":"US","LATITUDE":0,"LISTING_XRF":"14606","LISTING_ZONE":"U","LONGITUDE":0,"NAME":"TECHNIPFMC PLC","POSTAL_CODE":"75773","SECTOR":"ENERGY","SHARES":425475960,"SIMILARS_GROUP":"OIL SRVC","USD_CAP":10619879572.065125},{"ADDRESS":"600 3rd Ave","CITY":"New York","COMPANY_XRF":"11270","COMPANY_ZONE":"U","HQ_COUNTRY":"United States","HQ_COUNTRY_ISO":"US","LATITUDE":40.7492599,"LISTING_XRF":"12218","LISTING_ZONE":"U","LONGITUDE":-73.975865,"NAME":"L-3 Communications Holdings Inc","POSTAL_CODE":"10016","SECTOR":"TECH","SHARES":79315000,"SIMILARS_GROUP":"ETRON SY","USD_CAP":16921061809.539795},{"ADDRESS":"350 Fifth Avenue","CITY":"New York","COMPANY_XRF":"16242","COMPANY_ZONE":"U","HQ_COUNTRY":"United States","HQ_COUNTRY_ISO":"US","LATITUDE":40.74848739999999,"LISTING_XRF":"18334","LISTING_ZONE":"U","LONGITUDE":-73.9853882,"NAME":"Coty Inc","POSTAL_CODE":"10016","SECTOR":"","SHARES":450754200,"SIMILARS_GROUP":"","USD_CAP":5057462244.364357},{"ADDRESS":"20 S Wacker Dr","CITY":"Chicago","COMPANY_XRF":"14085","COMPANY_ZONE":"U","HQ_COUNTRY":"United States","HQ_COUNTRY_ISO":"US","LATITUDE":41.8812552,"LISTING_XRF":"15650","LISTING_ZONE":"U","LONGITUDE":-87.6372287,"NAME":"CME GROUP INC","POSTAL_CODE":"60606","SECTOR":"FINANCE","SHARES":357774000,"SIMILARS_GROUP":"TRADING","USD_CAP":62531739283.26416},{"ADDRESS":"1099 Ameriprise Ctr","CITY":"Minneapolis","COMPANY_XRF":"14803","COMPANY_ZONE":"U","HQ_COUNTRY":"United States","HQ_COUNTRY_ISO":"US","LATITUDE":44.9750925,"LISTING_XRF":"16475","LISTING_ZONE":"U","LONGITUDE":-93.2689261,"NAME":"Ameriprise Financial Inc","POSTAL_CODE":"55474","SECTOR":"FINANCE","SHARES":135496000,"SIMILARS_GROUP":"SECURITI","USD_CAP":19390832642.700195},{"ADDRESS":"711 High St","CITY":"Des Moines","COMPANY_XRF":"13810","COMPANY_ZONE":"U","HQ_COUNTRY":"United States","HQ_COUNTRY_ISO":"US","LATITUDE":41.5886935,"LISTING_XRF":"15259","LISTING_ZONE":"U","LONGITUDE":-93.6275465,"NAME":"PRINCIPAL FINL GROUP INC","POSTAL_CODE":"50392","SECTOR":"FINANCE","SHARES":258832020,"SIMILARS_GROUP":"INVSTMAN","USD_CAP":14243525744.642944},{"ADDRESS":"100 N Sepulveda Blvd Ste 1050","CITY":"El Segundo","COMPANY_XRF":"14366","COMPANY_ZONE":"U","HQ_COUNTRY":"United States","HQ_COUNTRY_ISO":"US","LATITUDE":0,"LISTING_XRF":"15979","LISTING_ZONE":"U","LONGITUDE":0,"NAME":"CBRE GROUP INC","POSTAL_CODE":"90017-2584","SECTOR":"BUSINSRV","SHARES":312326550,"SIMILARS_GROUP":"SERVICES","USD_CAP":15775613516.270256},{"ADDRESS":"2001 3rd Ave S","CITY":"Birmingham","COMPANY_XRF":"303","COMPANY_ZONE":"U","HQ_COUNTRY":"United States","HQ_COUNTRY_ISO":"US","LATITUDE":0,"LISTING_XRF":"305","LISTING_ZONE":"U","LONGITUDE":0,"NAME":"TORCHMARK CORP","POSTAL_CODE":"35233-2115","SECTOR":"FINANCE","SHARES":101417120,"SIMILARS_GROUP":"INS LIFE","USD_CAP":8829374219.59961},{"ADDRESS":"1211 Avenue Of The Americas","CITY":"New York","COMPANY_XRF":"16188","COMPANY_ZONE":"U","HQ_COUNTRY":"United States","HQ_COUNTRY_ISO":"US","LATITUDE":40.758464,"LISTING_XRF":"18271","LISTING_ZONE":"U","LONGITUDE":-73.98180599999999,"NAME":"News Corp","POSTAL_CODE":"10036","SECTOR":"","SHARES":385325000,"SIMILARS_GROUP":"","USD_CAP":4793442838.311195},{"ADDRESS":"911 Panorama Trail South","CITY":"Rochester","COMPANY_XRF":"1944","COMPANY_ZONE":"U","HQ_COUNTRY":"United States","HQ_COUNTRY_ISO":"US","LATITUDE":43.1250668,"LISTING_XRF":"1960","LISTING_ZONE":"U","LONGITUDE":-77.49238869999999,"NAME":"Paychex Inc","POSTAL_CODE":"14625","SECTOR":"BUSINSRV","SHARES":319582980,"SIMILARS_GROUP":"SERVICES","USD_CAP":26081166997.8},{"ADDRESS":"1800 West Center Street","CITY":"Warsaw","COMPANY_XRF":"13555","COMPANY_ZONE":"U","HQ_COUNTRY":"United States","HQ_COUNTRY_ISO":"US","LATITUDE":41.2405012,"LISTING_XRF":"14614","LISTING_ZONE":"U","LONGITUDE":-85.88388979999999,"NAME":"ZIMMER BIOMET HLDGS INC","POSTAL_CODE":"46580","SECTOR":"HEALTH","SHARES":204433000,"SIMILARS_GROUP":"MDCL INS","USD_CAP":24777278976.119995},{"ADDRESS":"3655 NorthWest 87th Avenue","CITY":"Doral","COMPANY_XRF":"4021","COMPANY_ZONE":"U","HQ_COUNTRY":"United States","HQ_COUNTRY_ISO":"US","LATITUDE":25.8072615,"LISTING_XRF":"4172","LISTING_ZONE":"U","LONGITUDE":-80.3357092,"NAME":"CARNIVAL CORP","POSTAL_CODE":"33178","SECTOR":"TRANSPRT","SHARES":400406760,"SIMILARS_GROUP":"WATERWAY","USD_CAP":21249586631.005554},{"ADDRESS":"10 S Dearborn St","CITY":"Chicago","COMPANY_XRF":"194","COMPANY_ZONE":"U","HQ_COUNTRY":"United States","HQ_COUNTRY_ISO":"US","LATITUDE":41.8815962,"LISTING_XRF":"196","LISTING_ZONE":"U","LONGITUDE":-87.630245,"NAME":"Exelon Corp","POSTAL_CODE":"60603","SECTOR":"UTILS","SHARES":969746000,"SIMILARS_GROUP":"ELECTRIC","USD_CAP":47983031636.08551},{"ADDRESS":"3131 Las Vegas Blvd S","CITY":"Las Vegas","COMPANY_XRF":"14218","COMPANY_ZONE":"U","HQ_COUNTRY":"United States","HQ_COUNTRY_ISO":"US","LATITUDE":36.1264898,"LISTING_XRF":"15808","LISTING_ZONE":"U","LONGITUDE":-115.165739,"NAME":"Wynn Resorts Ltd","POSTAL_CODE":"89109","SECTOR":"BUSINSRV","SHARES":96871500,"SIMILARS_GROUP":"RESORTS","USD_CAP":13562010000},{"ADDRESS":"15615 McGinty Rd W","CITY":"Plymouth","COMPANY_XRF":"14400","COMPANY_ZONE":"U","HQ_COUNTRY":"United States","HQ_COUNTRY_ISO":"US","LATITUDE":0,"LISTING_XRF":"16032","LISTING_ZONE":"U","LONGITUDE":0,"NAME":"MOSAIC CO NEW","POSTAL_CODE":"55391-2364","SECTOR":"BASICIND","SHARES":354632400,"SIMILARS_GROUP":"AG CHEM","USD_CAP":9631815929.88739},{"ADDRESS":"3100 Ocean Park Blvd","CITY":"Santa Monica","COMPANY_XRF":"2895","COMPANY_ZONE":"U","HQ_COUNTRY":"United States","HQ_COUNTRY_ISO":"US","LATITUDE":34.0198026,"LISTING_XRF":"2920","LISTING_ZONE":"U","LONGITUDE":-118.4524457,"NAME":"ACTIVISION BLIZZARD INC","POSTAL_CODE":"90405","SECTOR":"BUSINSRV","SHARES":763834000,"SIMILARS_GROUP":"WHLSE TR","USD_CAP":34632233676.55182},{"ADDRESS":"2000 Purchase St","CITY":"Purchase","COMPANY_XRF":"15121","COMPANY_ZONE":"U","HQ_COUNTRY":"United States","HQ_COUNTRY_ISO":"US","LATITUDE":41.0234636,"LISTING_XRF":"16997","LISTING_ZONE":"U","LONGITUDE":-73.71427609999999,"NAME":"MASTERCARD INC","POSTAL_CODE":"10577","SECTOR":"TECH","SHARES":902671820,"SIMILARS_GROUP":"SOFTWARE","USD_CAP":219394388605.73578},{"ADDRESS":"5200 Illumina Way","CITY":"San Diego","COMPANY_XRF":"13067","COMPANY_ZONE":"U","HQ_COUNTRY":"United States","HQ_COUNTRY_ISO":"US","LATITUDE":32.8710956,"LISTING_XRF":"14990","LISTING_ZONE":"U","LONGITUDE":-117.1989769,"NAME":"Illumina Inc","POSTAL_CODE":"92121","SECTOR":"HEALTH","SHARES":147000000,"SIMILARS_GROUP":"MDCL INS","USD_CAP":46906229461.66992},{"ADDRESS":"437 Madison Ave","CITY":"New York","COMPANY_XRF":"1636","COMPANY_ZONE":"U","HQ_COUNTRY":"United States","HQ_COUNTRY_ISO":"US","LATITUDE":40.7573566,"LISTING_XRF":"1651","LISTING_ZONE":"U","LONGITUDE":-73.9753734,"NAME":"Omnicom Group Inc","POSTAL_CODE":"10022","SECTOR":"BUSINSRV","SHARES":223691000,"SIMILARS_GROUP":"ADS","USD_CAP":18295687094.795227},{"ADDRESS":"100 Crystal A Dr","CITY":"Hershey","COMPANY_XRF":"352","COMPANY_ZONE":"U","HQ_COUNTRY":"United States","HQ_COUNTRY_ISO":"US","LATITUDE":40.3010092,"LISTING_XRF":"355","LISTING_ZONE":"U","LONGITUDE":-76.64844579999999,"NAME":"HERSHEY CO","POSTAL_CODE":"17033","SECTOR":"CONSTAPL","SHARES":139031640,"SIMILARS_GROUP":"FOOD","USD_CAP":16272263272.887268},{"ADDRESS":"160 Ben Burton Rd","CITY":"Bogart","COMPANY_XRF":"5826","COMPANY_ZONE":"U","HQ_COUNTRY":"United States","HQ_COUNTRY_ISO":"US","LATITUDE":0,"LISTING_XRF":"6621","LISTING_ZONE":"U","LONGITUDE":0,"NAME":"ROPER TECHNOLOGIES INC","POSTAL_CODE":"30097-4074","SECTOR":"INDUSTRY","SHARES":103608000,"SIMILARS_GROUP":"MACHINES","USD_CAP":36349830340.57617},{"ADDRESS":"12800 Tuckahoe Creek Parkway","CITY":"Glen Allen","COMPANY_XRF":"14034","COMPANY_ZONE":"U","HQ_COUNTRY":"United States","HQ_COUNTRY_ISO":"US","LATITUDE":0,"LISTING_XRF":"15555","LISTING_ZONE":"U","LONGITUDE":0,"NAME":"Carmax Inc","POSTAL_CODE":"23060-6295","SECTOR":"CONSDIS","SHARES":170087000,"SIMILARS_GROUP":"RTL SPEC","USD_CAP":12875585380.935669},{"ADDRESS":"222 West Merchandise Mart Plaza, Suite 1300","CITY":"Chicago","COMPANY_XRF":"16709","COMPANY_ZONE":"U","HQ_COUNTRY":"United States","HQ_COUNTRY_ISO":"US","LATITUDE":0,"LISTING_XRF":"18871","LISTING_ZONE":"U","LONGITUDE":0,"NAME":"LAMB WESTON HLDGS INC","POSTAL_CODE":"60654","SECTOR":"","SHARES":146492000,"SIMILARS_GROUP":"","USD_CAP":10093299023.529053},{"ADDRESS":"N56 W17000 Ridgewood Dr","CITY":"Menomonee Falls","COMPANY_XRF":"2790","COMPANY_ZONE":"U","HQ_COUNTRY":"United States","HQ_COUNTRY_ISO":"US","LATITUDE":43.1220098,"LISTING_XRF":"6873","LISTING_ZONE":"U","LONGITUDE":-88.1232593,"NAME":"KOHLS CORP","POSTAL_CODE":"53051","SECTOR":"CONSDIS","SHARES":165129000,"SIMILARS_GROUP":"RTL DEPT","USD_CAP":11137950546.066284},{"ADDRESS":"2500 Lake Cook Rd","CITY":"Riverwoods","COMPANY_XRF":"15260","COMPANY_ZONE":"U","HQ_COUNTRY":"United States","HQ_COUNTRY_ISO":"US","LATITUDE":42.1567624,"LISTING_XRF":"17155","LISTING_ZONE":"U","LONGITUDE":-87.8901097,"NAME":"Discover Financial Services","POSTAL_CODE":"60015","SECTOR":"FINANCE","SHARES":328387000,"SIMILARS_GROUP":"CREDIT","USD_CAP":25249676229.56848},{"ADDRESS":"1515 Broadway","CITY":"New York","COMPANY_XRF":"14826","COMPANY_ZONE":"U","HQ_COUNTRY":"United States","HQ_COUNTRY_ISO":"US","LATITUDE":40.7579353,"LISTING_XRF":"16554","LISTING_ZONE":"U","LONGITUDE":-73.9861885,"NAME":"VIACOM INC","POSTAL_CODE":"10019-6188","SECTOR":"CONSDIS","SHARES":353640000,"SIMILARS_GROUP":"BROADCAS","USD_CAP":10262632961.883545},{"ADDRESS":"85 Broad Street","CITY":"Diemen","COMPANY_XRF":"15926","COMPANY_ZONE":"U","HQ_COUNTRY":"United States","HQ_COUNTRY_ISO":"US","LATITUDE":40.7039915,"LISTING_XRF":"17992","LISTING_ZONE":"U","LONGITUDE":-74.0110917,"NAME":"Nielsen Holdings PLC","POSTAL_CODE":"10004","SECTOR":"CONSDIS","SHARES":355447000,"SIMILARS_GROUP":"AMUSMENT","USD_CAP":9255839880.000002},{"ADDRESS":"1 Chase Manhattan Plz Fl 41","CITY":"New York","COMPANY_XRF":"14193","COMPANY_ZONE":"U","HQ_COUNTRY":"United States","HQ_COUNTRY_ISO":"US","LATITUDE":40.7077916,"LISTING_XRF":"15779","LISTING_ZONE":"U","LONGITUDE":-74.0089405,"NAME":"ASSURANT INC","POSTAL_CODE":"10005","SECTOR":"FINANCE","SHARES":61696000,"SIMILARS_GROUP":"INS MISC","USD_CAP":5675414908.203125},{"ADDRESS":"2001 Theurer Blvd","CITY":"Winona","COMPANY_XRF":"4344","COMPANY_ZONE":"U","HQ_COUNTRY":"United States","HQ_COUNTRY_ISO":"US","LATITUDE":44.06284,"LISTING_XRF":"4495","LISTING_ZONE":"U","LONGITUDE":-91.68755499999999,"NAME":"FASTENAL CO","POSTAL_CODE":"55987","SECTOR":"CONSDIS","SHARES":286158000,"SIMILARS_GROUP":"RTL DOIT","USD_CAP":20059675363.357544},{"ADDRESS":"3003 Tasman Dr","CITY":"Santa Clara","COMPANY_XRF":"6679","COMPANY_ZONE":"U","HQ_COUNTRY":"United States","HQ_COUNTRY_ISO":"US","LATITUDE":37.4042585,"LISTING_XRF":"7316","LISTING_ZONE":"U","LONGITUDE":-121.982235,"NAME":"SVB FINANCIAL GP","POSTAL_CODE":"95054","SECTOR":"FINANCE","SHARES":52631000,"SIMILARS_GROUP":"S&L","USD_CAP":12771964673.62976},{"ADDRESS":"5775 Morehouse Dr","CITY":"San Diego","COMPANY_XRF":"3069","COMPANY_ZONE":"U","HQ_COUNTRY":"United States","HQ_COUNTRY_ISO":"US","LATITUDE":32.8960756,"LISTING_XRF":"6880","LISTING_ZONE":"U","LONGITUDE":-117.1955984,"NAME":"QUALCOMM Inc","POSTAL_CODE":"92121","SECTOR":"TECH","SHARES":1210306000,"SIMILARS_GROUP":"SEMICOND","USD_CAP":99208784297.42432},{"ADDRESS":"120 Park Ave","CITY":"New York","COMPANY_XRF":"15312","COMPANY_ZONE":"U","HQ_COUNTRY":"United States","HQ_COUNTRY_ISO":"US","LATITUDE":40.7518892,"LISTING_XRF":"17248","LISTING_ZONE":"U","LONGITUDE":-73.9782981,"NAME":"Philip Morris International Inc","POSTAL_CODE":"10017","SECTOR":"CONSTAPL","SHARES":1554524000,"SIMILARS_GROUP":"TOBACCO","USD_CAP":131030829383.20923},{"ADDRESS":"1840 Century Park East","CITY":"Los Angeles","COMPANY_XRF":"15807","COMPANY_ZONE":"U","HQ_COUNTRY":"United States","HQ_COUNTRY_ISO":"US","LATITUDE":36.9882362,"LISTING_XRF":"17871","LISTING_ZONE":"U","LONGITUDE":-76.4371783,"NAME":"Huntington Ingalls Industries Inc","POSTAL_CODE":"23607","SECTOR":"INDUSTRY","SHARES":41530000,"SIMILARS_GROUP":"SHIPBLDG","USD_CAP":9098807547.912598},{"ADDRESS":"1 Leggett Rd","CITY":"Carthage","COMPANY_XRF":"1293","COMPANY_ZONE":"U","HQ_COUNTRY":"United States","HQ_COUNTRY_ISO":"US","LATITUDE":0,"LISTING_XRF":"1303","LISTING_ZONE":"U","LONGITUDE":0,"NAME":"Leggett & Platt Inc","POSTAL_CODE":"64836","SECTOR":"BASICIND","SHARES":131072000,"SIMILARS_GROUP":"STEEL PR","USD_CAP":5615124500},{"ADDRESS":"10 Hudson Yards","CITY":"New York","COMPANY_XRF":"13233","COMPANY_ZONE":"U","HQ_COUNTRY":"United States","HQ_COUNTRY_ISO":"US","LATITUDE":40.7526762,"LISTING_XRF":"14212","LISTING_ZONE":"U","LONGITUDE":-74.00115009999999,"NAME":"TAPESTRY INC","POSTAL_CODE":"10001","SECTOR":"CONSDIS","SHARES":289978000,"SIMILARS_GROUP":"WATCHES","USD_CAP":8902324821.235657},{"ADDRESS":"1133 Innovation Way","CITY":"Mountain View","COMPANY_XRF":"7869","COMPANY_ZONE":"U","HQ_COUNTRY":"United States","HQ_COUNTRY_ISO":"US","LATITUDE":37.4075923,"LISTING_XRF":"13064","LISTING_ZONE":"U","LONGITUDE":-122.0292407,"NAME":"Juniper Networks Inc","POSTAL_CODE":"94043-5240","SECTOR":"TECH","SHARES":347922000,"SIMILARS_GROUP":"NETWORKS","USD_CAP":9710502966.911316},{"ADDRESS":"1 Water Street","CITY":"Camden","COMPANY_XRF":"15541","COMPANY_ZONE":"U","HQ_COUNTRY":"United States","HQ_COUNTRY_ISO":"US","LATITUDE":39.9487832,"LISTING_XRF":"17532","LISTING_ZONE":"U","LONGITUDE":-75.1306142,"NAME":"American Water Works Co Inc","POSTAL_CODE":"08043","SECTOR":"UTILS","SHARES":180752000,"SIMILARS_GROUP":"WATER UT","USD_CAP":18966307415.161133},{"ADDRESS":"800 Connecticut Ave","CITY":"Norwalk","COMPANY_XRF":"11721","COMPANY_ZONE":"U","HQ_COUNTRY":"United States","HQ_COUNTRY_ISO":"US","LATITUDE":0,"LISTING_XRF":"12791","LISTING_ZONE":"U","LONGITUDE":0,"NAME":"Booking Holdings Inc","POSTAL_CODE":"06854","SECTOR":"CONSDIS","SHARES":45013000,"SIMILARS_GROUP":"RTL.INET","USD_CAP":83011626188.11035},{"ADDRESS":"315 Park Ave S","CITY":"New York","COMPANY_XRF":"1527","COMPANY_ZONE":"U","HQ_COUNTRY":"United States","HQ_COUNTRY_ISO":"US","LATITUDE":0,"LISTING_XRF":"1540","LISTING_ZONE":"U","LONGITUDE":0,"NAME":"JEFFERIES FINL GROUP INC","POSTAL_CODE":"10010","SECTOR":"CONSTAPL","SHARES":262993170,"SIMILARS_GROUP":"MEAT","USD_CAP":5233563982.676067},{"ADDRESS":"7 World Trade Center, 49th Floor, 250 Greenwich Street","CITY":"New York","COMPANY_XRF":"15336","COMPANY_ZONE":"U","HQ_COUNTRY":"United States","HQ_COUNTRY_ISO":"US","LATITUDE":40.7133882,"LISTING_XRF":"17308","LISTING_ZONE":"U","LONGITUDE":-74.0120762,"NAME":"MSCI Inc","POSTAL_CODE":"10005","SECTOR":"BUSINSRV","SHARES":84323000,"SIMILARS_GROUP":"INFO SRV","USD_CAP":18764397087.06665},{"ADDRESS":"100 Mission Rdg","CITY":"Goodlettsvile ","COMPANY_XRF":"15686","COMPANY_ZONE":"U","HQ_COUNTRY":"United States","HQ_COUNTRY_ISO":"US","LATITUDE":36.2946886,"LISTING_XRF":"17724","LISTING_ZONE":"U","LONGITUDE":-86.7309306,"NAME":"Dollar General Corp","POSTAL_CODE":"37072","SECTOR":"CONSDIS","SHARES":262884000,"SIMILARS_GROUP":"RTL DISC","USD_CAP":32481946398.19336},{"ADDRESS":"12500 E Belford Ave","CITY":"Denver","COMPANY_XRF":"15011","COMPANY_ZONE":"U","HQ_COUNTRY":"United States","HQ_COUNTRY_ISO":"US","LATITUDE":39.5378923,"LISTING_XRF":"16814","LISTING_ZONE":"U","LONGITUDE":-104.8833636,"NAME":"Western Union Co\/The","POSTAL_CODE":"80112","SECTOR":"TECH","SHARES":435891000,"SIMILARS_GROUP":"SOFTWARE","USD_CAP":8399619769.535065},{"ADDRESS":"1 North Waukegan Road","CITY":"Chicago","COMPANY_XRF":"16055","COMPANY_ZONE":"U","HQ_COUNTRY":"United States","HQ_COUNTRY_ISO":"US","LATITUDE":42.3021245,"LISTING_XRF":"18133","LISTING_ZONE":"U","LONGITUDE":-87.8915724,"NAME":"AbbVie Inc","POSTAL_CODE":"60064","SECTOR":"","SHARES":1475084000,"SIMILARS_GROUP":"","USD_CAP":115277816850.79956},{"ADDRESS":"10350 Ormsby Park Pl Ste 300","CITY":"Chicago","COMPANY_XRF":"5250","COMPANY_ZONE":"U","HQ_COUNTRY":"United States","HQ_COUNTRY_ISO":"US","LATITUDE":0,"LISTING_XRF":"5463","LISTING_ZONE":"U","LONGITUDE":0,"NAME":"VENTAS INC","POSTAL_CODE":"40207-1642","SECTOR":"REALEST","SHARES":356186000,"SIMILARS_GROUP":"REIT","USD_CAP":20576865383.04901},{"ADDRESS":"539 South Main Street","CITY":"Findlay","COMPANY_XRF":"15819","COMPANY_ZONE":"U","HQ_COUNTRY":"United States","HQ_COUNTRY_ISO":"US","LATITUDE":41.036057,"LISTING_XRF":"17884","LISTING_ZONE":"U","LONGITUDE":-83.64921,"NAME":"MARATHON PETE CORP","POSTAL_CODE":"45840","SECTOR":"ENERGY","SHARES":673619000,"SIMILARS_GROUP":"OIL RFNG","USD_CAP":41178330189.502716},{"ADDRESS":"56 Top Gallant Rd","CITY":"Stamford","COMPANY_XRF":"7694","COMPANY_ZONE":"U","HQ_COUNTRY":"United States","HQ_COUNTRY_ISO":"US","LATITUDE":41.0304821,"LISTING_XRF":"8323","LISTING_ZONE":"U","LONGITUDE":-73.55030239999999,"NAME":"Gartner Inc","POSTAL_CODE":"06902","SECTOR":"BUSINSRV","SHARES":89712000,"SIMILARS_GROUP":"CONSLTNG","USD_CAP":14183467747.558594},{"ADDRESS":"33 Sir John Rogerson's Quay","CITY":"Allegan","COMPANY_XRF":"2724","COMPANY_ZONE":"U","HQ_COUNTRY":"United States","HQ_COUNTRY_ISO":"US","LATITUDE":0,"LISTING_XRF":"6871","LISTING_ZONE":"U","LONGITUDE":0,"NAME":"PERRIGO CO PLC","POSTAL_CODE":"2","SECTOR":"HEALTH","SHARES":125003160,"SIMILARS_GROUP":"DRUGS","USD_CAP":6121404745.2},{"ADDRESS":"116 Huntington Ave","CITY":"Boston","COMPANY_XRF":"11231","COMPANY_ZONE":"U","HQ_COUNTRY":"United States","HQ_COUNTRY_ISO":"US","LATITUDE":42.346449,"LISTING_XRF":"12179","LISTING_ZONE":"U","LONGITUDE":-71.079981,"NAME":"AMERICAN TOWER CORP NEW","POSTAL_CODE":"02116","SECTOR":"REALEST","SHARES":441135000,"SIMILARS_GROUP":"REIT","USD_CAP":84839086430.96924},{"ADDRESS":"1 Ppg Pl","CITY":"Pittsburgh","COMPANY_XRF":"16436","COMPANY_ZONE":"U","HQ_COUNTRY":"United States","HQ_COUNTRY_ISO":"US","LATITUDE":40.43988179999999,"LISTING_XRF":"18548","LISTING_ZONE":"U","LONGITUDE":-80.0037001,"NAME":"KRAFT HEINZ CO\/THE","POSTAL_CODE":"15219-2200","SECTOR":"","SHARES":621911850,"SIMILARS_GROUP":"","USD_CAP":20460900813.962173},{"ADDRESS":"90 Pitts Bay Road 2nd Floor","CITY":"Pembroke","COMPANY_XRF":"15251","COMPANY_ZONE":"U","HQ_COUNTRY":"United States","HQ_COUNTRY_ISO":"US","LATITUDE":0,"LISTING_XRF":"17141","LISTING_ZONE":"U","LONGITUDE":0,"NAME":"TE CONNECTIVITY LTD","POSTAL_CODE":"8200","SECTOR":"TECH","SHARES":338854000,"SIMILARS_GROUP":"ETRON CM","USD_CAP":30032630020.000004},{"ADDRESS":"10005 Muirlands Boulevard, Suite G","CITY":"Beverly Hills","COMPANY_XRF":"16215","COMPANY_ZONE":"U","HQ_COUNTRY":"United States","HQ_COUNTRY_ISO":"US","LATITUDE":0,"LISTING_XRF":"18303","LISTING_ZONE":"U","LONGITUDE":0,"NAME":"HILTON WORLDWIDE H","POSTAL_CODE":"22102","SECTOR":"","SHARES":292847000,"SIMILARS_GROUP":"","USD_CAP":25744179770.000004},{"ADDRESS":"1585 Broadway","CITY":"New York","COMPANY_XRF":"3640","COMPANY_ZONE":"U","HQ_COUNTRY":"United States","HQ_COUNTRY_ISO":"US","LATITUDE":40.7599978,"LISTING_XRF":"3663","LISTING_ZONE":"U","LONGITUDE":-73.98543169999999,"NAME":"MORGAN STANLEY","POSTAL_CODE":"10036","SECTOR":"FINANCE","SHARES":1298678880,"SIMILARS_GROUP":"SECURITI","USD_CAP":61414525424.176025},{"ADDRESS":"10 Riverview Drive","CITY":"Danbury","COMPANY_XRF":"16827","COMPANY_ZONE":"U","HQ_COUNTRY":"United States","HQ_COUNTRY_ISO":"US","LATITUDE":0,"LISTING_XRF":"19007","LISTING_ZONE":"U","LONGITUDE":0,"NAME":"LINDE PLC","POSTAL_CODE":"06810","SECTOR":"","SHARES":551055000,"SIMILARS_GROUP":"","USD_CAP":98583739500},{"ADDRESS":"1000 Remington Blvd, Ste 120","CITY":"Bolingbrook","COMPANY_XRF":"15353","COMPANY_ZONE":"U","HQ_COUNTRY":"United States","HQ_COUNTRY_ISO":"US","LATITUDE":41.6800626,"LISTING_XRF":"17325","LISTING_ZONE":"U","LONGITUDE":-88.1062547,"NAME":"ULTA BEAUTY INC","POSTAL_CODE":"46783","SECTOR":"CONSDIS","SHARES":56346400,"SIMILARS_GROUP":"RTL SPEC","USD_CAP":19575303030.34668},{"ADDRESS":"520 Lake Cook Road","CITY":"Deerfield","COMPANY_XRF":"15934","COMPANY_ZONE":"U","HQ_COUNTRY":"United States","HQ_COUNTRY_ISO":"US","LATITUDE":0,"LISTING_XRF":"18002","LISTING_ZONE":"U","LONGITUDE":0,"NAME":"FORTUNE BRANDS HOME & SEC IN","POSTAL_CODE":"60015","SECTOR":"BASICIND","SHARES":140549000,"SIMILARS_GROUP":"BLDG MAT","USD_CAP":6792733427.352905},{"ADDRESS":"4th Floor, One Vine Street","CITY":"Houston","COMPANY_XRF":"15875","COMPANY_ZONE":"U","HQ_COUNTRY":"United States","HQ_COUNTRY_ISO":"US","LATITUDE":0,"LISTING_XRF":"17940","LISTING_ZONE":"U","LONGITUDE":0,"NAME":"LyondellBasell Industries NV","POSTAL_CODE":"3013 AA","SECTOR":"ENERGY","SHARES":304348740,"SIMILARS_GROUP":"OIL RFNG","USD_CAP":27997039942.44095}]